#------------------------------------------------------------
~VERSION INFORMATION
VERS.               2.0  :CWLS LOG ASCII STANDARD - VERSION 2.0
WRAP.               YES  :MULTIPLE LINES PER DEPTH STEP
#------------------------------------------------------------
~WELL INFORMATION
STRT.M          113.650  :FIRST INDEX VALUE
STOP.M          133.250  :LAST INDEX VALUE
STEP.M        0.0500000  :STEP
NULL.            -99999  :NULL VALUE
COMP.                    :COMPANY
WELL.                    :WELL
FLD.                     :FLD
LOC.                     :LOCATION
SRVC.                    :
CTRY.                    :COUNTRY
STAT.                    :STATE
CNTY.                    :
DATE.                    :DATE
API.                     :API
#------------------------------------------------------------
~CURVE INFORMATION
DEPT.M                   :DEPTH
SP.MV                    :SP
VSPR.V                   :VSPR
SPR.OHM                  :SPR
N8.OHM.M                 :N8
N16.OHM.M                :N16
N32.OHM.M                :N32
N64.OHM.M                :N64
IPLIN161.MV/V            :IPlin161
IPLIN165.MV/V            :IPlin165
IPLIN1610.MV/V           :IPlin1610
IPLIN645.MV/V            :IPlin645
IPLIN6410.MV/V           :IPlin6410
MAG_SUSC.10E-3_SI_UNITS   :Mag Susc
INDUCTION.MS/M           :Induction
IND_RES.OHM-M            :Ind Res
K.%                      :K
U.PPM                    :U
TH.PPM                   :Th
TILT.DEG                 :Tilt
MAGNFIELD.UT             :MagnField
AZIMUTH.DEG              :Azimuth
GRAVITY.G                :Gravity
GR.API                   :GR
CALIPER.CM               :Caliper
VP.M/S                   :Vp
VS.M/S                   :Vs
RHO-ND.G/CM3             :rho-ND
POISSON_RATIO.           :Poisson ratio
#------------------------------------------------------------
~PARAMETER INFORMATION
API_Well_Number_. Yorbeau (Gamble)  :API Well Number:
Acquisition_dates_from_. 21/06/19  :Acquisition dates from:
Acquisition_dates_to_. 22/06/19  :Acquisition dates to:
BIT_FROM1.               :BIT FROM1
BIT_FROM2.               :BIT FROM2
BIT_FROM3.               :BIT FROM3
BIT_FROM4.               :BIT FROM4
BIT_FROM5.               :BIT FROM5
BIT_FROM6.               :BIT FROM6
BIT_TO1.                 :BIT TO1
BIT_TO2.                 :BIT TO2
BIT_TO3.                 :BIT TO3
BIT_TO4.                 :BIT TO4
BIT_TO5.                 :BIT TO5
BIT_TO6.                 :BIT TO6
BIT1.                    :BIT1
BIT2.                    :BIT2
BIT3.                    :BIT3
BIT4.                    :BIT4
BIT5.                    :BIT5
BIT6.                    :BIT6
BTM_LOGGED_INTERVAL.     :BTM LOGGED INTERVAL
CASING_FROM1.            :CASING FROM1
CASING_FROM2.            :CASING FROM2
CASING_FROM3.            :CASING FROM3
CASING_FROM4.            :CASING FROM4
CASING_FROM5.            :CASING FROM5
CASING_FROM6.            :CASING FROM6
CASING_SIZE1.            :CASING SIZE1
CASING_SIZE2.            :CASING SIZE2
CASING_SIZE3.            :CASING SIZE3
CASING_SIZE4.            :CASING SIZE4
CASING_SIZE5.            :CASING SIZE5
CASING_SIZE6.            :CASING SIZE6
CASING_TO1.              :CASING TO1
CASING_TO2.              :CASING TO2
CASING_TO3.              :CASING TO3
CASING_TO4.              :CASING TO4
CASING_TO5.              :CASING TO5
CASING_TO6.              :CASING TO6
CO.                      :CO
CTY.                     :CTY
Country_.        Canada  :Country:
Customer_.  Metal Earth  :Customer:
D_F_.                    :D.F.
DENSITY.                 :DENSITY
DEPTH-DRILLER.           :DEPTH-DRILLER
DEPTH-LOGGER.            :DEPTH-LOGGER
DRILLING_MEAS__FROM.     :DRILLING MEAS. FROM
Depth_unit_.     meters  :Depth unit:
Drilling_measured_from_.   :Drilling measured from:
ELEVATION.               :ELEVATION
FIELD.                   :FIELD
FILING_No.               :FILING No
File_Name_. 12-GA-584-petrophysics.WCL  :File Name:
G_L_.                    :G.L.
Height_above_drilling_datum_.   :Height above drilling datum:
Height_above_log_datum_.   :Height above log datum:
K_B_.                    :K.B.
LEVEL.                   :LEVEL
LOG_MEAS__FROM.          :LOG MEAS. FROM
Location_Description_.   :Location Description:
Log_interval_is_from_. 0.84 m  :Log interval is from:
Log_interval_to_. 165 m  :Log interval to:
Log_is_measured_from_. TOP OF COLLAR  :Log is measured from:
MAX__REC__TEMP_.         :MAX. REC. TEMP.
OPERATING_RIG_TIME.      :OPERATING RIG TIME
OTHER_SERVICES.          :OTHER SERVICES
Operator_.      FG, JCD  :Operator:
Other_Services_.         :Other Services:
PERMANENT_DATUM.         :PERMANENT DATUM
Permanent_datum_elevation_#1.   :Permanent datum elevation:#1
Permanent_datum_is_#1.   :Permanent datum is:#1
Permanent_datum_is_#2.   :Permanent datum is:#2
Permanent_datum_is_#3.   :Permanent datum is:#3
Permanent_datum_is__.    :Permanent datum is::
Print_type_is_.          :Print type is:
RECORDED_BY.             :RECORDED BY
RGE.                     :RGE
RUN_No.                  :RUN No
RUN1.                    :RUN1
RUN2.                    :RUN2
RUN3.                    :RUN3
RUN4.                    :RUN4
RUN5.                    :RUN5
RUN6.                    :RUN6
SALINITY.                :SALINITY
SEC.                     :SEC
STE.                     :STE
Scale_ratio_.            :Scale ratio:
Scaled_depth_is_.        :Scaled depth is:
Service_Company_. Université Laval  :Service Company:
State_/_Province_. Québec  :State / Province:
TITLE.                   :TITLE
TOP_LOGGED_INTERVAL.     :TOP LOGGED INTERVAL
TWP.                     :TWP
TYPE_FLUID_IN_HOLE.      :TYPE FLUID IN HOLE
TYPE_LOG.                :TYPE LOG
WELL_ID.                 :WELL ID
WGT1.                    :WGT1
WGT2.                    :WGT2
WGT3.                    :WGT3
WGT4.                    :WGT4
WGT5.                    :WGT5
WGT6.                    :WGT6
WITNESSED_BY.            :WITNESSED BY
Well_Name_.   12-GA-584  :Well Name:
#------------------------------------------------------------
~OTHER
#------------------------------------------------------------
~A
# ...
   121.700
     713.880     15.8440     383.639     493.328     702.858
     1024.32     1306.91     104.412     48.8550     35.5688
     59.1768     38.6937    0.467937     20.8439     48.2524
    0.227038     4.30228     10.2365     28.1000     55.0158
     186.823    0.997891     10.6792    -99999.0     6252.86
     3839.31     2.78196    0.195885
   121.750
     714.804     15.8824     443.500     494.102     637.258
     1016.67     1266.39     109.830     52.9250     38.2188
     57.7810     39.8473    0.426118     20.7689     48.1319
     1.15270     2.61845     6.36638     28.1000     55.0304
     186.800    0.996687     11.1660    -99999.0     6382.98
     3839.31     2.79888    0.213300
   121.800
     723.688     15.9105     484.151     552.474     621.400
     995.289     1244.25     114.447     53.3314     38.2736
     57.8890     38.3634    0.393269     20.7570     47.6685
   0.0961101     2.14543    0.252689     28.1000     55.0412
     186.900    0.998239     26.0238    -99999.0     6382.98
     3835.64     2.80410    0.219050
   121.850
     765.161     15.9106     484.410     669.445     626.283
     963.044     1219.73     114.488     53.2044     38.0891
     57.0641     36.6905    0.367098     20.9083     47.4018
    0.664010     5.04351     9.60231     28.1720     55.0328
     186.928    0.996796     19.5516    -99999.0     6382.98
     3802.45     2.80410    0.226190
   121.900
     797.280     15.9249     517.836     773.525     721.258
     959.067     1205.53     114.612     50.6247     34.4301
     57.0498     37.6962    0.355275     21.0569     46.2982
    0.740816     1.71553     7.11080     28.2000     55.0512
     186.869    0.995880     21.4412    -99999.0     6416.09
     3761.59     2.82930    0.243781
   121.950
     831.474     15.9261     540.168     774.770     872.724
     924.470     1150.38     103.514     44.8693     27.7756
     57.8416     41.0672    0.346516     21.4250     45.3780
   0.0766364    0.302706    0.167683     28.1212     55.0162
     186.840    0.997552     11.0742    -99999.0     6633.55
     3761.59     2.84010    0.250199
   122.000
     672.634     15.9296     548.397     865.933     988.673
     900.260     1114.73     100.629     44.1301     29.2688
     60.2337     41.0746    0.342583     21.8890     45.0390
    0.201047    0.672534     4.63491     28.1000     55.0225
     186.849    0.998621     10.9069    -99999.0     6399.16
     3766.99     2.82694    0.241450
   122.050
     255.035     15.9296     548.449     919.998     1066.90
     924.539     1089.53     95.3090     42.5145     27.5999
     59.0524     40.3506    0.348412     22.1490     44.8557
    0.103951     1.19068     4.16556     28.1911     55.0300
     186.900    0.996573     10.1761    -99999.0     6521.74
     3807.84     2.83334    0.240291
   122.100
     127.796     15.9288     546.167     927.612     1069.56
     933.922     1079.89     95.2865     42.5435     27.5828
     60.1206     39.8783    0.365971     22.2635     44.6411
     1.35577     4.94933     15.3626     28.2069     55.0207
     186.800    0.996259     10.4850    -99999.0     6521.74
     3811.52     2.83850    0.239089
   122.150
     219.480     15.9249     534.423     910.448     1117.95
     1019.67     1038.68     94.7384     43.0201     27.3518
     63.8610     38.7199    0.413643     22.3643     44.6846
    0.851390     2.65782     5.94343     28.2546     55.0400
     186.755    0.994031     6.98069    -99999.0     6505.54
     3843.05     2.82646    0.226759
   122.200
     380.593     15.9230     528.201     910.139     1138.63
     1127.25     1002.02     92.1072     42.3885     28.6494
     64.2412     40.8701    0.467993     22.3876     45.0090
     0.00000     0.00000     0.00000     28.2000     55.0446
     186.939    0.996002     15.1973    -99999.0     6399.18
     3880.92     2.82130    0.213078
   122.250
     564.384     15.9250     532.826     887.672     1145.04
     1212.64     984.841     92.3154     43.6293     28.2678
     64.6666     41.6821    0.474049     22.2738     45.1686
    0.251810     1.35120     2.34665     28.2629     55.0391
     186.826    0.994434     6.43377    -99999.0     6505.56
     3953.68     2.82130    0.202160
   122.300
     607.125     15.9250     532.856     885.360     1144.83
     1219.11     985.024     92.2850     43.6171     28.3138
     70.1271     35.0990    0.488860     22.1652     45.5997
    0.502692    0.554311     5.81667     28.2701     55.0400
     186.870    0.995137     19.4326    -99999.0     6399.18
     3949.78     2.82130    0.201761
   122.350
     619.680     15.9282     539.157     909.983     1143.39
     1275.96     989.986     91.6917     43.3491     29.0680
     70.1839     35.7628    0.499753     22.0023     46.3245
    0.291936     2.47115     6.14107     28.1282     55.0186
     186.900    0.998607     16.7551    -99999.0     6505.54
     3901.79     2.82130    0.218721
   122.400
     620.912     15.9320     546.974     910.384     1188.27
     1329.46     1018.28     90.5446     42.3333     27.8751
     70.2417     37.0960    0.494745     21.7048     46.9579
     1.45624     3.52529     3.64280     28.2017     54.9917
     186.997    0.996580     13.1491    -99999.0     6367.46
     3761.59     2.79820    0.225149
   122.450
     612.530     15.9347     553.337     940.229     1248.17
     1363.96     1080.43     87.0728     40.5562     26.3026
     69.5722     31.9828    0.490907     21.3943     47.1153
    0.896693     4.08907     9.19905     28.3175     55.0378
     186.817    0.991668     22.2113    -99999.0     6265.52
     3763.38     2.78830    0.223810
   122.500
     613.643     15.9347     553.377     992.403     1250.28
     1365.15     1155.20     87.2035     40.5943     26.3765
     68.7602     24.3395    0.475836     21.2468     47.5815
    0.598043    0.422268    0.766408     28.2671     55.0466
     187.034    0.995487     13.6972    -99999.0     6382.98
     3780.50     2.79936    0.226030
   122.550
     623.280     15.9345     551.113     1031.68     1291.22
     1375.70     1187.13     89.6530     41.3309     27.6896
     65.2509     26.3295    0.459546     21.0885     47.7347
   0.0536188    0.211516    0.675100     28.1453     55.0451
     186.951    0.997996     6.09013    -99999.0     6382.98
     3807.84     2.80410    0.224750
   122.600
     637.449     15.9353     553.039     1031.70     1354.82
     1390.10     1333.72     91.7013     42.2859     27.6734
     54.7770     32.0591    0.432621     20.9708     47.3975
     2.16601     1.38162     11.9236     28.1352     55.0635
     186.835    0.998270     19.5512    -99999.0     6382.98
     3804.23     2.80410    0.226151
   122.650
     656.733     15.9385     566.785     1033.48     1407.63
     1440.07     1523.80     88.5005     41.0759     27.1999
     55.3788     29.3092    0.389612     21.0456     47.3855
     1.35556     4.07513     7.89440     28.2000     55.0358
     186.739    0.997719     22.1517    -99999.0     6382.98
     3779.29     2.80410    0.227970
   122.700
     668.749     15.9386     566.876     1041.63     1408.78
     1504.91     1697.51     88.7442     41.1902     27.2446
     46.0356     28.9626    0.365028     21.1030     47.5965
    0.877737     2.98810     4.65120     28.1071     55.0296
     187.000    0.998482     14.8931    -99999.0     6382.98
     3791.93     2.80410    0.230401
   122.750
     679.499     15.9406     574.752     1064.42     1429.19
     1514.02     1745.51     93.3626     43.3709     28.1398
     44.9626     28.2998    0.368219     21.0426     47.4931
     1.39238     3.52080     2.66817     28.2244     55.0224
     186.963    0.997339     8.42538    -99999.0     6367.48
     3750.00     2.79304    0.228710
   122.800
     683.880     15.9423     578.490     1064.77     1428.83
     1593.52     1921.66     98.5653     46.0592     30.0196
     40.3007     25.2035    0.366362     21.0389     47.3909
     1.01689     3.55964     4.33275     28.2561     55.0372
     187.072    0.994171     10.6362    -99999.0     6235.11
     3753.14     2.76709    0.212338
