#------------------------------------------------------------
~VERSION INFORMATION
VERS.               2.0  :CWLS LOG ASCII STANDARD - VERSION 2.0
WRAP.               YES  :MULTIPLE LINES PER DEPTH STEP
#------------------------------------------------------------
~WELL INFORMATION
STRT.M          113.650  :FIRST INDEX VALUE
STOP.M          133.250  :LAST INDEX VALUE
STEP.M        0.0500000  :STEP
NULL.            -99999  :NULL VALUE
COMP.                    :COMPANY
WELL.                    :WELL
FLD.                     :FLD
LOC.                     :LOCATION
SRVC.                    :
CTRY.                    :COUNTRY
STAT.                    :STATE
CNTY.                    :
DATE.                    :DATE
API.                     :API
#------------------------------------------------------------
~CURVE INFORMATION
DEPT.M                   :DEPTH
SP.MV                    :SP
VSPR.V                   :VSPR
SPR.OHM                  :SPR
N8.OHM.M                 :N8
N16.OHM.M                :N16
N32.OHM.M                :N32
N64.OHM.M                :N64
IPLIN161.MV/V            :IPlin161
IPLIN165.MV/V            :IPlin165
IPLIN1610.MV/V           :IPlin1610
IPLIN645.MV/V            :IPlin645
IPLIN6410.MV/V           :IPlin6410
MAG_SUSC.10E-3_SI_UNITS   :Mag Susc
INDUCTION.MS/M           :Induction
IND_RES.OHM-M            :Ind Res
K.%                      :K
U.PPM                    :U
TH.PPM                   :Th
TILT.DEG                 :Tilt
MAGNFIELD.UT             :MagnField
AZIMUTH.DEG              :Azimuth
GRAVITY.G                :Gravity
GR.API                   :GR
CALIPER.CM               :Caliper
VP.M/S                   :Vp
VS.M/S                   :Vs
RHO-ND.G/CM3             :rho-ND
POISSON_RATIO.           :Poisson ratio
#------------------------------------------------------------
~PARAMETER INFORMATION
API_Well_Number_. Yorbeau (Gamble)  :API Well Number:
Acquisition_dates_from_. 21/06/19  :Acquisition dates from:
Acquisition_dates_to_. 22/06/19  :Acquisition dates to:
BIT_FROM1.               :BIT FROM1
BIT_FROM2.               :BIT FROM2
BIT_FROM3.               :BIT FROM3
BIT_FROM4.               :BIT FROM4
BIT_FROM5.               :BIT FROM5
BIT_FROM6.               :BIT FROM6
BIT_TO1.                 :BIT TO1
BIT_TO2.                 :BIT TO2
BIT_TO3.                 :BIT TO3
BIT_TO4.                 :BIT TO4
BIT_TO5.                 :BIT TO5
BIT_TO6.                 :BIT TO6
BIT1.                    :BIT1
BIT2.                    :BIT2
BIT3.                    :BIT3
BIT4.                    :BIT4
BIT5.                    :BIT5
BIT6.                    :BIT6
BTM_LOGGED_INTERVAL.     :BTM LOGGED INTERVAL
CASING_FROM1.            :CASING FROM1
CASING_FROM2.            :CASING FROM2
CASING_FROM3.            :CASING FROM3
CASING_FROM4.            :CASING FROM4
CASING_FROM5.            :CASING FROM5
CASING_FROM6.            :CASING FROM6
CASING_SIZE1.            :CASING SIZE1
CASING_SIZE2.            :CASING SIZE2
CASING_SIZE3.            :CASING SIZE3
CASING_SIZE4.            :CASING SIZE4
CASING_SIZE5.            :CASING SIZE5
CASING_SIZE6.            :CASING SIZE6
CASING_TO1.              :CASING TO1
CASING_TO2.              :CASING TO2
CASING_TO3.              :CASING TO3
CASING_TO4.              :CASING TO4
CASING_TO5.              :CASING TO5
CASING_TO6.              :CASING TO6
CO.                      :CO
CTY.                     :CTY
Country_.        Canada  :Country:
Customer_.  Metal Earth  :Customer:
D_F_.                    :D.F.
DENSITY.                 :DENSITY
DEPTH-DRILLER.           :DEPTH-DRILLER
DEPTH-LOGGER.            :DEPTH-LOGGER
DRILLING_MEAS__FROM.     :DRILLING MEAS. FROM
Depth_unit_.     meters  :Depth unit:
Drilling_measured_from_.   :Drilling measured from:
ELEVATION.               :ELEVATION
FIELD.                   :FIELD
FILING_No.               :FILING No
File_Name_. 12-GA-584-petrophysics.WCL  :File Name:
G_L_.                    :G.L.
Height_above_drilling_datum_.   :Height above drilling datum:
Height_above_log_datum_.   :Height above log datum:
K_B_.                    :K.B.
LEVEL.                   :LEVEL
LOG_MEAS__FROM.          :LOG MEAS. FROM
Location_Description_.   :Location Description:
Log_interval_is_from_. 0.84 m  :Log interval is from:
Log_interval_to_. 165 m  :Log interval to:
Log_is_measured_from_. TOP OF COLLAR  :Log is measured from:
MAX__REC__TEMP_.         :MAX. REC. TEMP.
OPERATING_RIG_TIME.      :OPERATING RIG TIME
OTHER_SERVICES.          :OTHER SERVICES
Operator_.      FG, JCD  :Operator:
Other_Services_.         :Other Services:
PERMANENT_DATUM.         :PERMANENT DATUM
Permanent_datum_elevation_#1.   :Permanent datum elevation:#1
Permanent_datum_is_#1.   :Permanent datum is:#1
Permanent_datum_is_#2.   :Permanent datum is:#2
Permanent_datum_is_#3.   :Permanent datum is:#3
Permanent_datum_is__.    :Permanent datum is::
Print_type_is_.          :Print type is:
RECORDED_BY.             :RECORDED BY
RGE.                     :RGE
RUN_No.                  :RUN No
RUN1.                    :RUN1
RUN2.                    :RUN2
RUN3.                    :RUN3
RUN4.                    :RUN4
RUN5.                    :RUN5
RUN6.                    :RUN6
SALINITY.                :SALINITY
SEC.                     :SEC
STE.                     :STE
Scale_ratio_.            :Scale ratio:
Scaled_depth_is_.        :Scaled depth is:
Service_Company_. Université Laval  :Service Company:
State_/_Province_. Québec  :State / Province:
TITLE.                   :TITLE
TOP_LOGGED_INTERVAL.     :TOP LOGGED INTERVAL
TWP.                     :TWP
TYPE_FLUID_IN_HOLE.      :TYPE FLUID IN HOLE
TYPE_LOG.                :TYPE LOG
WELL_ID.                 :WELL ID
WGT1.                    :WGT1
WGT2.                    :WGT2
WGT3.                    :WGT3
WGT4.                    :WGT4
WGT5.                    :WGT5
WGT6.                    :WGT6
WITNESSED_BY.            :WITNESSED BY
Well_Name_.   12-GA-584  :Well Name:
#------------------------------------------------------------
~OTHER
#------------------------------------------------------------
~A
# ...
   132.050
     596.312     15.9322     588.876     1094.56     1489.11
     1656.51     1491.46     123.065     55.6340     38.1388
     68.0043     49.0377    0.451172     20.7856     48.0125
     1.28627     1.76931     1.62060     28.6492     55.0300
     186.751    0.996899     6.44633    -99999.0     6000.00
     3225.81     2.71298    0.292860
   132.100
     596.864     15.9258     589.550     1106.82     1496.85
     1637.48     1431.20     120.076     54.7183     36.1091
     71.2641     49.3610    0.452686     20.8269     48.0150
     0.00000     0.00000     0.00000     28.8350     55.0225
     186.905    0.991220     4.10791    -99999.0     6000.00
     3225.81     2.71670    0.296699
   132.150
     595.356     15.9258     589.554     1112.45     1495.81
     1637.02     1370.44     120.076     54.7424     36.1755
     73.2119     48.8593    0.455363     20.8272     48.0141
    0.154580     1.37807     2.00129     28.6808     55.0700
     186.881    0.996714     10.9635    -99999.0     6014.31
     3234.09     2.72608    0.296420
   132.200
     594.480     15.9277     589.892     1100.21     1476.35
     1634.29     1352.57     120.227     55.2385     37.3989
     73.5634     50.2341    0.451249     20.8271     47.9925
     0.00000     0.00000     0.00000     28.7965     55.0207
     186.503    0.993321     3.70603    -99999.0     6122.45
     3292.53     2.73948    0.298120
   132.250
     594.480     15.9254     581.273     1099.85     1457.95
     1644.15     1278.70     122.874     56.4941     38.2081
     75.4694     55.6068    0.444280     20.8333     47.9405
   0.0499366     1.59450     4.10880     28.8630     55.0412
     186.437    0.992524     7.18401    -99999.0     6122.45
     3265.05     2.74350    0.298900
   132.300
     595.096     15.9236     576.497     1072.70     1444.35
     1670.86     1219.48     123.544     56.6878     38.2134
     78.0804     59.0493    0.410189     20.8514     47.9493
     0.00000     0.00000     0.00000     28.7437     55.0328
     186.628    0.994691     0.00000    -99999.0     6122.45
     3292.52     2.74350    0.298900
   132.350
     593.832     15.9236     576.467     1047.34     1443.66
     1706.11     1188.89     123.596     56.7514     38.2593
     78.5479     61.1005    0.396165     20.8569     47.8157
     0.00000     0.00000     0.00000     28.7318     55.0336
     186.856    0.994483     0.00000    -99999.0     6108.14
     3252.76     2.73412    0.301350
   132.400
     588.999     15.9258     582.100     1043.79     1431.04
     1710.24     1186.78     124.574     57.9068     39.1070
     82.0332     59.8352    0.398466     20.8933     47.7408
     0.00000     0.00000     0.00000     28.7587     55.0280
     186.700    0.994697     0.00000    -99999.0     5986.25
     3195.50     2.71203    0.296377
   132.450
     586.080     15.9283     589.046     1044.14     1425.40
     1743.99     1182.54     125.415     58.4124     39.7238
     93.4399     55.5862    0.401302     20.9355     47.7393
    0.552142     2.52035     4.81250     28.7754     55.0400
     186.775    0.994662     2.61247    -99999.0     5882.35
     3217.89     2.69562    0.292050
   132.500
     582.076     15.9307     597.675     1070.04     1448.20
     1753.62     1197.20     124.938     58.6582     39.9857
     92.0996     55.9511    0.415818     20.9471     47.7416
     0.00000     0.00000     0.00000     28.5434     55.0409
     186.726     1.00077     0.00000    -99999.0     5896.07
     3157.89     2.70058    0.299490
   132.550
     573.045     15.9307     597.731     1105.47     1504.71
     1740.04     1223.27     124.157     57.8100     39.1018
     86.9520     57.5403    0.443039     20.9464     47.9279
     0.00000     0.00000     0.00000     28.7930     55.0393
     186.807    0.994894     0.00000    -99999.0     5986.25
     3161.82     2.70430    0.300829
   132.600
     562.227     15.9326     608.428     1147.08     1508.07
     1738.39     1245.72     123.927     57.7246     39.0930
     83.3157     55.4352    0.488188     20.8931     48.0155
     0.00000     0.00000     0.00000     28.7541     55.0454
     186.715    0.995982     0.00000    -99999.0     5882.35
     3179.95     2.69562    0.300110
   132.650
     550.209     15.9335     618.145     1190.12     1570.30
     1726.56     1253.18     119.575     56.1520     38.8734
     83.1170     55.5437    0.515678     20.8391     48.0052
   0.0997899    0.545473    0.549386     28.7451     55.0677
     186.800    0.995112     5.49356    -99999.0     5856.41
     3100.39     2.67649    0.294107
   132.700
     544.080     15.9406     626.378     1190.50     1619.11
     1740.42     1286.49     114.570     55.1146     37.7035
     82.6010     56.2609    0.540159     20.8292     48.0097
     0.00000     0.00000     0.00000     28.7810     55.0500
     186.818    0.994663    0.187986    -99999.0     5660.38
     3169.90     2.65450    0.271409
   132.750
     538.845     15.9376     630.870     1219.08     1656.54
     1787.70     1325.72     113.754     54.9085     37.3135
     82.9855     57.2897    0.555623     20.8299     48.0302
   0.0194769    0.644225     3.95874     28.7809     55.0540
     186.892    0.994689     2.01840    -99999.0     5660.38
     3266.19     2.64790    0.251249
   132.800
     532.032     15.9376     630.899     1234.56     1658.55
     1797.44     1359.34     113.788     54.9375     37.3790
     82.7793     56.7743    0.569062     20.8233     48.0025
    0.407125     3.26356     9.32118     28.8581     55.0672
     186.800    0.992671     4.62340    -99999.0     5660.38
     3303.72     2.64790    0.244551
   132.850
     527.508     15.9246     630.497     1239.68     1696.45
     1884.57     1370.40     114.371     55.4594     38.5551
     83.1317     56.0158    0.552290     20.8280     48.0076
    0.373927     1.88413     5.79929     28.7982     55.0198
     186.898    0.993123     3.60508    -99999.0     5660.38
     3281.74     2.64790    0.246671
   132.900
     524.880     15.9293     636.993     1239.82     1738.53
     1981.71     1417.38     114.139     55.5905     38.8361
     83.7239     54.0977    0.513222     20.8309     48.2521
     0.00000     0.00000     0.00000     28.7647     55.0382
     186.900    0.994911     5.40526    -99999.0     5660.38
     3261.05     2.64790    0.255743
   132.950
     517.181     15.9256     648.683     1250.44     1777.12
     2089.54     1462.86     112.868     55.4735     39.0200
     81.1250     55.8362    0.493254     20.7613     48.3387
   0.0391754    0.278854     1.65845     28.4666     55.0533
     186.600     1.00323     3.66987    -99999.0     5673.07
     3181.90     2.65525    0.270370
   133.000
     501.257     15.9255     648.762     1285.22     1779.65
     2185.56     1507.56     112.945     55.5867     38.9886
     79.1238     55.3927    0.493931     20.6994     48.3475
     3.25522     7.58296     8.79591     28.7525     55.0352
     186.802    0.996764     22.8351    -99999.0     5796.13
     3181.90     2.68248    0.287591
   133.050
     485.073     15.9092     657.118     1332.25     1828.72
     2196.90     1541.52     114.151     57.5808     38.3822
     80.5936     55.4615    0.470165     20.6846     48.4084
     1.61542     10.4884     11.7316     28.6650     55.0010
     186.630    0.999440     29.5052    -99999.0     5986.28
     3172.00     2.70085    0.302280
   133.100
     477.480     15.8968     663.589     1332.82     1903.21
     2296.61     1556.20     110.862     57.0124     37.5137
     79.9097     55.5277    0.433791     20.6666     48.2698
    0.329593     2.94102     9.64034     28.7808     55.0162
     187.100    0.996221     22.1651    -99999.0     5882.35
     3097.05     2.69562    0.307629
   133.150
     470.084     15.8940     668.044     1375.06     1996.58
     2393.51     1625.57     106.151     54.7176     37.2242
     77.4533     55.7471    0.383673     20.6960     48.1957
    0.691086     1.76272     8.57737     28.9899     55.0503
     186.897    0.990060     24.1236    -99999.0     5869.13
     3097.05     2.68392    0.304488
