#------------------------------------------------------------
~VERSION INFORMATION
VERS.               2.0  :CWLS LOG ASCII STANDARD - VERSION 2.0
WRAP.               YES  :MULTIPLE LINES PER DEPTH STEP
#------------------------------------------------------------
~WELL INFORMATION
STRT.M          113.650  :FIRST INDEX VALUE
STOP.M          133.250  :LAST INDEX VALUE
STEP.M        0.0500000  :STEP
NULL.            -99999  :NULL VALUE
COMP.                    :COMPANY
WELL.                    :WELL
FLD.                     :FLD
LOC.                     :LOCATION
SRVC.                    :
CTRY.                    :COUNTRY
STAT.                    :STATE
CNTY.                    :
DATE.                    :DATE
API.                     :API
#------------------------------------------------------------
~CURVE INFORMATION
DEPT.M                   :DEPTH
SP.MV                    :SP
VSPR.V                   :VSPR
SPR.OHM                  :SPR
N8.OHM.M                 :N8
N16.OHM.M                :N16
N32.OHM.M                :N32
N64.OHM.M                :N64
IPLIN161.MV/V            :IPlin161
IPLIN165.MV/V            :IPlin165
IPLIN1610.MV/V           :IPlin1610
IPLIN645.MV/V            :IPlin645
IPLIN6410.MV/V           :IPlin6410
MAG_SUSC.10E-3_SI_UNITS   :Mag Susc
INDUCTION.MS/M           :Induction
IND_RES.OHM-M            :Ind Res
K.%                      :K
U.PPM                    :U
TH.PPM                   :Th
TILT.DEG                 :Tilt
MAGNFIELD.UT             :MagnField
AZIMUTH.DEG              :Azimuth
GRAVITY.G                :Gravity
GR.API                   :GR
CALIPER.CM               :Caliper
VP.M/S                   :Vp
VS.M/S                   :Vs
RHO-ND.G/CM3             :rho-ND
POISSON_RATIO.           :Poisson ratio
#------------------------------------------------------------
~PARAMETER INFORMATION
API_Well_Number_. Yorbeau (Gamble)  :API Well Number:
Acquisition_dates_from_. 21/06/19  :Acquisition dates from:
Acquisition_dates_to_. 22/06/19  :Acquisition dates to:
BIT_FROM1.               :BIT FROM1
BIT_FROM2.               :BIT FROM2
BIT_FROM3.               :BIT FROM3
BIT_FROM4.               :BIT FROM4
BIT_FROM5.               :BIT FROM5
BIT_FROM6.               :BIT FROM6
BIT_TO1.                 :BIT TO1
BIT_TO2.                 :BIT TO2
BIT_TO3.                 :BIT TO3
BIT_TO4.                 :BIT TO4
BIT_TO5.                 :BIT TO5
BIT_TO6.                 :BIT TO6
BIT1.                    :BIT1
BIT2.                    :BIT2
BIT3.                    :BIT3
BIT4.                    :BIT4
BIT5.                    :BIT5
BIT6.                    :BIT6
BTM_LOGGED_INTERVAL.     :BTM LOGGED INTERVAL
CASING_FROM1.            :CASING FROM1
CASING_FROM2.            :CASING FROM2
CASING_FROM3.            :CASING FROM3
CASING_FROM4.            :CASING FROM4
CASING_FROM5.            :CASING FROM5
CASING_FROM6.            :CASING FROM6
CASING_SIZE1.            :CASING SIZE1
CASING_SIZE2.            :CASING SIZE2
CASING_SIZE3.            :CASING SIZE3
CASING_SIZE4.            :CASING SIZE4
CASING_SIZE5.            :CASING SIZE5
CASING_SIZE6.            :CASING SIZE6
CASING_TO1.              :CASING TO1
CASING_TO2.              :CASING TO2
CASING_TO3.              :CASING TO3
CASING_TO4.              :CASING TO4
CASING_TO5.              :CASING TO5
CASING_TO6.              :CASING TO6
CO.                      :CO
CTY.                     :CTY
Country_.        Canada  :Country:
Customer_.  Metal Earth  :Customer:
D_F_.                    :D.F.
DENSITY.                 :DENSITY
DEPTH-DRILLER.           :DEPTH-DRILLER
DEPTH-LOGGER.            :DEPTH-LOGGER
DRILLING_MEAS__FROM.     :DRILLING MEAS. FROM
Depth_unit_.     meters  :Depth unit:
Drilling_measured_from_.   :Drilling measured from:
ELEVATION.               :ELEVATION
FIELD.                   :FIELD
FILING_No.               :FILING No
File_Name_. 12-GA-584-petrophysics.WCL  :File Name:
G_L_.                    :G.L.
Height_above_drilling_datum_.   :Height above drilling datum:
Height_above_log_datum_.   :Height above log datum:
K_B_.                    :K.B.
LEVEL.                   :LEVEL
LOG_MEAS__FROM.          :LOG MEAS. FROM
Location_Description_.   :Location Description:
Log_interval_is_from_. 0.84 m  :Log interval is from:
Log_interval_to_. 165 m  :Log interval to:
Log_is_measured_from_. TOP OF COLLAR  :Log is measured from:
MAX__REC__TEMP_.         :MAX. REC. TEMP.
OPERATING_RIG_TIME.      :OPERATING RIG TIME
OTHER_SERVICES.          :OTHER SERVICES
Operator_.      FG, JCD  :Operator:
Other_Services_.         :Other Services:
PERMANENT_DATUM.         :PERMANENT DATUM
Permanent_datum_elevation_#1.   :Permanent datum elevation:#1
Permanent_datum_is_#1.   :Permanent datum is:#1
Permanent_datum_is_#2.   :Permanent datum is:#2
Permanent_datum_is_#3.   :Permanent datum is:#3
Permanent_datum_is__.    :Permanent datum is::
Print_type_is_.          :Print type is:
RECORDED_BY.             :RECORDED BY
RGE.                     :RGE
RUN_No.                  :RUN No
RUN1.                    :RUN1
RUN2.                    :RUN2
RUN3.                    :RUN3
RUN4.                    :RUN4
RUN5.                    :RUN5
RUN6.                    :RUN6
SALINITY.                :SALINITY
SEC.                     :SEC
STE.                     :STE
Scale_ratio_.            :Scale ratio:
Scaled_depth_is_.        :Scaled depth is:
Service_Company_. Université Laval  :Service Company:
State_/_Province_. Québec  :State / Province:
TITLE.                   :TITLE
TOP_LOGGED_INTERVAL.     :TOP LOGGED INTERVAL
TWP.                     :TWP
TYPE_FLUID_IN_HOLE.      :TYPE FLUID IN HOLE
TYPE_LOG.                :TYPE LOG
WELL_ID.                 :WELL ID
WGT1.                    :WGT1
WGT2.                    :WGT2
WGT3.                    :WGT3
WGT4.                    :WGT4
WGT5.                    :WGT5
WGT6.                    :WGT6
WITNESSED_BY.            :WITNESSED BY
Well_Name_.   12-GA-584  :Well Name:
#------------------------------------------------------------
~OTHER
#------------------------------------------------------------
~A
# ...
   124.000
     689.184     15.9214     471.611     651.712     545.264
     425.864     527.537     126.279     50.3827     30.1847
     72.8974     38.7814    0.628280     33.9926     29.5332
     0.00000     0.00000     0.00000     28.3069     55.0514
     186.986    0.995103     5.64299    -99999.0     6382.98
     3667.37     2.79936    0.254560
   124.050
     685.064     15.9248     480.154     700.071     667.855
     428.817     526.447     118.866     51.4041     33.9563
     75.8393     36.3421    0.655459     34.1599     30.5303
    0.243644     2.93139     6.87522     28.1365     55.0400
     186.768     1.00017     4.96096    -99999.0     6367.46
     3622.83     2.79304    0.258440
   124.100
     684.480     15.9312     499.545     700.583     757.465
     463.686     521.253     120.172     53.0616     36.2765
     84.9905     26.8255    0.659776     33.1332     31.2510
    0.138029     3.34430     6.39586     28.4075     55.0662
     186.877    0.990152     6.85063    -99999.0     6250.00
     3576.75     2.77724    0.255739
   124.150
     683.556     15.9388     529.326     739.052     843.406
     571.643     514.569     114.017     51.4988     37.6082
     83.9064     23.1631    0.648348     32.2533     31.4857
     1.27386     5.88289     7.80865     28.2457     55.0546
     186.891    0.997095     4.06079    -99999.0     6265.52
     3601.22     2.78356    0.257591
   124.200
     676.519     15.9388     529.522     801.407     915.800
     695.582     509.965     112.762     52.2841     35.3880
     90.3835     22.1561    0.673593     31.8373     31.6879
   0.0422068    0.680540     4.20572     28.4105     55.0870
     186.970    0.992788     7.68444    -99999.0     6367.46
     3604.50     2.78830    0.256969
   124.250
     665.445     15.9446     552.576     892.572     920.848
     708.971     509.679     112.560     52.0532     35.3031
     105.302     4.97105    0.718010     31.6265     32.1782
     1.13743     8.35508     23.3714     28.3000     55.0628
     186.886    0.997100     11.1455    -99999.0     6265.50
     3629.35     2.78830    0.254210
   124.300
     660.480     15.9495     570.972     967.368     1017.67
     826.311     510.603     108.964     47.9725     33.7211
     101.337     8.25747    0.741287     31.2429     33.8333
     1.25524     2.38102     7.06479     28.5913     55.0505
     187.000    0.986202     10.1745    -99999.0     6382.98
     3632.69     2.79936    0.256831
   124.350
     664.792     15.9522     584.579     968.172     1150.23
     936.208     515.676     108.867     48.5167     32.4577
     88.4380     20.9472    0.703221     30.0840     36.0691
    0.915490     1.73411     7.45188     28.5951     55.0117
     187.083    0.989145     6.95133    -99999.0     6382.98
     3659.62     2.80410    0.255289
   124.400
     669.496     15.9535     590.767     1027.94     1271.40
     1031.96     527.419     109.836     50.4137     32.7525
     82.6110     29.8221    0.660751     28.3525     39.3661
    0.531050     4.25416     6.78968     28.1331     55.0267
     186.667     1.00164     11.0834    -99999.0     6352.57
     3672.39     2.78289    0.241259
   124.450
     620.791     15.9535     590.808     1079.06     1277.32
     1046.70     543.982     109.668     50.3632     32.7258
     62.1689     38.4805    0.670761     26.2002     40.7281
     1.86187     3.64838     1.00280     28.3018     55.0396
     186.902    0.996551     12.1082    -99999.0     6152.86
     3670.70     2.77380    0.236851
   124.500
     534.969     15.9550     598.032     1115.84     1387.60
     1181.53     559.587     106.602     49.4887     32.2289
     60.9363     41.6190    0.705086     24.8312     40.0723
     1.97220     2.96290     15.5244     28.3297     55.0305
     186.730    0.995059     10.1962    -99999.0     6375.69
     3654.60     2.78976    0.249551
   124.550
     497.880     15.9572     610.290     1116.37     1483.19
     1354.06     637.587     105.126     49.9035     31.8451
     54.2486     52.3621    0.698585     24.8081     40.3449
    0.116311   0.0696995    0.244253     28.3194     55.0300
     186.939    0.996706     3.80397    -99999.0     6277.93
     3629.35     2.76272    0.236947
   124.600
     514.821     15.9588     618.374     1155.70     1556.27
     1523.61     754.571     104.579     49.8985     31.9352
     48.1819     52.5151    0.659522     24.8490     41.1621
    0.311711     2.36755     5.98046     28.4893     55.0696
     187.000    0.989124     7.91407    -99999.0     5983.67
     3629.35     2.73791    0.223912
   124.650
     570.927     15.9588     618.427     1201.29     1560.27
     1656.96     874.480     104.554     49.9013     31.9000
     55.9200     49.2523    0.666465     24.4644     41.8014
    0.577182    0.816484     3.77889     28.4755     55.0376
     186.988    0.993941     5.55264    -99999.0     6185.73
     3629.35     2.74617    0.230141
   124.700
     539.567     15.9599     623.831     1236.31     1635.58
     1671.97     953.968     104.106     49.9234     31.2465
     53.2422     52.3837    0.719838     24.0480     42.6109
    0.468603     1.81194     6.09713     28.3439     55.0388
     186.884    0.997410     2.77283    -99999.0     6122.45
     3629.35     2.74593    0.230509
   124.750
     473.880     15.9599     627.846     1236.70     1714.09
     1804.23     973.205     103.956     49.3991     30.8061
     54.6307     50.1579    0.755339     23.6237     43.4006
     1.04050     1.39276     3.16654     28.3562     55.0144
     187.125    0.995741     4.84489    -99999.0     6135.65
     3603.67     2.75246    0.249331
   124.800
     385.481     15.9598     628.704     1265.28     1780.31
     1935.40     1058.16     102.629     48.9412     31.3092
     58.8234     44.6141    0.765621     23.1863     44.0462
   0.0450444    0.441711    0.427014     28.3788     55.0221
     187.140    0.995185     3.49864    -99999.0     6222.45
     3413.67     2.75630    0.271510
   124.850
     335.253     15.9598     628.709     1286.24     1824.49
     2048.57     1155.09     102.885     49.6777     30.8379
     58.4429     48.1657    0.882428     22.8177     44.3956
    0.352640     4.11020     3.52790     28.5015     55.0700
     187.202    0.992252     16.5713    -99999.0     6108.16
     3452.96     2.73796    0.262527
   124.900
     416.061     15.9599     630.732     1297.60     1826.25
     2061.07     1238.52     102.846     49.6223     30.8846
     61.1500     40.7920     1.03050     22.5842     44.7530
    0.712097     5.86281     18.6226     28.3088     55.0500
     186.918    0.996606     25.6087    -99999.0     6014.29
     3488.37     2.73010    0.253401
   124.950
     503.760     15.9604     634.995     1306.13     1859.87
     2169.28     1266.58     102.050     48.6129     31.7357
     62.4537     39.4555     1.07602     22.4061     45.1045
     1.84445     2.36053     5.72871     28.3930     54.9949
     186.986    0.995266     17.9201    -99999.0     6122.45
     3488.37     2.73948    0.257452
   125.000
     542.880     15.9608     637.465     1306.28     1904.81
     2260.22     1387.02     99.9691     48.1170     32.1056
     64.9219     36.5023     1.04014     22.2300     45.3755
     2.40493     1.10381     7.19174     28.3773     55.0932
     187.000    0.995061     18.1412    -99999.0     6122.45
     3493.16     2.74350    0.256690
   125.050
     557.357     15.9600     634.778     1317.36     1943.61
     2340.97     1507.99     98.6008     46.5527     32.1977
     59.2574     38.8008    0.960201     22.0830     45.8730
    0.280544     6.27949     14.2871     28.3771     55.0677
     186.823    0.995679     20.5622    -99999.0     6122.45
     3529.41     2.74350    0.252390
   125.100
     572.004     15.9600     634.761     1340.02     1944.83
     2386.75     1599.06     98.5870     46.5229     32.2129
     60.1634     30.9092    0.945397     21.8816     46.2833
     1.75322     5.73491     19.7207     28.4000     55.0646
     186.991    0.994883     18.5989    -99999.0     6108.16
     3524.62     2.73412    0.248860
