#------------------------------------------------------------
~VERSION INFORMATION
VERS.               2.0  :CWLS LOG ASCII STANDARD - VERSION 2.0
WRAP.               YES  :MULTIPLE LINES PER DEPTH STEP
#------------------------------------------------------------
~WELL INFORMATION
STRT.M          113.650  :FIRST INDEX VALUE
STOP.M          133.250  :LAST INDEX VALUE
STEP.M        0.0500000  :STEP
NULL.            -99999  :NULL VALUE
COMP.                    :COMPANY
WELL.                    :WELL
FLD.                     :FLD
LOC.                     :LOCATION
SRVC.                    :
CTRY.                    :COUNTRY
STAT.                    :STATE
CNTY.                    :
DATE.                    :DATE
API.                     :API
#------------------------------------------------------------
~CURVE INFORMATION
DEPT.M                   :DEPTH
SP.MV                    :SP
VSPR.V                   :VSPR
SPR.OHM                  :SPR
N8.OHM.M                 :N8
N16.OHM.M                :N16
N32.OHM.M                :N32
N64.OHM.M                :N64
IPLIN161.MV/V            :IPlin161
IPLIN165.MV/V            :IPlin165
IPLIN1610.MV/V           :IPlin1610
IPLIN645.MV/V            :IPlin645
IPLIN6410.MV/V           :IPlin6410
MAG_SUSC.10E-3_SI_UNITS   :Mag Susc
INDUCTION.MS/M           :Induction
IND_RES.OHM-M            :Ind Res
K.%                      :K
U.PPM                    :U
TH.PPM                   :Th
TILT.DEG                 :Tilt
MAGNFIELD.UT             :MagnField
AZIMUTH.DEG              :Azimuth
GRAVITY.G                :Gravity
GR.API                   :GR
CALIPER.CM               :Caliper
VP.M/S                   :Vp
VS.M/S                   :Vs
RHO-ND.G/CM3             :rho-ND
POISSON_RATIO.           :Poisson ratio
#------------------------------------------------------------
~PARAMETER INFORMATION
API_Well_Number_. Yorbeau (Gamble)  :API Well Number:
Acquisition_dates_from_. 21/06/19  :Acquisition dates from:
Acquisition_dates_to_. 22/06/19  :Acquisition dates to:
BIT_FROM1.               :BIT FROM1
BIT_FROM2.               :BIT FROM2
BIT_FROM3.               :BIT FROM3
BIT_FROM4.               :BIT FROM4
BIT_FROM5.               :BIT FROM5
BIT_FROM6.               :BIT FROM6
BIT_TO1.                 :BIT TO1
BIT_TO2.                 :BIT TO2
BIT_TO3.                 :BIT TO3
BIT_TO4.                 :BIT TO4
BIT_TO5.                 :BIT TO5
BIT_TO6.                 :BIT TO6
BIT1.                    :BIT1
BIT2.                    :BIT2
BIT3.                    :BIT3
BIT4.                    :BIT4
BIT5.                    :BIT5
BIT6.                    :BIT6
BTM_LOGGED_INTERVAL.     :BTM LOGGED INTERVAL
CASING_FROM1.            :CASING FROM1
CASING_FROM2.            :CASING FROM2
CASING_FROM3.            :CASING FROM3
CASING_FROM4.            :CASING FROM4
CASING_FROM5.            :CASING FROM5
CASING_FROM6.            :CASING FROM6
CASING_SIZE1.            :CASING SIZE1
CASING_SIZE2.            :CASING SIZE2
CASING_SIZE3.            :CASING SIZE3
CASING_SIZE4.            :CASING SIZE4
CASING_SIZE5.            :CASING SIZE5
CASING_SIZE6.            :CASING SIZE6
CASING_TO1.              :CASING TO1
CASING_TO2.              :CASING TO2
CASING_TO3.              :CASING TO3
CASING_TO4.              :CASING TO4
CASING_TO5.              :CASING TO5
CASING_TO6.              :CASING TO6
CO.                      :CO
CTY.                     :CTY
Country_.        Canada  :Country:
Customer_.  Metal Earth  :Customer:
D_F_.                    :D.F.
DENSITY.                 :DENSITY
DEPTH-DRILLER.           :DEPTH-DRILLER
DEPTH-LOGGER.            :DEPTH-LOGGER
DRILLING_MEAS__FROM.     :DRILLING MEAS. FROM
Depth_unit_.     meters  :Depth unit:
Drilling_measured_from_.   :Drilling measured from:
ELEVATION.               :ELEVATION
FIELD.                   :FIELD
FILING_No.               :FILING No
File_Name_. 12-GA-584-petrophysics.WCL  :File Name:
G_L_.                    :G.L.
Height_above_drilling_datum_.   :Height above drilling datum:
Height_above_log_datum_.   :Height above log datum:
K_B_.                    :K.B.
LEVEL.                   :LEVEL
LOG_MEAS__FROM.          :LOG MEAS. FROM
Location_Description_.   :Location Description:
Log_interval_is_from_. 0.84 m  :Log interval is from:
Log_interval_to_. 165 m  :Log interval to:
Log_is_measured_from_. TOP OF COLLAR  :Log is measured from:
MAX__REC__TEMP_.         :MAX. REC. TEMP.
OPERATING_RIG_TIME.      :OPERATING RIG TIME
OTHER_SERVICES.          :OTHER SERVICES
Operator_.      FG, JCD  :Operator:
Other_Services_.         :Other Services:
PERMANENT_DATUM.         :PERMANENT DATUM
Permanent_datum_elevation_#1.   :Permanent datum elevation:#1
Permanent_datum_is_#1.   :Permanent datum is:#1
Permanent_datum_is_#2.   :Permanent datum is:#2
Permanent_datum_is_#3.   :Permanent datum is:#3
Permanent_datum_is__.    :Permanent datum is::
Print_type_is_.          :Print type is:
RECORDED_BY.             :RECORDED BY
RGE.                     :RGE
RUN_No.                  :RUN No
RUN1.                    :RUN1
RUN2.                    :RUN2
RUN3.                    :RUN3
RUN4.                    :RUN4
RUN5.                    :RUN5
RUN6.                    :RUN6
SALINITY.                :SALINITY
SEC.                     :SEC
STE.                     :STE
Scale_ratio_.            :Scale ratio:
Scaled_depth_is_.        :Scaled depth is:
Service_Company_. Université Laval  :Service Company:
State_/_Province_. Québec  :State / Province:
TITLE.                   :TITLE
TOP_LOGGED_INTERVAL.     :TOP LOGGED INTERVAL
TWP.                     :TWP
TYPE_FLUID_IN_HOLE.      :TYPE FLUID IN HOLE
TYPE_LOG.                :TYPE LOG
WELL_ID.                 :WELL ID
WGT1.                    :WGT1
WGT2.                    :WGT2
WGT3.                    :WGT3
WGT4.                    :WGT4
WGT5.                    :WGT5
WGT6.                    :WGT6
WITNESSED_BY.            :WITNESSED BY
Well_Name_.   12-GA-584  :Well Name:
#------------------------------------------------------------
~OTHER
#------------------------------------------------------------
~A
# ...
   119.400
    -1.12665     15.9593     729.352     1832.15     3192.30
     5542.54     8044.34     94.1242     59.4611     44.7683
     64.3704     48.1332    0.148272     20.4226     48.9356
    0.827938     2.91977     6.63538     28.0714     55.0500
     186.663    0.995363     12.5562    -99999.0     6508.43
     3797.47     2.82340    0.235919
   119.450
     11.1170     15.9593     729.353     1826.35     3192.09
     5516.44     8024.96     94.0896     59.4446     44.7548
     63.9496     47.7081    0.153011     20.4346     49.0999
     0.00000     0.00000     0.00000     28.0000     55.0340
     186.900    0.996189     2.82126    -99999.0     6407.68
     3797.47     2.81443    0.231429
   119.500
     24.0871     15.9589     728.280     1824.47     3187.77
     5514.76     8021.90     93.4916     59.1478     44.5032
     63.8615     47.6565    0.160713     20.3905     49.2311
     1.25996     1.12751     2.26215     27.9283     55.0414
     186.814    0.998404     10.6037    -99999.0     6418.13
     3797.47     2.81797    0.233220
   119.550
     31.6800     15.9591     726.530     1824.46     3176.26
     5501.14     8007.20     93.7635     59.0486     44.2793
     63.5347     47.3132    0.149901     20.3307     49.2235
     0.00000     0.00000     0.00000     28.1951     55.0392
     186.902    0.991457    0.926107    -99999.0     6483.95
     3806.09     2.81920    0.227829
   119.600
     42.4604     15.9590     726.589     1823.36     3161.27
     5495.42     7985.27     93.1655     58.6777     43.9747
     63.2683     46.6911    0.130382     20.3139     49.2090
    0.375724     1.17271    0.138603     27.8392     55.0417
     186.735     1.00424     6.14169    -99999.0     6399.18
     3858.50     2.82040    0.228371
   119.650
     60.9975     15.9590     726.589     1818.00     3145.96
     5477.83     7958.06     93.0540     58.5254     43.6617
     62.7611     46.3558    0.121950     20.3194     49.1737
    0.171815     1.19318     3.45257     28.1668     55.0267
     186.933    0.990692     8.29032    -99999.0     6521.74
     3761.59     2.83334    0.244461
   119.700
     78.7378     15.9664     727.328     1808.55     3145.24
     5475.81     7941.02     93.0547     58.5216     43.6488
     62.6366     45.7976    0.117406     20.3310     49.2090
     0.00000     0.00000     0.00000     28.0020     55.0549
     186.851    0.996645     0.00000    -99999.0     6546.36
     3761.59     2.85782    0.258541
   119.750
     88.0800     15.9659     725.762     1800.77     3132.28
     5458.29     7933.76     93.0781     58.4467     43.4057
     62.4853     45.7441    0.172768     20.3267     49.1808
     0.00000     0.00000     0.00000     28.0408     55.0165
     186.700    0.996941     5.28363    -99999.0     6721.50
     3763.38     2.87639    0.265330
   119.800
     97.3204     15.9567     722.186     1800.73     3128.72
     5441.68     7900.59     93.2527     58.3240     43.1161
     61.9139     45.4245    0.220836     20.3289     49.1921
    0.118540     1.00504     4.40293     28.0612     55.0319
     186.639    0.994857     3.98310    -99999.0     6625.62
     3776.89     2.86344    0.258749
   119.850
     112.856     15.9554     719.627     1797.65     3125.60
     5417.00     7859.29     92.6602     57.9652     42.6769
     61.4836     44.8061    0.210661     20.3302     49.1003
  0.000989726   0.0854994    0.550554     28.0000     55.0196
     186.804    0.996090     1.54678    -99999.0     6483.54
     3771.57     2.80553    0.230728
   119.900
     84.4697     15.9554     719.610     1799.06     3125.15
     5415.69     7824.12     92.6473     57.9437     42.6588
     60.8730     44.3280    0.176643     20.3532     48.9043
    0.210242     2.29030     6.21661     28.1244     54.9949
     186.700    0.993966     2.80969    -99999.0     6051.99
     3731.38     2.75436    0.207950
   119.950
     51.4800     15.9551     718.577     1796.33     3116.68
     5403.90     7814.75     92.4199     57.5536     42.3167
     60.7575     44.2417    0.177791     20.4200     49.0308
  0.00217891    0.188229     1.21206     28.1000     55.0128
     186.828    0.995452     1.70267    -99999.0     6157.71
     3731.38     2.73057    0.193318
   120.000
    -60.6191     15.9548     718.894     1796.30     3109.63
     5389.59     7776.55     92.4386     57.3785     41.9416
     60.2485     43.8110    0.215218     20.4145     49.1422
     0.00000     0.00000     0.00000     28.0125     55.0119
     186.813    0.997637     7.90547    -99999.0     5910.35
     3727.91     2.72013    0.188110
   120.050
    -169.384     15.9542     717.915     1794.12     3105.57
     5373.95     7742.66     92.2109     57.0222     41.5273
     59.5955     43.1409    0.225022     20.3648     49.1306
     0.00000     0.00000     0.00000     28.0595     55.0360
     186.800    0.995783     5.66680    -99999.0     6152.86
     3701.65     2.75697    0.216793
   120.100
    -46.9753     15.9542     717.908     1792.36     3105.46
     5363.84     7711.77     92.1650     56.9980     41.5058
     58.8556     42.5288    0.210405     20.3518     48.9139
   0.0886934     1.06173     5.12928     28.0753     55.0600
     186.875    0.995292     2.80969    -99999.0     6382.98
     3708.65     2.79501    0.236997
   120.150
     147.370     15.9541     716.643     1786.32     3103.35
     5361.82     7701.55     91.3692     56.5562     41.1012
     58.7493     42.3234    0.207801     20.4127     48.8794
     1.37959     5.41402     6.46962     28.0089     55.0218
     186.800    0.998586     8.26406    -99999.0     6382.98
     3761.59     2.80410    0.235889
   120.200
     219.480     15.9536     715.091     1786.31     3098.91
     5343.65     7654.80     91.6841     56.3178     40.6794
     58.1010     41.4932    0.209672     20.4543     48.8996
    0.120826    0.446175     1.30883     28.1000     55.0579
     186.786    0.996700     4.93325    -99999.0     6382.98
     3761.59     2.80410    0.234000
   120.250
     266.599     15.9525     712.505     1784.96     3092.01
     5322.67     7595.13     90.9425     55.7663     40.2752
     56.8626     40.8623    0.216192     20.4531     48.9079
     0.00000     0.00000     0.00000     28.0773     55.0323
     186.955    0.995458     1.49416    -99999.0     6382.98
     3766.99     2.80410    0.230360
   120.300
     349.473     15.9525     712.489     1781.31     3085.69
     5301.52     7523.45     91.2191     55.4897     39.8572
     55.8432     40.2119    0.222260     20.4477     48.9610
     0.00000     0.00000     0.00000     28.0770     55.0184
     186.839    0.995436     1.93774    -99999.0     6401.67
     3817.14     2.81803    0.226490
   120.350
     409.705     15.9520     711.409     1775.88     3085.11
     5299.47     7464.92     91.1928     55.4624     39.8334
     55.2713     39.3581    0.262460     20.4321     48.7603
    0.100148    0.712860     4.23965     28.0628     55.0354
     187.046    0.995907     2.81491    -99999.0     6543.06
     3895.23     2.83793    0.221510
   120.400
     432.480     15.9514     709.612     1771.91     3074.11
     5281.60     7441.59     90.7102     54.9548     39.3877
     54.9718     39.1420    0.322421     20.4790     48.4234
  0.00446269   0.0374461   0.0266309     28.0299     55.0230
     186.870    0.997703     6.93265    -99999.0     6565.19
     3959.64     2.86133    0.219450
   120.450
     450.039     15.9589     707.617     1771.82     3061.07
     5265.07     7336.75     90.3849     54.5391     38.9491
     53.6699     38.3170    0.340014     20.6022     48.5464
   0.0242300    0.703170     4.20271     28.2000     55.0300
     186.800    0.992100     6.00342    -99999.0     6744.27
     4002.80     2.89562    0.229523
   120.500
     470.376     15.9579     705.555     1765.00     3047.90
     5250.56     7203.85     89.5984     53.8705     38.3762
     52.3004     37.6596    0.353172     20.6184     48.7470
    0.626979     1.08064     5.21466     28.1984     55.0298
     186.900    0.992364     1.84496    -99999.0     6808.96
     3970.32     2.89814    0.241740
