#------------------------------------------------------------
~VERSION INFORMATION
VERS.               2.0  :CWLS LOG ASCII STANDARD - VERSION 2.0
WRAP.               YES  :MULTIPLE LINES PER DEPTH STEP
#------------------------------------------------------------
~WELL INFORMATION
STRT.M          113.650  :FIRST INDEX VALUE
STOP.M          133.250  :LAST INDEX VALUE
STEP.M        0.0500000  :STEP
NULL.            -99999  :NULL VALUE
COMP.                    :COMPANY
WELL.                    :WELL
FLD.                     :FLD
LOC.                     :LOCATION
SRVC.                    :
CTRY.                    :COUNTRY
STAT.                    :STATE
CNTY.                    :
DATE.                    :DATE
API.                     :API
#------------------------------------------------------------
~CURVE INFORMATION
DEPT.M                   :DEPTH
SP.MV                    :SP
VSPR.V                   :VSPR
SPR.OHM                  :SPR
N8.OHM.M                 :N8
N16.OHM.M                :N16
N32.OHM.M                :N32
N64.OHM.M                :N64
IPLIN161.MV/V            :IPlin161
IPLIN165.MV/V            :IPlin165
IPLIN1610.MV/V           :IPlin1610
IPLIN645.MV/V            :IPlin645
IPLIN6410.MV/V           :IPlin6410
MAG_SUSC.10E-3_SI_UNITS   :Mag Susc
INDUCTION.MS/M           :Induction
IND_RES.OHM-M            :Ind Res
K.%                      :K
U.PPM                    :U
TH.PPM                   :Th
TILT.DEG                 :Tilt
MAGNFIELD.UT             :MagnField
AZIMUTH.DEG              :Azimuth
GRAVITY.G                :Gravity
GR.API                   :GR
CALIPER.CM               :Caliper
VP.M/S                   :Vp
VS.M/S                   :Vs
RHO-ND.G/CM3             :rho-ND
POISSON_RATIO.           :Poisson ratio
#------------------------------------------------------------
~PARAMETER INFORMATION
API_Well_Number_. Yorbeau (Gamble)  :API Well Number:
Acquisition_dates_from_. 21/06/19  :Acquisition dates from:
Acquisition_dates_to_. 22/06/19  :Acquisition dates to:
BIT_FROM1.               :BIT FROM1
BIT_FROM2.               :BIT FROM2
BIT_FROM3.               :BIT FROM3
BIT_FROM4.               :BIT FROM4
BIT_FROM5.               :BIT FROM5
BIT_FROM6.               :BIT FROM6
BIT_TO1.                 :BIT TO1
BIT_TO2.                 :BIT TO2
BIT_TO3.                 :BIT TO3
BIT_TO4.                 :BIT TO4
BIT_TO5.                 :BIT TO5
BIT_TO6.                 :BIT TO6
BIT1.                    :BIT1
BIT2.                    :BIT2
BIT3.                    :BIT3
BIT4.                    :BIT4
BIT5.                    :BIT5
BIT6.                    :BIT6
BTM_LOGGED_INTERVAL.     :BTM LOGGED INTERVAL
CASING_FROM1.            :CASING FROM1
CASING_FROM2.            :CASING FROM2
CASING_FROM3.            :CASING FROM3
CASING_FROM4.            :CASING FROM4
CASING_FROM5.            :CASING FROM5
CASING_FROM6.            :CASING FROM6
CASING_SIZE1.            :CASING SIZE1
CASING_SIZE2.            :CASING SIZE2
CASING_SIZE3.            :CASING SIZE3
CASING_SIZE4.            :CASING SIZE4
CASING_SIZE5.            :CASING SIZE5
CASING_SIZE6.            :CASING SIZE6
CASING_TO1.              :CASING TO1
CASING_TO2.              :CASING TO2
CASING_TO3.              :CASING TO3
CASING_TO4.              :CASING TO4
CASING_TO5.              :CASING TO5
CASING_TO6.              :CASING TO6
CO.                      :CO
CTY.                     :CTY
Country_.        Canada  :Country:
Customer_.  Metal Earth  :Customer:
D_F_.                    :D.F.
DENSITY.                 :DENSITY
DEPTH-DRILLER.           :DEPTH-DRILLER
DEPTH-LOGGER.            :DEPTH-LOGGER
DRILLING_MEAS__FROM.     :DRILLING MEAS. FROM
Depth_unit_.     meters  :Depth unit:
Drilling_measured_from_.   :Drilling measured from:
ELEVATION.               :ELEVATION
FIELD.                   :FIELD
FILING_No.               :FILING No
File_Name_. 12-GA-584-petrophysics.WCL  :File Name:
G_L_.                    :G.L.
Height_above_drilling_datum_.   :Height above drilling datum:
Height_above_log_datum_.   :Height above log datum:
K_B_.                    :K.B.
LEVEL.                   :LEVEL
LOG_MEAS__FROM.          :LOG MEAS. FROM
Location_Description_.   :Location Description:
Log_interval_is_from_. 0.84 m  :Log interval is from:
Log_interval_to_. 165 m  :Log interval to:
Log_is_measured_from_. TOP OF COLLAR  :Log is measured from:
MAX__REC__TEMP_.         :MAX. REC. TEMP.
OPERATING_RIG_TIME.      :OPERATING RIG TIME
OTHER_SERVICES.          :OTHER SERVICES
Operator_.      FG, JCD  :Operator:
Other_Services_.         :Other Services:
PERMANENT_DATUM.         :PERMANENT DATUM
Permanent_datum_elevation_#1.   :Permanent datum elevation:#1
Permanent_datum_is_#1.   :Permanent datum is:#1
Permanent_datum_is_#2.   :Permanent datum is:#2
Permanent_datum_is_#3.   :Permanent datum is:#3
Permanent_datum_is__.    :Permanent datum is::
Print_type_is_.          :Print type is:
RECORDED_BY.             :RECORDED BY
RGE.                     :RGE
RUN_No.                  :RUN No
RUN1.                    :RUN1
RUN2.                    :RUN2
RUN3.                    :RUN3
RUN4.                    :RUN4
RUN5.                    :RUN5
RUN6.                    :RUN6
SALINITY.                :SALINITY
SEC.                     :SEC
STE.                     :STE
Scale_ratio_.            :Scale ratio:
Scaled_depth_is_.        :Scaled depth is:
Service_Company_. Université Laval  :Service Company:
State_/_Province_. Québec  :State / Province:
TITLE.                   :TITLE
TOP_LOGGED_INTERVAL.     :TOP LOGGED INTERVAL
TWP.                     :TWP
TYPE_FLUID_IN_HOLE.      :TYPE FLUID IN HOLE
TYPE_LOG.                :TYPE LOG
WELL_ID.                 :WELL ID
WGT1.                    :WGT1
WGT2.                    :WGT2
WGT3.                    :WGT3
WGT4.                    :WGT4
WGT5.                    :WGT5
WGT6.                    :WGT6
WITNESSED_BY.            :WITNESSED BY
Well_Name_.   12-GA-584  :Well Name:
#------------------------------------------------------------
~OTHER
#------------------------------------------------------------
~A
# ...
   125.150
     580.581     15.9588     628.310     1354.44     1966.84
     2387.93     1629.26     98.2795     45.9640     32.4800
     60.3067     31.5529    0.934241     21.6714     46.2985
    0.590198     6.57153     8.86882     28.4104     55.0780
     186.830    0.992757     19.3267    -99999.0     6014.29
     3488.37     2.73010    0.250910
   125.200
     587.880     15.9588     628.502     1354.29     1971.37
     2400.87     1754.74     97.1250     45.4259     32.4201
     59.5806     33.1941    0.870697     21.5998     46.5033
   0.0378339    0.762523   0.0953041     28.5000     55.0514
     186.972    0.990195     18.6332    -99999.0     6108.16
     3488.37     2.73010    0.252200
   125.250
     595.271     15.9584     629.582     1343.30     1970.72
     2430.35     1854.04     96.6601     44.9341     31.9512
     54.4240     31.1677    0.738963     21.5370     46.8792
     1.51499     2.27529     7.37365     28.2069     55.0300
     186.902     1.00101     23.0694    -99999.0     6014.28
     3488.37     2.73010    0.252200
   125.300
     606.592     15.9584     629.589     1321.18     1950.57
     2430.40     1900.93     95.4183     44.5979     31.1467
     49.6349     29.5100    0.608710     21.3907     46.9435
    0.619070     4.26353     5.59357     28.5825     55.0653
     186.982    0.990835     16.4874    -99999.0     6108.15
     3488.37     2.73010    0.252200
   125.350
     615.608     15.9566     622.206     1305.68     1948.12
     2425.42     1915.96     95.4757     44.6100     31.1394
     47.1816     29.2156    0.581942     21.3109     47.0434
    0.455055     1.46069     3.12568     28.5001     55.1267
     186.800    0.992396     16.4624    -99999.0     6000.00
     3488.37     2.72072    0.246949
   125.400
     620.280     15.9618     609.870     1279.63     1903.52
     2381.14     1925.67     96.5263     44.8211     31.0187
     46.9290     29.2040    0.569380     21.2725     46.9924
    0.762504     1.02287     4.25972     28.3018     55.0645
     186.700    0.998776     21.5584    -99999.0     6000.00
     3488.37     2.71670    0.244700
   125.450
     622.128     15.9593     599.757     1279.08     1883.15
     2331.43     1982.05     97.1978     44.8144     31.1963
     45.8695     29.0261    0.565691     21.2716     46.7227
     3.39557     1.63025     19.1889     28.4649     55.0700
     186.665    0.993661     19.5281    -99999.0     6000.00
     3483.69     2.71670    0.247711
   125.500
     626.036     15.9497     592.035     1238.28     1837.54
     2270.55     2091.00     99.8222     46.2092     31.3439
     44.0578     28.0256    0.535000     21.3603     46.5966
     4.48647     2.30642     16.5267     28.5806     55.0019
     186.739    0.989275     29.4933    -99999.0     6014.28
     3452.95     2.72608    0.254250
   125.550
     631.160     15.9496     591.986     1218.09     1833.13
     2259.97     2184.95     100.091     46.3055     31.4009
     40.5853     26.2465    0.509748     21.4417     46.8328
    0.715531    0.910048     1.00291     28.2143     55.0189
     186.896     1.00249     5.85567    -99999.0     6108.15
     3488.37     2.73010    0.253489
   125.600
     636.852     15.9482     585.248     1193.73     1750.92
     2162.21     2170.88     104.841     47.9841     32.3826
     40.8833     26.4913    0.481224     21.3908     46.7423
    0.115658     1.31764    0.221859     28.4000     55.0788
     186.976    0.997092     17.3544    -99999.0     6000.00
     3493.16     2.72072    0.243729
   125.650
     639.480     15.9476     583.868     1193.27     1673.94
     2027.24     2064.09     104.604     47.4223     31.7901
     42.7576     27.8942    0.477173     21.3785     47.1365
    0.497414     3.08773     3.07059     28.4280     55.0988
     186.772    0.995390     25.7215    -99999.0     6000.00
     3529.41     2.71670    0.236880
   125.700
     641.636     15.9554     580.856     1158.94     1602.90
     1878.80     1813.34     104.192     46.8582     30.7588
     46.5521     30.5283    0.495048     21.2778     47.6432
    0.302264  0.000217951    0.893137     28.3193     55.0400
     186.900    0.995839     8.39500    -99999.0     6014.29
     3529.41     2.72608    0.240962
   125.750
     644.912     15.9555     580.837     1129.02     1598.57
     1772.69     1614.09     104.335     46.8988     30.7976
     49.8641     33.1090    0.488925     21.0665     47.7502
    0.363799     3.84050     10.3457     28.4212     55.0940
     187.040    0.996140     11.7999    -99999.0     6108.17
     3529.41     2.73010    0.243300
   125.800
     640.844     15.9526     568.194     1092.87     1514.83
     1766.69     1519.61     106.814     47.5449     31.4449
     51.5291     34.3781    0.459836     20.9568     47.7370
    0.102794    0.126706    0.187079     28.1754     55.0823
     186.749     1.00338     8.40909    -99999.0     6014.30
     3529.41     2.73010    0.243300
   125.850
     635.880     15.9396     551.237     1092.00     1388.29
     1721.77     1505.03     105.794     46.2129     30.6565
     51.1842     34.7264    0.451789     20.9457     47.8330
     0.00000     0.00000     0.00000     28.3176     55.1200
     186.718    0.998112     4.99745    -99999.0     6122.45
     3529.41     2.73948    0.248761
   125.900
     626.330     15.9342     533.139     1027.09     1252.35
     1742.54     1443.98     107.027     45.9999     30.2974
     50.3163     36.0096    0.445982     20.9208     48.3254
    0.306690     2.38684     7.71906     28.3210     55.0965
     187.093    0.997585     9.98624    -99999.0     6122.45
     3529.41     2.74350    0.251100
   125.950
     610.503     15.9342     533.021     919.779     1154.98
     1781.31     1386.30     107.672     44.9214     29.3118
     51.2576     36.3503    0.455452     20.7670     48.5468
    0.158752     1.01693     2.76109     28.4228     55.1223
     186.809    0.995390     3.05601    -99999.0     6122.45
     3529.41     2.74350    0.251100
   126.000
     592.685     15.9247     499.657     804.625     1152.08
     1772.49     1338.81     107.721     44.9016     29.3102
     51.4890     35.9717    0.461097     20.6297     48.1909
     0.00000     0.00000     0.00000     28.4386     55.1661
     186.900    0.995872     5.56587    -99999.0     6122.45
     3529.41     2.74350    0.251100
   126.050
     573.872     15.9070     448.757     719.273     1099.79
     1679.01     1327.62     108.479     44.4910     29.2403
     51.1836     36.8648    0.453477     20.6970     47.7085
    0.817059     2.20887     6.08299     28.3913     55.1374
     187.117    0.997793     7.72664    -99999.0     6122.45
     3529.41     2.74350    0.251100
   126.100
     566.280     15.8891     406.956     718.660     1089.88
     1467.41     1283.24     106.401     43.2923     28.3916
     51.3273     39.7417    0.433098     20.8889     47.1564
     1.26110     1.67641     2.21218     28.5402     55.1270
     187.221    0.994556     5.61989    -99999.0     6122.45
     3524.62     2.74350    0.254110
   126.150
     573.673     15.8811     389.843     673.430     1094.22
     1295.18     1252.00     102.480     40.2071     26.2450
     53.7212     40.7414    0.414604     21.1224     47.1317
   0.0884705    0.577555     1.68029     28.3422     55.0484
     186.914    0.999035     5.99262    -99999.0     6122.45
     3493.16     2.74350    0.255400
   126.200
     595.467     15.8811     389.731     657.053     1090.92
     1201.34     1231.87     102.560     40.2626     26.2722
     49.2092     44.6276    0.414146     21.2155     47.4886
    0.105031    0.387848     1.13773     28.4018     54.9704
     186.802    0.998063     8.37074    -99999.0     6122.45
     3529.41     2.74350    0.252389
   126.250
     614.407     15.8788     385.545     646.802     1024.77
     1194.55     1227.02     104.400     41.4377     26.8862
     48.6016     45.7021    0.410144     21.1134     47.2857
     3.10369     1.62667     8.75506     28.4649     55.0300
     187.065    0.993968     16.7726    -99999.0     6122.45
     3524.63     2.74350    0.254110
