#------------------------------------------------------------
~VERSION INFORMATION
VERS.               2.0  :CWLS LOG ASCII STANDARD - VERSION 2.0
WRAP.               YES  :MULTIPLE LINES PER DEPTH STEP
#------------------------------------------------------------
~WELL INFORMATION
STRT.M          113.650  :FIRST INDEX VALUE
STOP.M          133.250  :LAST INDEX VALUE
STEP.M        0.0500000  :STEP
NULL.            -99999  :NULL VALUE
COMP.                    :COMPANY
WELL.                    :WELL
FLD.                     :FLD
LOC.                     :LOCATION
SRVC.                    :
CTRY.                    :COUNTRY
STAT.                    :STATE
CNTY.                    :
DATE.                    :DATE
API.                     :API
#------------------------------------------------------------
~CURVE INFORMATION
DEPT.M                   :DEPTH
SP.MV                    :SP
VSPR.V                   :VSPR
SPR.OHM                  :SPR
N8.OHM.M                 :N8
N16.OHM.M                :N16
N32.OHM.M                :N32
N64.OHM.M                :N64
IPLIN161.MV/V            :IPlin161
IPLIN165.MV/V            :IPlin165
IPLIN1610.MV/V           :IPlin1610
IPLIN645.MV/V            :IPlin645
IPLIN6410.MV/V           :IPlin6410
MAG_SUSC.10E-3_SI_UNITS   :Mag Susc
INDUCTION.MS/M           :Induction
IND_RES.OHM-M            :Ind Res
K.%                      :K
U.PPM                    :U
TH.PPM                   :Th
TILT.DEG                 :Tilt
MAGNFIELD.UT             :MagnField
AZIMUTH.DEG              :Azimuth
GRAVITY.G                :Gravity
GR.API                   :GR
CALIPER.CM               :Caliper
VP.M/S                   :Vp
VS.M/S                   :Vs
RHO-ND.G/CM3             :rho-ND
POISSON_RATIO.           :Poisson ratio
#------------------------------------------------------------
~PARAMETER INFORMATION
API_Well_Number_. Yorbeau (Gamble)  :API Well Number:
Acquisition_dates_from_. 21/06/19  :Acquisition dates from:
Acquisition_dates_to_. 22/06/19  :Acquisition dates to:
BIT_FROM1.               :BIT FROM1
BIT_FROM2.               :BIT FROM2
BIT_FROM3.               :BIT FROM3
BIT_FROM4.               :BIT FROM4
BIT_FROM5.               :BIT FROM5
BIT_FROM6.               :BIT FROM6
BIT_TO1.                 :BIT TO1
BIT_TO2.                 :BIT TO2
BIT_TO3.                 :BIT TO3
BIT_TO4.                 :BIT TO4
BIT_TO5.                 :BIT TO5
BIT_TO6.                 :BIT TO6
BIT1.                    :BIT1
BIT2.                    :BIT2
BIT3.                    :BIT3
BIT4.                    :BIT4
BIT5.                    :BIT5
BIT6.                    :BIT6
BTM_LOGGED_INTERVAL.     :BTM LOGGED INTERVAL
CASING_FROM1.            :CASING FROM1
CASING_FROM2.            :CASING FROM2
CASING_FROM3.            :CASING FROM3
CASING_FROM4.            :CASING FROM4
CASING_FROM5.            :CASING FROM5
CASING_FROM6.            :CASING FROM6
CASING_SIZE1.            :CASING SIZE1
CASING_SIZE2.            :CASING SIZE2
CASING_SIZE3.            :CASING SIZE3
CASING_SIZE4.            :CASING SIZE4
CASING_SIZE5.            :CASING SIZE5
CASING_SIZE6.            :CASING SIZE6
CASING_TO1.              :CASING TO1
CASING_TO2.              :CASING TO2
CASING_TO3.              :CASING TO3
CASING_TO4.              :CASING TO4
CASING_TO5.              :CASING TO5
CASING_TO6.              :CASING TO6
CO.                      :CO
CTY.                     :CTY
Country_.        Canada  :Country:
Customer_.  Metal Earth  :Customer:
D_F_.                    :D.F.
DENSITY.                 :DENSITY
DEPTH-DRILLER.           :DEPTH-DRILLER
DEPTH-LOGGER.            :DEPTH-LOGGER
DRILLING_MEAS__FROM.     :DRILLING MEAS. FROM
Depth_unit_.     meters  :Depth unit:
Drilling_measured_from_.   :Drilling measured from:
ELEVATION.               :ELEVATION
FIELD.                   :FIELD
FILING_No.               :FILING No
File_Name_. 12-GA-584-petrophysics.WCL  :File Name:
G_L_.                    :G.L.
Height_above_drilling_datum_.   :Height above drilling datum:
Height_above_log_datum_.   :Height above log datum:
K_B_.                    :K.B.
LEVEL.                   :LEVEL
LOG_MEAS__FROM.          :LOG MEAS. FROM
Location_Description_.   :Location Description:
Log_interval_is_from_. 0.84 m  :Log interval is from:
Log_interval_to_. 165 m  :Log interval to:
Log_is_measured_from_. TOP OF COLLAR  :Log is measured from:
MAX__REC__TEMP_.         :MAX. REC. TEMP.
OPERATING_RIG_TIME.      :OPERATING RIG TIME
OTHER_SERVICES.          :OTHER SERVICES
Operator_.      FG, JCD  :Operator:
Other_Services_.         :Other Services:
PERMANENT_DATUM.         :PERMANENT DATUM
Permanent_datum_elevation_#1.   :Permanent datum elevation:#1
Permanent_datum_is_#1.   :Permanent datum is:#1
Permanent_datum_is_#2.   :Permanent datum is:#2
Permanent_datum_is_#3.   :Permanent datum is:#3
Permanent_datum_is__.    :Permanent datum is::
Print_type_is_.          :Print type is:
RECORDED_BY.             :RECORDED BY
RGE.                     :RGE
RUN_No.                  :RUN No
RUN1.                    :RUN1
RUN2.                    :RUN2
RUN3.                    :RUN3
RUN4.                    :RUN4
RUN5.                    :RUN5
RUN6.                    :RUN6
SALINITY.                :SALINITY
SEC.                     :SEC
STE.                     :STE
Scale_ratio_.            :Scale ratio:
Scaled_depth_is_.        :Scaled depth is:
Service_Company_. Université Laval  :Service Company:
State_/_Province_. Québec  :State / Province:
TITLE.                   :TITLE
TOP_LOGGED_INTERVAL.     :TOP LOGGED INTERVAL
TWP.                     :TWP
TYPE_FLUID_IN_HOLE.      :TYPE FLUID IN HOLE
TYPE_LOG.                :TYPE LOG
WELL_ID.                 :WELL ID
WGT1.                    :WGT1
WGT2.                    :WGT2
WGT3.                    :WGT3
WGT4.                    :WGT4
WGT5.                    :WGT5
WGT6.                    :WGT6
WITNESSED_BY.            :WITNESSED BY
Well_Name_.   12-GA-584  :Well Name:
#------------------------------------------------------------
~OTHER
#------------------------------------------------------------
~A
# ...
   117.100
    -96.7200     15.9664     744.355     1852.39     3217.61
     5539.32     7721.09     95.9393     62.6139     47.9333
     69.8125     53.5989    0.434438     20.1944     49.5201
     0.00000     0.00000     0.00000     27.8558     55.0344
     186.656    0.997275     0.00000    -99999.0     6663.15
     3890.27     2.86759    0.240210
   117.150
    -96.7200     15.9657     742.450     1858.42     3221.80
     5556.80     7726.24     96.0228     62.5184     47.9127
     69.7162     53.6323    0.434096     20.1913     49.5249
    0.141075    0.710842     2.18795     28.1126     55.0187
     186.813    0.990966     2.78665    -99999.0     6609.82
     3851.98     2.84897    0.231998
   117.200
    -97.9522     15.9660     742.203     1858.44     3222.94
     5562.54     7748.22     95.9212     62.5144     47.8916
     69.4714     53.7418    0.428296     20.1926     49.4447
    0.338776     8.01829     11.4709     27.9405     55.0440
     186.560    0.996350     8.35604    -99999.0     6418.14
     3885.80     2.82664    0.223890
   117.250
    -100.660     15.9666     743.983     1860.38     3223.54
     5568.41     7773.25     95.5204     62.4304     47.7500
     69.5960     53.7712    0.418230     20.2132     49.5451
   0.0247958    0.809640     4.45002     27.9000     55.0198
     186.851    0.997927     11.9919    -99999.0     6500.15
     3804.23     2.83124    0.236951
   117.300
    -103.044     15.9666     743.995     1857.40     3223.69
     5569.63     7800.82     95.5529     62.4370     47.7568
     69.2366     53.8683    0.421542     20.1982     49.7796
    0.306955    0.246236    0.135290     27.9911     55.0200
     186.700    0.994374     10.5080    -99999.0     6521.74
     3776.89     2.83760    0.246319
   117.350
    -103.920     15.9668     744.635     1858.03     3226.62
     5579.19     7804.44     96.1474     62.5568     47.8803
     69.2194     53.8826    0.420711     20.1214     49.6769
   0.0442919    0.315273     1.87505     27.8932     55.0121
     186.879    0.996944     11.1171    -99999.0     6521.74
     3776.89     2.83850    0.247700
   117.400
    -103.920     15.9665     743.696     1858.08     3231.91
     5578.71     7821.85     96.4106     62.5886     47.9443
     69.2095     53.9043    0.387826     20.1148     49.2808
     1.25445     3.52454     6.56188     27.9546     55.0377
     186.700    0.997185     6.65837    -99999.0     6505.54
     3776.89     2.82646    0.241749
   117.450
    -105.152     15.9662     743.717     1861.47     3235.81
     5576.10     7850.85     95.4428     62.3532     47.7064
     69.2608     53.8600    0.378036     20.2359     49.2374
    0.254840     1.86232    0.460111     27.7615     55.0362
     186.523     1.00280     8.15967    -99999.0     6382.98
     3784.17     2.80926    0.228278
   117.500
    -105.704     15.9662     743.717     1861.20     3235.72
     5579.12     7886.43     95.4640     62.3551     47.7071
     68.9271     53.9893    0.386659     20.3050     49.4697
   0.0377308    0.759506     4.07936     27.8627     55.0554
     186.754    0.998130     7.62917    -99999.0     6382.98
     3839.31     2.80410    0.218700
   117.550
    -107.276     15.9749     745.032     1861.70     3234.06
     5578.74     7890.24     95.8490     62.3906     47.7205
     68.9500     53.9531    0.390018     20.2478     49.2946
     0.00000     0.00000     0.00000     27.6599     55.0200
     186.860     1.00561     5.85251    -99999.0     6382.98
     3844.94     2.80410    0.212610
   117.600
    -109.320     15.9760     745.174     1861.72     3233.11
     5576.15     7906.39     95.9723     62.3989     47.7504
     69.0313     53.8138    0.383441     20.2603     49.3894
   0.0814166     1.63244     3.05265     27.7711     55.0157
     186.886     1.00204     7.93618    -99999.0     6367.46
     3895.23     2.79304    0.193329
   117.650
    -110.860     15.9677     745.059     1863.14     3232.14
     5580.36     7923.39     95.6280     62.2592     47.6975
     68.9850     53.7766    0.371625     20.2615     49.6362
     1.11965     2.86624     9.02777     28.7730     55.0302
     186.992    0.971257     8.45273    -99999.0     6265.52
     3944.06     2.78830    0.187131
   117.700
    -111.088     15.9677     745.058     1861.07     3231.72
     5590.90     7944.98     95.9041     62.3806     47.7918
     68.7727     53.8693    0.372758     20.1813     49.3127
     0.00000     0.00000     0.00000     27.6218     55.0517
     186.670     1.00684     2.80649    -99999.0     6382.98
     3884.88     2.79936    0.192461
   117.750
    -110.228     15.9663     745.029     1858.00     3231.59
     5589.92     7961.84     95.8861     62.3704     47.7860
     68.7938     53.8452    0.414821     20.2318     49.2419
  0.00363286     1.77594     2.93611     28.2668     55.0333
     186.699    0.986427     5.52026    -99999.0     6382.98
     3971.12     2.80410    0.196600
   117.800
    -110.520     15.9659     744.012     1857.26     3228.97
     5582.65     7969.60     95.5752     62.1937     47.6886
     68.7202     53.8381    0.439170     20.2990     49.4802
    0.184894     2.80003     9.75184     28.0040     55.0502
     186.755    0.996007     12.2147    -99999.0     6375.69
     3849.09     2.79885    0.204431
   117.850
    -110.212     15.9662     742.934     1857.22     3224.14
     5588.04     7998.80     95.7581     62.2570     47.7914
     68.5055     53.7715    0.426999     20.2445     49.3425
     1.30330     1.05485     4.21870     27.9409     55.0459
     186.930    0.996537     10.8987    -99999.0     6330.68
     3867.57     2.79877    0.209149
   117.900
    -111.152     15.9658     742.308     1854.35     3225.59
     5605.62     8012.05     96.1255     62.3015     47.8748
     68.4747     53.6260    0.426621     20.2460     49.2284
     1.69413     1.03906     4.27117     27.9194     55.0619
     186.661    0.996709     6.22606    -99999.0     6407.68
     3835.64     2.80705    0.219421
   117.950
    -113.244     15.9658     742.304     1853.86     3225.49
     5604.86     8015.65     96.1056     62.2930     47.8683
     68.0836     53.6172    0.448224     20.2976     49.2289
    0.322572     1.86271     4.02767     28.0928     55.0500
     186.900    0.992077     9.86177    -99999.0     6421.00
     3812.32     2.82007    0.228191
   118.000
    -114.120     15.9655     740.924     1856.25     3223.48
     5598.72     8019.70     95.7488     62.1391     47.7493
     68.0593     53.6305    0.476788     20.3138     49.3024
    0.355167     1.84094     1.94753     28.1636     55.0539
     186.612    0.991905     5.16409    -99999.0     6505.56
     3836.30     2.82220    0.232650
   118.050
    -113.196     15.9651     740.083     1856.19     3222.02
     5597.51     8039.60     95.7308     62.0820     47.6867
     68.0065     53.5886    0.461534     20.2935     49.2351
     1.61320     1.18260     4.68715     27.9279     55.0044
     186.816    0.997452     12.8044    -99999.0     6382.98
     3758.07     2.80926    0.236150
   118.100
    -112.936     15.9649     740.374     1851.70     3227.32
     5599.76     8065.74     96.0019     62.0575     47.6980
     68.1123     53.2454    0.447658     20.3008     49.2116
     0.00000     0.00000     0.00000     28.0000     55.0287
     186.713    0.996812     5.54408    -99999.0     6399.18
     3731.38     2.81614    0.245111
   118.150
    -111.980     15.9649     740.376     1851.29     3227.28
     5602.17     8080.20     95.9888     62.0529     47.6929
     68.1686     53.0393    0.440247     20.3173     49.2267
     1.20860    0.849072     3.56943     27.9810     55.0340
     186.860    0.995845     7.52059    -99999.0     6521.74
     3727.91     2.83334    0.256200
   118.200
    -108.672     15.9655     738.804     1856.07     3226.45
     5604.06     8083.61     95.7331     61.9674     47.5960
     68.0679     53.0541    0.440977     20.3164     49.2077
     3.61569     2.86412     20.5403     27.9493     55.0349
     186.449    0.997772     12.9177    -99999.0     6521.74
     3718.52     2.83850    0.251377
