#------------------------------------------------------------
~VERSION INFORMATION
VERS.               2.0  :CWLS LOG ASCII STANDARD - VERSION 2.0
WRAP.               YES  :MULTIPLE LINES PER DEPTH STEP
#------------------------------------------------------------
~WELL INFORMATION
STRT.M          113.650  :FIRST INDEX VALUE
STOP.M          133.250  :LAST INDEX VALUE
STEP.M        0.0500000  :STEP
NULL.            -99999  :NULL VALUE
COMP.                    :COMPANY
WELL.                    :WELL
FLD.                     :FLD
LOC.                     :LOCATION
SRVC.                    :
CTRY.                    :COUNTRY
STAT.                    :STATE
CNTY.                    :
DATE.                    :DATE
API.                     :API
#------------------------------------------------------------
~CURVE INFORMATION
DEPT.M                   :DEPTH
SP.MV                    :SP
VSPR.V                   :VSPR
SPR.OHM                  :SPR
N8.OHM.M                 :N8
N16.OHM.M                :N16
N32.OHM.M                :N32
N64.OHM.M                :N64
IPLIN161.MV/V            :IPlin161
IPLIN165.MV/V            :IPlin165
IPLIN1610.MV/V           :IPlin1610
IPLIN645.MV/V            :IPlin645
IPLIN6410.MV/V           :IPlin6410
MAG_SUSC.10E-3_SI_UNITS   :Mag Susc
INDUCTION.MS/M           :Induction
IND_RES.OHM-M            :Ind Res
K.%                      :K
U.PPM                    :U
TH.PPM                   :Th
TILT.DEG                 :Tilt
MAGNFIELD.UT             :MagnField
AZIMUTH.DEG              :Azimuth
GRAVITY.G                :Gravity
GR.API                   :GR
CALIPER.CM               :Caliper
VP.M/S                   :Vp
VS.M/S                   :Vs
RHO-ND.G/CM3             :rho-ND
POISSON_RATIO.           :Poisson ratio
#------------------------------------------------------------
~PARAMETER INFORMATION
API_Well_Number_. Yorbeau (Gamble)  :API Well Number:
Acquisition_dates_from_. 21/06/19  :Acquisition dates from:
Acquisition_dates_to_. 22/06/19  :Acquisition dates to:
BIT_FROM1.               :BIT FROM1
BIT_FROM2.               :BIT FROM2
BIT_FROM3.               :BIT FROM3
BIT_FROM4.               :BIT FROM4
BIT_FROM5.               :BIT FROM5
BIT_FROM6.               :BIT FROM6
BIT_TO1.                 :BIT TO1
BIT_TO2.                 :BIT TO2
BIT_TO3.                 :BIT TO3
BIT_TO4.                 :BIT TO4
BIT_TO5.                 :BIT TO5
BIT_TO6.                 :BIT TO6
BIT1.                    :BIT1
BIT2.                    :BIT2
BIT3.                    :BIT3
BIT4.                    :BIT4
BIT5.                    :BIT5
BIT6.                    :BIT6
BTM_LOGGED_INTERVAL.     :BTM LOGGED INTERVAL
CASING_FROM1.            :CASING FROM1
CASING_FROM2.            :CASING FROM2
CASING_FROM3.            :CASING FROM3
CASING_FROM4.            :CASING FROM4
CASING_FROM5.            :CASING FROM5
CASING_FROM6.            :CASING FROM6
CASING_SIZE1.            :CASING SIZE1
CASING_SIZE2.            :CASING SIZE2
CASING_SIZE3.            :CASING SIZE3
CASING_SIZE4.            :CASING SIZE4
CASING_SIZE5.            :CASING SIZE5
CASING_SIZE6.            :CASING SIZE6
CASING_TO1.              :CASING TO1
CASING_TO2.              :CASING TO2
CASING_TO3.              :CASING TO3
CASING_TO4.              :CASING TO4
CASING_TO5.              :CASING TO5
CASING_TO6.              :CASING TO6
CO.                      :CO
CTY.                     :CTY
Country_.        Canada  :Country:
Customer_.  Metal Earth  :Customer:
D_F_.                    :D.F.
DENSITY.                 :DENSITY
DEPTH-DRILLER.           :DEPTH-DRILLER
DEPTH-LOGGER.            :DEPTH-LOGGER
DRILLING_MEAS__FROM.     :DRILLING MEAS. FROM
Depth_unit_.     meters  :Depth unit:
Drilling_measured_from_.   :Drilling measured from:
ELEVATION.               :ELEVATION
FIELD.                   :FIELD
FILING_No.               :FILING No
File_Name_. 12-GA-584-petrophysics.WCL  :File Name:
G_L_.                    :G.L.
Height_above_drilling_datum_.   :Height above drilling datum:
Height_above_log_datum_.   :Height above log datum:
K_B_.                    :K.B.
LEVEL.                   :LEVEL
LOG_MEAS__FROM.          :LOG MEAS. FROM
Location_Description_.   :Location Description:
Log_interval_is_from_. 0.84 m  :Log interval is from:
Log_interval_to_. 165 m  :Log interval to:
Log_is_measured_from_. TOP OF COLLAR  :Log is measured from:
MAX__REC__TEMP_.         :MAX. REC. TEMP.
OPERATING_RIG_TIME.      :OPERATING RIG TIME
OTHER_SERVICES.          :OTHER SERVICES
Operator_.      FG, JCD  :Operator:
Other_Services_.         :Other Services:
PERMANENT_DATUM.         :PERMANENT DATUM
Permanent_datum_elevation_#1.   :Permanent datum elevation:#1
Permanent_datum_is_#1.   :Permanent datum is:#1
Permanent_datum_is_#2.   :Permanent datum is:#2
Permanent_datum_is_#3.   :Permanent datum is:#3
Permanent_datum_is__.    :Permanent datum is::
Print_type_is_.          :Print type is:
RECORDED_BY.             :RECORDED BY
RGE.                     :RGE
RUN_No.                  :RUN No
RUN1.                    :RUN1
RUN2.                    :RUN2
RUN3.                    :RUN3
RUN4.                    :RUN4
RUN5.                    :RUN5
RUN6.                    :RUN6
SALINITY.                :SALINITY
SEC.                     :SEC
STE.                     :STE
Scale_ratio_.            :Scale ratio:
Scaled_depth_is_.        :Scaled depth is:
Service_Company_. Université Laval  :Service Company:
State_/_Province_. Québec  :State / Province:
TITLE.                   :TITLE
TOP_LOGGED_INTERVAL.     :TOP LOGGED INTERVAL
TWP.                     :TWP
TYPE_FLUID_IN_HOLE.      :TYPE FLUID IN HOLE
TYPE_LOG.                :TYPE LOG
WELL_ID.                 :WELL ID
WGT1.                    :WGT1
WGT2.                    :WGT2
WGT3.                    :WGT3
WGT4.                    :WGT4
WGT5.                    :WGT5
WGT6.                    :WGT6
WITNESSED_BY.            :WITNESSED BY
Well_Name_.   12-GA-584  :Well Name:
#------------------------------------------------------------
~OTHER
#------------------------------------------------------------
~A
# ...
   118.250
    -106.920     15.9653     738.444     1856.02     3223.92
     5618.63     8096.26     95.3537     61.8927     47.5047
     67.8425     52.9433    0.426577     20.3192     49.1523
    0.500326     7.73187     9.64781     28.0000     55.0300
     186.782    0.996354     14.8747    -99999.0     6521.74
     3846.15     2.83850    0.237750
   118.300
    -107.228     15.9648     739.749     1852.21     3223.35
     5616.08     8100.65     95.7021     61.8240     47.4524
     68.1442     52.4182    0.412145     20.3370     49.2116
    0.689010     1.42910     2.00548     27.9931     55.0472
     186.607    0.995617     8.39969    -99999.0     6538.66
     3846.15     2.85166    0.239421
   118.350
    -105.980     15.9648     739.757     1850.29     3224.94
     5607.91     8103.42     95.2931     61.7482     47.3738
     68.0761     52.2363    0.408441     20.3292     49.1241
    0.958903     4.13904     6.72703     28.0547     55.0332
     186.800    0.994106     12.0189    -99999.0     6649.75
     3850.98     2.85730    0.238849
   118.400
    -101.439     15.9642     738.408     1849.39     3225.10
     5608.33     8117.27     95.3062     61.7431     47.3649
     68.3169     51.6629    0.411630     20.3438     48.9614
     1.43092     2.31588    0.395972     27.9615     55.0261
     186.662    0.996532     9.65712    -99999.0     6490.02
     3885.62     2.82104    0.215868
   118.450
    -98.5200     15.9640     737.393     1848.72     3227.89
     5612.99     8121.80     95.5430     61.6523     47.2012
     68.2973     51.6436    0.433907     20.4010     49.0300
    0.331812     3.80286     9.18927     28.0000     55.0300
     186.800    0.996523     8.41158    -99999.0     6281.72
     3858.50     2.80550    0.215774
   118.500
    -97.5961     15.9635     736.909     1848.78     3226.88
     5623.33     8137.88     95.5915     61.6437     47.1091
     68.1844     51.5736    0.446981     20.4062     49.1824
     0.00000     0.00000     0.00000     28.0000     55.0470
     186.530    0.997980     5.66510    -99999.0     6521.74
     3771.45     2.82860    0.235381
   118.550
    -95.4880     15.9630     737.000     1852.99     3223.44
     5623.54     8146.48     95.0988     61.3845     46.8703
     68.0085     51.4385    0.453766     20.3542     49.2051
   0.0537257    0.268265    0.745714     28.0142     55.0328
     186.900    0.994961     7.78817    -99999.0     6521.74
     3840.47     2.83850    0.239509
   118.600
    -90.6239     15.9630     737.001     1851.39     3223.26
     5623.60     8161.56     95.1066     61.3850     46.8663
     67.9531     51.0634    0.447428     20.3258     49.1107
    0.228886    0.367208     2.92316     28.1984     55.0395
     186.898    0.990660     16.6095    -99999.0     6521.74
     3797.47     2.83850    0.241971
   118.650
    -87.1200     15.9632     738.243     1847.16     3220.18
     5623.73     8163.43     95.2556     61.3953     46.7861
     67.8261     51.0939    0.443237     20.3485     49.2280
     1.11200     2.21795     9.00511     28.0652     55.0183
     186.652    0.994031     15.2052    -99999.0     6505.54
     3803.15     2.82646    0.233489
   118.700
    -85.2717     15.9634     737.512     1847.16     3221.80
     5619.51     8168.30     95.4516     61.3992     46.5992
     67.3831     51.1682    0.437227     20.3309     49.1880
     1.31809    0.916057     4.08511     28.0332     55.0400
     186.933    0.994572     9.43048    -99999.0     6382.98
     3840.47     2.80926    0.223109
   118.750
    -81.3642     15.9626     736.024     1846.89     3223.68
     5604.57     8166.29     95.5404     61.3834     46.4828
     67.1161     51.0842    0.443049     20.3240     49.1940
   0.0690798     2.53551     10.1389     28.0490     55.0249
     186.747    0.994787     9.05600    -99999.0     6382.98
     3797.47     2.80410    0.224420
   118.800
    -76.8559     15.9626     736.015     1848.63     3223.60
     5607.96     8173.13     95.5293     61.3704     46.4665
     66.5213     51.0873    0.425112     20.3287     49.2880
     0.00000     0.00000     0.00000     27.9000     55.0300
     186.900     1.00120     5.40641    -99999.0     6382.98
     3797.47     2.80410    0.226100
   118.850
    -72.3639     15.9619     735.247     1847.29     3221.98
     5608.75     8175.05     95.3310     61.1420     46.1706
     66.4522     51.0597    0.361871     20.3024     49.2254
     0.00000     0.00000     0.00000     27.9388     55.0342
     186.458    0.998388     7.61539    -99999.0     6399.18
     3797.47     2.81614    0.232191
   118.900
    -70.3200     15.9705     735.974     1847.28     3215.80
     5613.88     8179.04     95.2841     61.1867     46.0328
     66.1831     50.8796    0.327042     20.3054     49.0768
    0.421932     1.43875     8.53022     27.9964     54.9911
     186.889    0.996666     8.70097    -99999.0     6488.35
     3797.47     2.80912    0.227519
   118.950
    -66.9314     15.9707     735.791     1846.54     3209.64
     5606.45     8164.98     94.9056     61.0582     45.9136
     65.8738     50.6045    0.342167     20.3550     49.1292
     1.00332     3.82401    0.511917     28.0756     55.0324
     186.712    0.993321     16.7842    -99999.0     6255.74
     3797.47     2.79396    0.219429
   119.000
    -59.1005     15.9707     735.790     1844.51     3208.37
     5611.36     8137.17     94.8535     60.9024     45.6133
     65.3285     50.5564    0.340024     20.3626     49.1503
   0.0436881    0.400449     1.67753     28.0000     55.0316
     186.844    0.995678     12.1085    -99999.0     6418.13
     3797.47     2.81182    0.229621
   119.050
    -50.4078     15.9621     734.874     1837.66     3208.30
     5610.98     8114.41     94.8694     60.9005     45.6139
     65.3837     50.1990    0.294760     20.3486     48.9546
    0.801720     1.17504     5.59775     27.9437     55.0544
     186.744    0.996319     12.5575    -99999.0     6483.95
     3797.47     2.81920    0.233779
   119.100
    -46.3200     15.9618     733.535     1837.38     3206.95
     5606.51     8110.67     95.1389     60.8540     45.6200
     65.3763     50.1314    0.243664     20.3986     48.9088
   0.0621798     2.14980    0.810970     28.0405     55.0522
     186.700    0.995390     13.6110    -99999.0     6382.98
     3797.47     2.80836    0.228260
   119.150
    -42.0072     15.9610     730.948     1837.39     3205.34
     5594.23     8098.57     94.8870     60.6217     45.5129
     65.3189     49.8144    0.244666     20.4403     48.9133
   0.0330802    0.290611    0.820656     28.1000     55.0251
     187.101    0.994551     5.90236    -99999.0     6382.98
     3797.47     2.80410    0.226100
   119.200
    -31.4508     15.9602     730.633     1838.18     3206.78
     5592.20     8095.94     94.3599     60.3476     45.2501
     65.1362     49.3736    0.248366     20.4451     48.9151
    0.243075     1.21373     3.37389     28.0000     55.0082
     187.000    0.996124     10.0730    -99999.0     6382.98
     3797.47     2.80410    0.226100
   119.250
    -21.9324     15.9602     730.631     1833.99     3206.57
     5592.32     8085.29     94.3696     60.3327     45.2463
     64.8937     48.9469    0.241974     20.4438     48.9298
    0.612472     4.66440     5.88089     28.0000     55.0293
     186.907    0.996283     7.28996    -99999.0     6367.48
     3797.47     2.79304    0.219520
   119.300
    -18.7200     15.9605     730.471     1834.66     3202.47
     5591.57     8080.77     94.5061     60.0541     45.1676
     64.7767     48.9175    0.190328     20.4396     49.0102
    0.618856     1.89507     8.56763     28.0227     55.0577
     186.745    0.996469     9.90737    -99999.0     6265.52
     3797.47     2.78830    0.216700
   119.350
    -13.4838     15.9601     729.154     1834.63     3194.89
     5574.88     8062.26     93.8677     59.7913     44.9682
     64.4171     48.6907    0.147476     20.4156     48.9404
  0.00169248    0.827378     1.36788     28.1000     55.0200
     186.900    0.994700     4.45197    -99999.0     6399.18
     3797.47     2.81140    0.229371
