#------------------------------------------------------------
~VERSION INFORMATION
VERS.               2.0  :CWLS LOG ASCII STANDARD - VERSION 2.0
WRAP.               YES  :MULTIPLE LINES PER DEPTH STEP
#------------------------------------------------------------
~WELL INFORMATION
STRT.M          113.650  :FIRST INDEX VALUE
STOP.M          133.250  :LAST INDEX VALUE
STEP.M        0.0500000  :STEP
NULL.            -99999  :NULL VALUE
COMP.                    :COMPANY
WELL.                    :WELL
FLD.                     :FLD
LOC.                     :LOCATION
SRVC.                    :
CTRY.                    :COUNTRY
STAT.                    :STATE
CNTY.                    :
DATE.                    :DATE
API.                     :API
#------------------------------------------------------------
~CURVE INFORMATION
DEPT.M                   :DEPTH
SP.MV                    :SP
VSPR.V                   :VSPR
SPR.OHM                  :SPR
N8.OHM.M                 :N8
N16.OHM.M                :N16
N32.OHM.M                :N32
N64.OHM.M                :N64
IPLIN161.MV/V            :IPlin161
IPLIN165.MV/V            :IPlin165
IPLIN1610.MV/V           :IPlin1610
IPLIN645.MV/V            :IPlin645
IPLIN6410.MV/V           :IPlin6410
MAG_SUSC.10E-3_SI_UNITS   :Mag Susc
INDUCTION.MS/M           :Induction
IND_RES.OHM-M            :Ind Res
K.%                      :K
U.PPM                    :U
TH.PPM                   :Th
TILT.DEG                 :Tilt
MAGNFIELD.UT             :MagnField
AZIMUTH.DEG              :Azimuth
GRAVITY.G                :Gravity
GR.API                   :GR
CALIPER.CM               :Caliper
VP.M/S                   :Vp
VS.M/S                   :Vs
RHO-ND.G/CM3             :rho-ND
POISSON_RATIO.           :Poisson ratio
#------------------------------------------------------------
~PARAMETER INFORMATION
API_Well_Number_. Yorbeau (Gamble)  :API Well Number:
Acquisition_dates_from_. 21/06/19  :Acquisition dates from:
Acquisition_dates_to_. 22/06/19  :Acquisition dates to:
BIT_FROM1.               :BIT FROM1
BIT_FROM2.               :BIT FROM2
BIT_FROM3.               :BIT FROM3
BIT_FROM4.               :BIT FROM4
BIT_FROM5.               :BIT FROM5
BIT_FROM6.               :BIT FROM6
BIT_TO1.                 :BIT TO1
BIT_TO2.                 :BIT TO2
BIT_TO3.                 :BIT TO3
BIT_TO4.                 :BIT TO4
BIT_TO5.                 :BIT TO5
BIT_TO6.                 :BIT TO6
BIT1.                    :BIT1
BIT2.                    :BIT2
BIT3.                    :BIT3
BIT4.                    :BIT4
BIT5.                    :BIT5
BIT6.                    :BIT6
BTM_LOGGED_INTERVAL.     :BTM LOGGED INTERVAL
CASING_FROM1.            :CASING FROM1
CASING_FROM2.            :CASING FROM2
CASING_FROM3.            :CASING FROM3
CASING_FROM4.            :CASING FROM4
CASING_FROM5.            :CASING FROM5
CASING_FROM6.            :CASING FROM6
CASING_SIZE1.            :CASING SIZE1
CASING_SIZE2.            :CASING SIZE2
CASING_SIZE3.            :CASING SIZE3
CASING_SIZE4.            :CASING SIZE4
CASING_SIZE5.            :CASING SIZE5
CASING_SIZE6.            :CASING SIZE6
CASING_TO1.              :CASING TO1
CASING_TO2.              :CASING TO2
CASING_TO3.              :CASING TO3
CASING_TO4.              :CASING TO4
CASING_TO5.              :CASING TO5
CASING_TO6.              :CASING TO6
CO.                      :CO
CTY.                     :CTY
Country_.        Canada  :Country:
Customer_.  Metal Earth  :Customer:
D_F_.                    :D.F.
DENSITY.                 :DENSITY
DEPTH-DRILLER.           :DEPTH-DRILLER
DEPTH-LOGGER.            :DEPTH-LOGGER
DRILLING_MEAS__FROM.     :DRILLING MEAS. FROM
Depth_unit_.     meters  :Depth unit:
Drilling_measured_from_.   :Drilling measured from:
ELEVATION.               :ELEVATION
FIELD.                   :FIELD
FILING_No.               :FILING No
File_Name_. 12-GA-584-petrophysics.WCL  :File Name:
G_L_.                    :G.L.
Height_above_drilling_datum_.   :Height above drilling datum:
Height_above_log_datum_.   :Height above log datum:
K_B_.                    :K.B.
LEVEL.                   :LEVEL
LOG_MEAS__FROM.          :LOG MEAS. FROM
Location_Description_.   :Location Description:
Log_interval_is_from_. 0.84 m  :Log interval is from:
Log_interval_to_. 165 m  :Log interval to:
Log_is_measured_from_. TOP OF COLLAR  :Log is measured from:
MAX__REC__TEMP_.         :MAX. REC. TEMP.
OPERATING_RIG_TIME.      :OPERATING RIG TIME
OTHER_SERVICES.          :OTHER SERVICES
Operator_.      FG, JCD  :Operator:
Other_Services_.         :Other Services:
PERMANENT_DATUM.         :PERMANENT DATUM
Permanent_datum_elevation_#1.   :Permanent datum elevation:#1
Permanent_datum_is_#1.   :Permanent datum is:#1
Permanent_datum_is_#2.   :Permanent datum is:#2
Permanent_datum_is_#3.   :Permanent datum is:#3
Permanent_datum_is__.    :Permanent datum is::
Print_type_is_.          :Print type is:
RECORDED_BY.             :RECORDED BY
RGE.                     :RGE
RUN_No.                  :RUN No
RUN1.                    :RUN1
RUN2.                    :RUN2
RUN3.                    :RUN3
RUN4.                    :RUN4
RUN5.                    :RUN5
RUN6.                    :RUN6
SALINITY.                :SALINITY
SEC.                     :SEC
STE.                     :STE
Scale_ratio_.            :Scale ratio:
Scaled_depth_is_.        :Scaled depth is:
Service_Company_. Université Laval  :Service Company:
State_/_Province_. Québec  :State / Province:
TITLE.                   :TITLE
TOP_LOGGED_INTERVAL.     :TOP LOGGED INTERVAL
TWP.                     :TWP
TYPE_FLUID_IN_HOLE.      :TYPE FLUID IN HOLE
TYPE_LOG.                :TYPE LOG
WELL_ID.                 :WELL ID
WGT1.                    :WGT1
WGT2.                    :WGT2
WGT3.                    :WGT3
WGT4.                    :WGT4
WGT5.                    :WGT5
WGT6.                    :WGT6
WITNESSED_BY.            :WITNESSED BY
Well_Name_.   12-GA-584  :Well Name:
#------------------------------------------------------------
~OTHER
#------------------------------------------------------------
~A
# ...
   129.750
     589.792     15.9261     541.762     944.964     1284.95
     1775.14     1968.88     120.408     51.0543     34.8947
     51.3338     31.2100    0.527281     20.7236     48.2356
    0.201317     2.06585     5.59626     28.9543     55.0254
     186.923    0.985701     6.89730    -99999.0     5660.38
     3271.53     2.64493    0.247010
   129.800
     593.880     15.9241     538.157     944.783     1296.23
     1708.79     1953.93     115.750     48.9261     34.1896
     50.9586     31.8551    0.531512     20.7245     48.3084
    0.917193    0.580648     2.83035     28.6386     55.0277
     186.677    0.995905     4.67255    -99999.0     5660.38
     3266.18     2.64790    0.252770
   129.850
     591.107     15.9187     527.313     931.092     1278.89
     1710.43     1893.86     112.179     46.9951     33.3782
     50.9105     33.5978    0.542818     20.7114     48.2128
  0.00618735    0.534506     3.44183     28.7000     55.0409
     187.109    0.994073     18.8505    -99999.0     5660.38
     3234.09     2.64790    0.252269
   129.900
     579.852     15.9186     527.244     904.991     1226.97
     1714.91     1852.28     114.114     48.5197     33.0402
     54.5700     32.3369    0.531712     20.7268     48.1594
  0.00596482     4.33359     14.2078     28.9107     55.0551
     186.789    0.997299     10.9600    -99999.0     5648.13
     3288.42     2.64097    0.246568
   129.950
     560.901     15.9066     500.065     876.346     1224.74
     1709.27     1834.10     114.276     48.5896     33.1571
     53.8236     32.2486    0.517667     20.7567     48.0310
     1.08136     1.52227     2.39298     28.5141     54.9928
     186.900    0.998740     8.30669    -99999.0     5567.77
     3229.89     2.63800    0.247440
   130.000
     542.673     15.8929     471.943     832.571     1185.01
     1656.96     1830.25     117.335     49.9551     35.2764
     53.5836     33.1811    0.519218     20.8007     47.9207
     0.00000     0.00000     0.00000     28.6017     55.0009
     186.607    0.996817     1.81246    -99999.0     5660.38
     3256.78     2.64493    0.253530
   130.050
     535.080     15.8925     474.091     832.083     1185.95
     1587.14     1812.71     119.985     51.9489     35.7329
     53.3356     35.8674    0.522476     20.8516     48.0182
   0.0978204    0.189134     1.65202     28.4176     55.0400
     186.435    0.999436     10.6880    -99999.0     5673.10
     3234.09     2.65525    0.257630
   130.100
     536.620     15.9025     498.426     796.491     1188.73
     1535.34     1788.25     114.448     50.0173     33.1080
     54.6244     35.3315    0.508843     20.8406     48.1481
    0.865473     1.39137     1.38901     28.5002     55.0267
     186.633    0.998493     5.36464    -99999.0     5756.51
     3304.84     2.65840    0.246948
   130.150
     544.243     15.9025     498.583     815.564     1186.74
     1504.52     1760.99     114.453     50.0140     33.1195
     53.0334     37.6219    0.480830     20.7884     48.1245
    0.255293    0.799301     2.35226     28.7492     55.0602
     186.751    0.989485     4.89831    -99999.0     5673.10
     3364.93     2.65840    0.237449
   130.200
     553.160     15.9094     517.867     856.987     1149.33
     1500.71     1750.04     114.879     50.0870     33.3647
     53.8912     37.3630    0.445875     20.7754     47.8416
   0.0785506    0.910876    0.237075     28.6053     55.0630
     186.765    0.996038     6.59137    -99999.0     5782.42
     3347.50     2.67387    0.251181
   130.250
     556.080     15.9104     525.580     857.151     1112.97
     1467.87     1702.25     120.977     52.5649     34.1754
     57.7823     36.4365    0.447764     20.8596     47.7354
    0.193599    0.553552     1.50645     28.4771     55.0500
     186.961    0.999103     5.95292    -99999.0     5869.16
     3296.70     2.68050    0.262380
   130.300
     558.544     15.9092     527.202     869.212     1119.39
     1443.12     1655.22     124.431     55.0811     35.7361
     61.8812     37.1571    0.469455     20.9337     47.7256
    0.505006     3.02080     3.15906     28.7861     55.0500
     186.700    0.988172     2.29438    -99999.0     5782.45
     3288.42     2.68050    0.269200
   130.350
     559.956     15.9092     527.212     869.941     1142.80
     1429.03     1630.31     124.271     56.6224     35.6927
     63.2782     41.1540    0.478294     20.9520     47.8516
    0.482481     2.65433     1.39612     28.6877     55.0112
     186.888    0.994534     11.1903    -99999.0     5856.41
     3225.81     2.67308    0.271929
   130.400
     558.464     15.9119     537.199     890.225     1143.55
     1427.80     1636.91     124.404     56.7049     35.8275
     61.7129     43.8119    0.469316     20.9172     48.0038
    0.110968     2.68863     5.14191     28.6592     55.0372
     186.756    0.995300     7.52936    -99999.0     5660.38
     3221.80     2.65449    0.265897
   130.450
     558.804     15.9173     556.185     938.350     1158.58
     1419.10     1645.23     126.935     58.3269     38.2537
     60.7108     44.1725    0.472240     20.8543     47.9592
     1.22290     1.38022     1.03957     28.6123     55.0212
     186.800    0.994022     7.59715    -99999.0     5660.38
     3187.57     2.64790    0.268310
   130.500
     559.680     15.9208     571.265     939.069     1192.20
     1427.47     1683.70     130.210     61.2173     38.9382
     57.9694     44.2146    0.496468     20.8437     47.7402
     2.26459     2.19539     5.09574     28.8194     55.0000
     186.800    0.989977     8.29591    -99999.0     5648.15
     3165.81     2.64097    0.263080
   130.550
     560.604     15.9214     580.484     992.435     1258.19
     1438.59     1738.36     132.067     62.0167     39.6514
     58.7744     39.2484    0.499310     20.9136     47.5819
    0.748743     3.88097     4.10566     28.6000     55.0175
     186.775    0.996021     5.24835    -99999.0     5555.56
     3225.81     2.63114    0.249959
   130.600
     563.636     15.9214     580.543     1033.89     1262.26
     1439.60     1797.74     131.889     61.9356     39.6672
     55.4961     35.2553    0.508584     20.9929     47.5415
    0.133220    0.707926     2.19107     28.8566     55.0300
     186.983    0.988415     4.64692    -99999.0     5564.37
     3217.87     2.63310    0.254383
   130.650
     554.279     15.9215     587.834     1065.46     1337.57
     1449.74     1818.84     128.682     60.4866     39.8880
     54.6682     35.2175    0.505303     21.0286     47.6386
    0.324305    0.806183     3.24389     28.8644     55.0400
     187.079    0.990462     7.10463    -99999.0     5611.64
     3157.89     2.62946    0.259429
   130.700
     543.480     15.9215     594.938     1065.80     1392.98
     1473.57     1902.18     127.792     60.2328     38.8435
     52.1932     33.9873    0.504272     21.0065     47.6393
     0.00000     0.00000     0.00000     28.5457     55.0631
     186.737    0.999939     4.00435    -99999.0     5465.38
     3150.30     2.61636    0.257830
   130.750
     535.781     15.9191     599.497     1091.15     1429.89
     1531.42     1949.54     126.456     59.5187     39.3147
     53.3273     30.1220    0.510365     20.9908     47.7079
     0.00000     0.00000     0.00000     28.7091     55.0384
     186.777    0.995658     7.46768    -99999.0     5465.38
     3094.49     2.61180    0.261030
   130.800
     531.868     15.9191     599.526     1106.85     1432.00
     1616.44     1943.39     126.528     59.5407     39.2866
     54.6756     29.4646    0.498406     20.9714     47.7196
   0.0265924    0.644305     1.23221     28.6190     55.0282
     186.700    0.997331     3.49700    -99999.0     5472.98
     3103.80     2.61593    0.266790
   130.850
     536.928     15.9145     598.507     1114.27     1471.60
     1628.74     1911.81     127.828     59.9420     38.7492
     55.4516     29.8175    0.488478     20.9573     47.7266
     1.26787     5.28991     3.07012     28.5084     55.0560
     186.730     1.00051     5.40867    -99999.0     5530.44
     3076.54     2.62183    0.273680
