#------------------------------------------------------------
~VERSION INFORMATION
VERS.               2.0  :CWLS LOG ASCII STANDARD - VERSION 2.0
WRAP.               YES  :MULTIPLE LINES PER DEPTH STEP
#------------------------------------------------------------
~WELL INFORMATION
STRT.M          113.650  :FIRST INDEX VALUE
STOP.M          133.250  :LAST INDEX VALUE
STEP.M        0.0500000  :STEP
NULL.            -99999  :NULL VALUE
COMP.                    :COMPANY
WELL.                    :WELL
FLD.                     :FLD
LOC.                     :LOCATION
SRVC.                    :
CTRY.                    :COUNTRY
STAT.                    :STATE
CNTY.                    :
DATE.                    :DATE
API.                     :API
#------------------------------------------------------------
~CURVE INFORMATION
DEPT.M                   :DEPTH
SP.MV                    :SP
VSPR.V                   :VSPR
SPR.OHM                  :SPR
N8.OHM.M                 :N8
N16.OHM.M                :N16
N32.OHM.M                :N32
N64.OHM.M                :N64
IPLIN161.MV/V            :IPlin161
IPLIN165.MV/V            :IPlin165
IPLIN1610.MV/V           :IPlin1610
IPLIN645.MV/V            :IPlin645
IPLIN6410.MV/V           :IPlin6410
MAG_SUSC.10E-3_SI_UNITS   :Mag Susc
INDUCTION.MS/M           :Induction
IND_RES.OHM-M            :Ind Res
K.%                      :K
U.PPM                    :U
TH.PPM                   :Th
TILT.DEG                 :Tilt
MAGNFIELD.UT             :MagnField
AZIMUTH.DEG              :Azimuth
GRAVITY.G                :Gravity
GR.API                   :GR
CALIPER.CM               :Caliper
VP.M/S                   :Vp
VS.M/S                   :Vs
RHO-ND.G/CM3             :rho-ND
POISSON_RATIO.           :Poisson ratio
#------------------------------------------------------------
~PARAMETER INFORMATION
API_Well_Number_. Yorbeau (Gamble)  :API Well Number:
Acquisition_dates_from_. 21/06/19  :Acquisition dates from:
Acquisition_dates_to_. 22/06/19  :Acquisition dates to:
BIT_FROM1.               :BIT FROM1
BIT_FROM2.               :BIT FROM2
BIT_FROM3.               :BIT FROM3
BIT_FROM4.               :BIT FROM4
BIT_FROM5.               :BIT FROM5
BIT_FROM6.               :BIT FROM6
BIT_TO1.                 :BIT TO1
BIT_TO2.                 :BIT TO2
BIT_TO3.                 :BIT TO3
BIT_TO4.                 :BIT TO4
BIT_TO5.                 :BIT TO5
BIT_TO6.                 :BIT TO6
BIT1.                    :BIT1
BIT2.                    :BIT2
BIT3.                    :BIT3
BIT4.                    :BIT4
BIT5.                    :BIT5
BIT6.                    :BIT6
BTM_LOGGED_INTERVAL.     :BTM LOGGED INTERVAL
CASING_FROM1.            :CASING FROM1
CASING_FROM2.            :CASING FROM2
CASING_FROM3.            :CASING FROM3
CASING_FROM4.            :CASING FROM4
CASING_FROM5.            :CASING FROM5
CASING_FROM6.            :CASING FROM6
CASING_SIZE1.            :CASING SIZE1
CASING_SIZE2.            :CASING SIZE2
CASING_SIZE3.            :CASING SIZE3
CASING_SIZE4.            :CASING SIZE4
CASING_SIZE5.            :CASING SIZE5
CASING_SIZE6.            :CASING SIZE6
CASING_TO1.              :CASING TO1
CASING_TO2.              :CASING TO2
CASING_TO3.              :CASING TO3
CASING_TO4.              :CASING TO4
CASING_TO5.              :CASING TO5
CASING_TO6.              :CASING TO6
CO.                      :CO
CTY.                     :CTY
Country_.        Canada  :Country:
Customer_.  Metal Earth  :Customer:
D_F_.                    :D.F.
DENSITY.                 :DENSITY
DEPTH-DRILLER.           :DEPTH-DRILLER
DEPTH-LOGGER.            :DEPTH-LOGGER
DRILLING_MEAS__FROM.     :DRILLING MEAS. FROM
Depth_unit_.     meters  :Depth unit:
Drilling_measured_from_.   :Drilling measured from:
ELEVATION.               :ELEVATION
FIELD.                   :FIELD
FILING_No.               :FILING No
File_Name_. 12-GA-584-petrophysics.WCL  :File Name:
G_L_.                    :G.L.
Height_above_drilling_datum_.   :Height above drilling datum:
Height_above_log_datum_.   :Height above log datum:
K_B_.                    :K.B.
LEVEL.                   :LEVEL
LOG_MEAS__FROM.          :LOG MEAS. FROM
Location_Description_.   :Location Description:
Log_interval_is_from_. 0.84 m  :Log interval is from:
Log_interval_to_. 165 m  :Log interval to:
Log_is_measured_from_. TOP OF COLLAR  :Log is measured from:
MAX__REC__TEMP_.         :MAX. REC. TEMP.
OPERATING_RIG_TIME.      :OPERATING RIG TIME
OTHER_SERVICES.          :OTHER SERVICES
Operator_.      FG, JCD  :Operator:
Other_Services_.         :Other Services:
PERMANENT_DATUM.         :PERMANENT DATUM
Permanent_datum_elevation_#1.   :Permanent datum elevation:#1
Permanent_datum_is_#1.   :Permanent datum is:#1
Permanent_datum_is_#2.   :Permanent datum is:#2
Permanent_datum_is_#3.   :Permanent datum is:#3
Permanent_datum_is__.    :Permanent datum is::
Print_type_is_.          :Print type is:
RECORDED_BY.             :RECORDED BY
RGE.                     :RGE
RUN_No.                  :RUN No
RUN1.                    :RUN1
RUN2.                    :RUN2
RUN3.                    :RUN3
RUN4.                    :RUN4
RUN5.                    :RUN5
RUN6.                    :RUN6
SALINITY.                :SALINITY
SEC.                     :SEC
STE.                     :STE
Scale_ratio_.            :Scale ratio:
Scaled_depth_is_.        :Scaled depth is:
Service_Company_. Université Laval  :Service Company:
State_/_Province_. Québec  :State / Province:
TITLE.                   :TITLE
TOP_LOGGED_INTERVAL.     :TOP LOGGED INTERVAL
TWP.                     :TWP
TYPE_FLUID_IN_HOLE.      :TYPE FLUID IN HOLE
TYPE_LOG.                :TYPE LOG
WELL_ID.                 :WELL ID
WGT1.                    :WGT1
WGT2.                    :WGT2
WGT3.                    :WGT3
WGT4.                    :WGT4
WGT5.                    :WGT5
WGT6.                    :WGT6
WITNESSED_BY.            :WITNESSED BY
Well_Name_.   12-GA-584  :Well Name:
#------------------------------------------------------------
~OTHER
#------------------------------------------------------------
~A
# ...
   128.600
     480.428     15.9387     550.015     941.464     1197.48
     1613.10     1950.42     105.733     46.7322     27.2710
     48.3768     29.2340    0.412413     21.3372     46.8521
    0.119990     1.37781     1.86136     28.5388     55.0479
     186.639    0.994337     13.3465    -99999.0     5076.91
     3203.84     2.54734    0.163368
   128.650
     494.425     15.9388     552.412     957.116     1201.32
     1609.34     2012.26     105.840     46.8139     27.4057
     49.0475     27.9610    0.417867     21.3411     46.6885
     1.73001    0.166000     5.59443     28.4225     55.0700
     186.673     1.00016     8.10230    -99999.0     4892.58
     3201.28     2.53270    0.148597
   128.700
     488.880     15.9354     545.008     949.539     1271.82
     1582.36     2024.01     107.719     48.2200     29.8204
     48.0848     28.6222    0.405795     21.3925     46.5486
     0.00000     0.00000     0.00000     28.5000     55.0226
     186.800    0.997737     2.79404    -99999.0     5105.02
     3173.21     2.54565    0.180711
   128.750
     476.869     15.9334     540.563     949.497     1316.45
     1609.29     2073.04     107.273     47.5569     30.3186
     45.7681     30.4811    0.398312     21.4612     46.3041
    0.401034     1.04945     3.91718     28.5000     55.0600
     186.607    0.999198     4.69437    -99999.0     5111.64
     3106.20     2.55435    0.206741
   128.800
     476.567     15.9336     541.695     946.463     1312.67
     1672.93     2119.16     107.332     48.9017     30.3642
     47.6578     29.8829    0.398422     21.5574     46.2786
    0.160913     2.85051     7.61158     28.4913     55.0732
     186.677     1.00039     8.61565    -99999.0     5161.74
     3097.05     2.55892    0.216749
   128.850
     502.791     15.9336     541.703     952.369     1310.29
     1679.13     2157.92     107.764     49.0712     30.5325
     44.7547     31.2863    0.413114     21.6051     46.6242
    0.815476     2.89011     4.78616     28.7000     55.0400
     186.700    0.989655     11.0177    -99999.0     5155.11
     3098.26     2.55708    0.214149
   128.900
     527.849     15.9315     537.066     945.903     1267.04
     1728.45     2168.97     115.698     52.2103     33.6524
     45.0215     31.2754    0.414510     21.5040     47.1618
    0.884791     4.41080     5.86503     28.4911     55.0472
     186.737    0.995639     2.78317    -99999.0     5105.02
     3107.40     2.55255    0.207648
   128.950
     537.480     15.9260     522.389     945.532     1248.10
     1735.30     2224.53     120.645     54.5994     35.9926
     46.0282     31.0884    0.410377     21.2875     47.6463
    0.224138    0.485075     4.59425     28.4597     55.0290
     186.500    0.998308     8.55839    -99999.0     5111.63
     3109.84     2.55435    0.207100
   129.000
     541.176     15.9259     523.721     917.929     1251.87
     1735.34     2313.21     122.766     54.9187     34.9366
     45.6329     30.8698    0.411021     21.0611     48.0019
   0.0674335    0.742525     2.03836     28.4281     55.0728
     186.642    0.999161     3.30148    -99999.0     5165.11
     3128.33     2.56053    0.210850
   129.050
     549.299     15.9259     523.730     892.337     1251.50
     1738.92     2396.28     122.612     54.8574     34.9409
     42.9230     31.7822    0.435619     20.8849     47.8346
    0.265705     1.19249     8.89096     28.6945     55.0504
     186.505    0.990187     9.45648    -99999.0     5168.31
     3128.33     2.55364    0.201278
   129.100
     559.225     15.9316     540.505     903.765     1243.82
     1736.85     2427.70     119.909     53.7207     35.0260
     42.6560     31.3774    0.454358     20.8786     48.0317
   0.0106751    0.418395     2.29898     28.6298     55.0447
     186.747    0.993236     8.63955    -99999.0     5030.76
     3133.32     2.55400    0.196671
   129.150
     564.480     15.9332     546.496     904.159     1223.12
     1717.82     2567.00     120.197     52.7874     35.1575
     40.9616     30.0413    0.448303     20.8502     48.0743
   0.0663085     2.16216     8.30131     28.5000     55.0533
     186.600    0.996266     6.65188    -99999.0     5285.53
     3169.50     2.58213    0.221072
   129.200
     568.484     15.9309     541.984     932.547     1234.68
     1693.04     2686.63     119.125     51.9897     34.1999
     37.9771     30.2098    0.447617     20.8068     48.0302
     0.00000     0.00000     0.00000     28.5491     55.0402
     186.749    0.994166     6.64679    -99999.0     5466.32
     3157.89     2.61132    0.247671
   129.250
     570.432     15.9309     541.955     936.804     1273.81
     1673.48     2652.58     115.614     50.9726     32.9532
     37.7162     30.5703    0.454400     20.8134     47.6657
     1.30432    0.573174     1.25189     28.5351     55.0460
     186.800    0.995888     8.39095    -99999.0     5555.56
     3157.89     2.62544    0.259290
   129.300
     564.676     15.9281     533.707     934.692     1274.61
     1670.85     2528.06     115.564     50.9341     32.9871
     40.1091     29.6936    0.480375     20.9241     47.5288
    0.285378     1.43364     4.33427     28.6229     55.0419
     186.742    0.992435     3.45499    -99999.0     5555.56
     3157.89     2.62820    0.261299
   129.350
     560.880     15.9270     530.631     936.718     1288.26
     1652.10     2498.70     114.756     50.3260     33.6122
     40.1984     30.6399    0.510780     21.0202     47.7172
    0.963190     2.21407     3.98674     28.4104     55.0403
     186.803     1.00043     4.34577    -99999.0     5567.81
     3146.60     2.63506    0.272502
   129.400
     559.339     15.9266     531.701     936.662     1276.98
     1673.34     2399.30     116.140     51.6642     34.0794
     40.9268     33.6906    0.524968     20.9863     47.7883
     0.00000     0.00000     0.00000     28.7506     55.0225
     186.775    0.989616     7.06731    -99999.0     5660.38
     3068.68     2.64493    0.284092
   129.450
     555.724     15.9264     534.363     932.460     1261.65
     1731.51     2386.51     118.483     51.8451     35.0721
     42.3446     32.5787    0.516225     20.9357     47.7403
     0.00000     0.00000     0.00000     28.5000     55.0284
     186.700    0.998223     2.07803    -99999.0     5648.16
     3128.83     2.64097    0.275870
   129.500
     557.068     15.9264     534.380     922.237     1261.01
     1740.27     2377.00     118.649     51.9144     35.1218
     42.3079     29.5384    0.504382     20.9391     47.7567
    0.313061    0.311626     2.54315     28.4878     55.0388
     186.756    0.999050     5.53247    -99999.0     5580.47
     3165.81     2.64542    0.268230
   129.550
     567.055     15.9267     537.191     917.305     1249.92
     1817.27     2353.57     121.724     53.1876     36.0103
     42.4557     29.8688    0.502416     20.9422     47.7851
     0.00000     0.00000     0.00000     28.5211     55.0381
     186.740    0.997165    0.360434    -99999.0     5769.23
     3217.87     2.66288    0.275612
   129.600
     573.480     15.9264     537.609     917.365     1255.85
     1882.89     2245.50     123.590     53.7820     36.0377
     43.6776     30.9624    0.533669     20.9313     47.9683
     0.00000     0.00000     0.00000     28.6265     55.0398
     186.802    0.993747     2.77164    -99999.0     5744.26
     3168.50     2.65472    0.268027
   129.650
     576.253     15.9262     539.794     921.931     1271.67
     1870.27     2119.31     120.920     52.0372     36.0490
     46.6135     31.4801    0.546702     20.8749     48.1993
     0.00000     0.00000     0.00000     29.1132     55.0083
     186.874    0.980390     3.24015    -99999.0     5555.56
     3251.32     2.63432    0.245133
   129.700
     582.268     15.9262     539.808     934.273     1272.34
     1783.62     2023.65     120.906     51.9910     35.9897
     49.0160     32.6448    0.538313     20.7813     48.2806
    0.244392    0.786313     2.46383     28.2492     55.0400
     186.316     1.00668     5.94412    -99999.0     5567.77
     3271.53     2.63506    0.240550
