#------------------------------------------------------------
~VERSION INFORMATION
VERS.               2.0  :CWLS LOG ASCII STANDARD - VERSION 2.0
WRAP.               YES  :MULTIPLE LINES PER DEPTH STEP
#------------------------------------------------------------
~WELL INFORMATION
STRT.M          113.650  :FIRST INDEX VALUE
STOP.M          133.250  :LAST INDEX VALUE
STEP.M        0.0500000  :STEP
NULL.            -99999  :NULL VALUE
COMP.                    :COMPANY
WELL.                    :WELL
FLD.                     :FLD
LOC.                     :LOCATION
SRVC.                    :
CTRY.                    :COUNTRY
STAT.                    :STATE
CNTY.                    :
DATE.                    :DATE
API.                     :API
#------------------------------------------------------------
~CURVE INFORMATION
DEPT.M                   :DEPTH
SP.MV                    :SP
VSPR.V                   :VSPR
SPR.OHM                  :SPR
N8.OHM.M                 :N8
N16.OHM.M                :N16
N32.OHM.M                :N32
N64.OHM.M                :N64
IPLIN161.MV/V            :IPlin161
IPLIN165.MV/V            :IPlin165
IPLIN1610.MV/V           :IPlin1610
IPLIN645.MV/V            :IPlin645
IPLIN6410.MV/V           :IPlin6410
MAG_SUSC.10E-3_SI_UNITS   :Mag Susc
INDUCTION.MS/M           :Induction
IND_RES.OHM-M            :Ind Res
K.%                      :K
U.PPM                    :U
TH.PPM                   :Th
TILT.DEG                 :Tilt
MAGNFIELD.UT             :MagnField
AZIMUTH.DEG              :Azimuth
GRAVITY.G                :Gravity
GR.API                   :GR
CALIPER.CM               :Caliper
VP.M/S                   :Vp
VS.M/S                   :Vs
RHO-ND.G/CM3             :rho-ND
POISSON_RATIO.           :Poisson ratio
#------------------------------------------------------------
~PARAMETER INFORMATION
API_Well_Number_. Yorbeau (Gamble)  :API Well Number:
Acquisition_dates_from_. 21/06/19  :Acquisition dates from:
Acquisition_dates_to_. 22/06/19  :Acquisition dates to:
BIT_FROM1.               :BIT FROM1
BIT_FROM2.               :BIT FROM2
BIT_FROM3.               :BIT FROM3
BIT_FROM4.               :BIT FROM4
BIT_FROM5.               :BIT FROM5
BIT_FROM6.               :BIT FROM6
BIT_TO1.                 :BIT TO1
BIT_TO2.                 :BIT TO2
BIT_TO3.                 :BIT TO3
BIT_TO4.                 :BIT TO4
BIT_TO5.                 :BIT TO5
BIT_TO6.                 :BIT TO6
BIT1.                    :BIT1
BIT2.                    :BIT2
BIT3.                    :BIT3
BIT4.                    :BIT4
BIT5.                    :BIT5
BIT6.                    :BIT6
BTM_LOGGED_INTERVAL.     :BTM LOGGED INTERVAL
CASING_FROM1.            :CASING FROM1
CASING_FROM2.            :CASING FROM2
CASING_FROM3.            :CASING FROM3
CASING_FROM4.            :CASING FROM4
CASING_FROM5.            :CASING FROM5
CASING_FROM6.            :CASING FROM6
CASING_SIZE1.            :CASING SIZE1
CASING_SIZE2.            :CASING SIZE2
CASING_SIZE3.            :CASING SIZE3
CASING_SIZE4.            :CASING SIZE4
CASING_SIZE5.            :CASING SIZE5
CASING_SIZE6.            :CASING SIZE6
CASING_TO1.              :CASING TO1
CASING_TO2.              :CASING TO2
CASING_TO3.              :CASING TO3
CASING_TO4.              :CASING TO4
CASING_TO5.              :CASING TO5
CASING_TO6.              :CASING TO6
CO.                      :CO
CTY.                     :CTY
Country_.        Canada  :Country:
Customer_.  Metal Earth  :Customer:
D_F_.                    :D.F.
DENSITY.                 :DENSITY
DEPTH-DRILLER.           :DEPTH-DRILLER
DEPTH-LOGGER.            :DEPTH-LOGGER
DRILLING_MEAS__FROM.     :DRILLING MEAS. FROM
Depth_unit_.     meters  :Depth unit:
Drilling_measured_from_.   :Drilling measured from:
ELEVATION.               :ELEVATION
FIELD.                   :FIELD
FILING_No.               :FILING No
File_Name_. 12-GA-584-petrophysics.WCL  :File Name:
G_L_.                    :G.L.
Height_above_drilling_datum_.   :Height above drilling datum:
Height_above_log_datum_.   :Height above log datum:
K_B_.                    :K.B.
LEVEL.                   :LEVEL
LOG_MEAS__FROM.          :LOG MEAS. FROM
Location_Description_.   :Location Description:
Log_interval_is_from_. 0.84 m  :Log interval is from:
Log_interval_to_. 165 m  :Log interval to:
Log_is_measured_from_. TOP OF COLLAR  :Log is measured from:
MAX__REC__TEMP_.         :MAX. REC. TEMP.
OPERATING_RIG_TIME.      :OPERATING RIG TIME
OTHER_SERVICES.          :OTHER SERVICES
Operator_.      FG, JCD  :Operator:
Other_Services_.         :Other Services:
PERMANENT_DATUM.         :PERMANENT DATUM
Permanent_datum_elevation_#1.   :Permanent datum elevation:#1
Permanent_datum_is_#1.   :Permanent datum is:#1
Permanent_datum_is_#2.   :Permanent datum is:#2
Permanent_datum_is_#3.   :Permanent datum is:#3
Permanent_datum_is__.    :Permanent datum is::
Print_type_is_.          :Print type is:
RECORDED_BY.             :RECORDED BY
RGE.                     :RGE
RUN_No.                  :RUN No
RUN1.                    :RUN1
RUN2.                    :RUN2
RUN3.                    :RUN3
RUN4.                    :RUN4
RUN5.                    :RUN5
RUN6.                    :RUN6
SALINITY.                :SALINITY
SEC.                     :SEC
STE.                     :STE
Scale_ratio_.            :Scale ratio:
Scaled_depth_is_.        :Scaled depth is:
Service_Company_. Université Laval  :Service Company:
State_/_Province_. Québec  :State / Province:
TITLE.                   :TITLE
TOP_LOGGED_INTERVAL.     :TOP LOGGED INTERVAL
TWP.                     :TWP
TYPE_FLUID_IN_HOLE.      :TYPE FLUID IN HOLE
TYPE_LOG.                :TYPE LOG
WELL_ID.                 :WELL ID
WGT1.                    :WGT1
WGT2.                    :WGT2
WGT3.                    :WGT3
WGT4.                    :WGT4
WGT5.                    :WGT5
WGT6.                    :WGT6
WITNESSED_BY.            :WITNESSED BY
Well_Name_.   12-GA-584  :Well Name:
#------------------------------------------------------------
~OTHER
#------------------------------------------------------------
~A
# ...
   115.950
    -37.0281     15.9681     745.336     1841.27     3167.38
     5346.77     6964.08     95.5992     62.1070     47.8268
     68.6306     54.1438    0.431526     20.3001     48.9218
     0.00000     0.00000     0.00000     27.7000     55.0300
     186.800    0.998000    0.203110    -99999.0     6416.09
     3896.10     2.83447    0.220792
   116.000
    -38.8598     15.9681     745.333     1844.45     3167.65
     5354.33     7010.44     95.5804     62.1072     47.8292
     68.6233     53.6828    0.423271     20.4133     49.4509
     0.00000     0.00000     0.00000     27.8195     55.0300
     186.539    0.996427     5.25775    -99999.0     6666.67
     3896.10     2.86523    0.235061
   116.050
    -40.3200     15.9679     744.487     1846.52     3172.68
     5354.69     7024.13     95.2385     62.1103     47.8681
     68.6401     53.7448    0.424353     20.2991     49.5330
    0.199772    0.781957     2.49112     27.9927     55.0393
     186.796    0.991167     6.83989    -99999.0     6649.75
     3890.27     2.86291    0.238109
   116.100
    -44.6322     15.9682     744.826     1846.52     3175.98
     5358.71     7084.17     95.1476     62.1167     47.7938
     68.7669     53.8960    0.440697     20.1983     49.3769
    0.563289    0.195930     1.29587     27.5879     55.0324
     186.600     1.00465     5.21461    -99999.0     6521.74
     3846.15     2.84414    0.234480
   116.150
    -49.9522     15.9678     744.723     1846.89     3177.24
     5369.73     7145.60     95.9061     62.2057     47.9708
     68.9408     53.7357    0.446717     20.2299     49.2415
     0.00000     0.00000     0.00000     27.7395     55.0372
     186.728    0.999921     1.67849    -99999.0     6538.66
     3846.15     2.85166    0.239421
   116.200
    -52.3522     15.9678     744.722     1848.09     3178.75
     5383.70     7192.63     95.6486     62.2717     47.9495
     68.8277     53.6690    0.465127     20.2892     49.2441
    0.464035     2.13297     6.79409     27.8814     55.0144
     186.700    0.995625     4.18034    -99999.0     6666.67
     3851.98     2.87039    0.244520
   116.250
    -55.3678     15.9681     744.481     1848.68     3178.85
     5385.33     7218.81     95.6493     62.2738     47.9494
     69.1198     53.3339    0.476813     20.3079     49.1512
    0.303436     2.61803     6.48759     27.9189     55.0541
     186.659    0.994740     2.99543    -99999.0     6646.92
     3896.10     2.86074    0.234680
   116.300
    -57.1200     15.9764     744.961     1847.61     3180.66
     5400.87     7225.52     95.6401     62.3119     47.9487
     69.1329     53.3811    0.456842     20.3320     49.1990
     1.16110    0.398168     4.18966     27.8247     55.0325
     186.751    0.997167     10.3345    -99999.0     6513.55
     3896.10     2.85140    0.228741
   116.350
    -58.0440     15.9760     744.608     1847.57     3181.83
     5424.20     7258.35     95.2781     62.3168     47.9687
     69.1996     53.5987    0.417039     20.3328     49.3669
    0.332633     3.11912     9.12514     27.8732     55.0582
     186.873    0.994326     4.65899    -99999.0     6609.82
     3896.10     2.84243    0.223790
   116.400
    -62.6167     15.9679     743.252     1844.41     3185.48
     5436.91     7307.94     95.8637     62.4805     47.9984
     69.2874     53.7635    0.381751     20.2804     49.5296
    0.122535     2.49405     7.09919     27.7207     55.0141
     186.721    0.999701     4.88199    -99999.0     6421.00
     3896.10     2.82874    0.216790
   116.450
    -67.9683     15.9678     743.243     1843.92     3185.74
     5438.42     7354.05     95.8409     62.4782     47.9979
     69.3212     53.6310    0.374614     20.2126     49.4218
     0.00000     0.00000     0.00000     27.9773     55.0168
     186.855    0.993458     1.50639    -99999.0     6505.54
     3896.10     2.82220    0.213340
   116.500
    -69.7200     15.9676     741.976     1845.24     3190.67
     5452.61     7365.48     95.4574     62.4434     47.9882
     69.2687     53.6911    0.365878     20.2181     49.2866
     0.00000     0.00000     0.00000     27.9616     55.0400
     186.838    0.993930     6.83602    -99999.0     6399.16
     3896.10     2.82130    0.212800
   116.550
    -69.7200     15.9674     741.457     1845.25     3195.09
     5472.12     7411.07     95.8493     62.5339     47.9879
     69.1556     53.9096    0.353737     20.2706     49.4738
   0.0135158   0.0865791    0.235073     27.9000     55.0246
     186.800    0.997002     2.66193    -99999.0     6490.02
     3896.10     2.81024    0.205519
   116.600
    -72.1841     15.9672     741.751     1846.36     3200.25
     5480.14     7447.02     95.9490     62.5503     47.9122
     69.3175     53.8875    0.354484     20.2400     49.4706
     0.00000     0.00000     0.00000     28.0100     55.0570
     186.730    0.994081     3.11920    -99999.0     6281.72
     3890.27     2.80550    0.206181
   116.650
    -76.9845     15.9672     741.753     1851.15     3200.63
     5483.18     7478.21     95.9260     62.5452     47.9107
     69.2132     53.5899    0.330861     20.2129     49.2370
    0.291652    0.377851     2.10968     27.8426     55.0314
     186.814    0.999365     3.39522    -99999.0     6505.54
     3846.15     2.81656    0.219281
   116.700
    -79.3200     15.9670     742.371     1852.55     3207.75
     5482.79     7489.38     95.5209     62.4597     47.8815
     69.2781     53.6251    0.298473     20.2765     49.2150
     0.00000     0.00000     0.00000     27.8032     55.0298
     186.800    0.998984     0.00000    -99999.0     6382.98
     3846.15     2.80926    0.217758
   116.750
    -80.2439     15.9669     743.685     1852.57     3215.98
     5480.76     7535.74     95.5839     62.5343     47.8415
     69.4733     53.8409    0.323940     20.3167     49.1966
    0.285317     2.58925     4.23696     27.9479     55.0383
     186.783    0.994005     5.63143    -99999.0     6399.16
     3846.15     2.81614    0.221440
   116.800
    -82.3520     15.9670     743.990     1853.84     3218.56
     5491.92     7577.21     95.3515     62.3569     47.7298
     69.4344     54.0212    0.376893     20.3240     49.0632
     0.00000     0.00000     0.00000     27.8668     55.0233
     186.766    0.995932     0.00000    -99999.0     6505.54
     3846.15     2.82130    0.224200
   116.850
    -84.7520     15.9670     743.992     1857.81     3212.30
     5515.07     7608.71     95.4722     62.3838     47.6798
     69.4978     53.5332    0.402244     20.3626     48.9632
     0.00000     0.00000     0.00000     27.9979     55.0102
     186.751    0.994048     3.31852    -99999.0     6399.18
     3846.15     2.82130    0.224200
   116.900
    -88.6925     15.9670     744.635     1857.69     3212.02
     5516.60     7616.76     95.5003     62.3932     47.6877
     69.5497     53.5421    0.388058     20.4095     49.1574
   0.0116796    0.101392    0.241107     27.8000     55.0600
     186.700    0.998900     5.42659    -99999.0     6505.54
     3846.15     2.82130    0.224200
   116.950
    -91.3200     15.9665     746.100     1856.00     3207.23
     5528.46     7649.43     95.9765     62.5562     47.8308
     69.6702     53.5885    0.413226     20.3713     49.2416
    0.675246     7.34505     18.9403     27.7777     55.0481
     186.719     1.00023     8.67652    -99999.0     6399.18
     3851.98     2.82130    0.220349
   117.000
    -94.7076     15.9666     745.828     1855.95     3211.08
     5528.66     7675.23     95.5934     62.4874     47.8773
     69.5002     53.6373    0.441952     20.3195     49.4791
    0.136143    0.537059     1.71414     28.0927     55.0193
     186.707    0.991242     2.68965    -99999.0     6521.74
     3896.10     2.83334    0.221360
   117.050
    -97.3040     15.9664     744.364     1852.12     3217.38
     5537.17     7699.07     95.9343     62.6193     47.9345
     69.5578     53.6077    0.429601     20.2443     49.5366
    0.129014     1.32739     3.63370     28.3029     55.0388
     186.851    0.983477     2.06276    -99999.0     6538.66
     3896.10     2.85166    0.228871
