#------------------------------------------------------------
~VERSION INFORMATION
VERS.               2.0  :CWLS LOG ASCII STANDARD - VERSION 2.0
WRAP.               YES  :MULTIPLE LINES PER DEPTH STEP
#------------------------------------------------------------
~WELL INFORMATION
STRT.M          113.650  :FIRST INDEX VALUE
STOP.M          133.250  :LAST INDEX VALUE
STEP.M        0.0500000  :STEP
NULL.            -99999  :NULL VALUE
COMP.                    :COMPANY
WELL.                    :WELL
FLD.                     :FLD
LOC.                     :LOCATION
SRVC.                    :
CTRY.                    :COUNTRY
STAT.                    :STATE
CNTY.                    :
DATE.                    :DATE
API.                     :API
#------------------------------------------------------------
~CURVE INFORMATION
DEPT.M                   :DEPTH
SP.MV                    :SP
VSPR.V                   :VSPR
SPR.OHM                  :SPR
N8.OHM.M                 :N8
N16.OHM.M                :N16
N32.OHM.M                :N32
N64.OHM.M                :N64
IPLIN161.MV/V            :IPlin161
IPLIN165.MV/V            :IPlin165
IPLIN1610.MV/V           :IPlin1610
IPLIN645.MV/V            :IPlin645
IPLIN6410.MV/V           :IPlin6410
MAG_SUSC.10E-3_SI_UNITS   :Mag Susc
INDUCTION.MS/M           :Induction
IND_RES.OHM-M            :Ind Res
K.%                      :K
U.PPM                    :U
TH.PPM                   :Th
TILT.DEG                 :Tilt
MAGNFIELD.UT             :MagnField
AZIMUTH.DEG              :Azimuth
GRAVITY.G                :Gravity
GR.API                   :GR
CALIPER.CM               :Caliper
VP.M/S                   :Vp
VS.M/S                   :Vs
RHO-ND.G/CM3             :rho-ND
POISSON_RATIO.           :Poisson ratio
#------------------------------------------------------------
~PARAMETER INFORMATION
API_Well_Number_. Yorbeau (Gamble)  :API Well Number:
Acquisition_dates_from_. 21/06/19  :Acquisition dates from:
Acquisition_dates_to_. 22/06/19  :Acquisition dates to:
BIT_FROM1.               :BIT FROM1
BIT_FROM2.               :BIT FROM2
BIT_FROM3.               :BIT FROM3
BIT_FROM4.               :BIT FROM4
BIT_FROM5.               :BIT FROM5
BIT_FROM6.               :BIT FROM6
BIT_TO1.                 :BIT TO1
BIT_TO2.                 :BIT TO2
BIT_TO3.                 :BIT TO3
BIT_TO4.                 :BIT TO4
BIT_TO5.                 :BIT TO5
BIT_TO6.                 :BIT TO6
BIT1.                    :BIT1
BIT2.                    :BIT2
BIT3.                    :BIT3
BIT4.                    :BIT4
BIT5.                    :BIT5
BIT6.                    :BIT6
BTM_LOGGED_INTERVAL.     :BTM LOGGED INTERVAL
CASING_FROM1.            :CASING FROM1
CASING_FROM2.            :CASING FROM2
CASING_FROM3.            :CASING FROM3
CASING_FROM4.            :CASING FROM4
CASING_FROM5.            :CASING FROM5
CASING_FROM6.            :CASING FROM6
CASING_SIZE1.            :CASING SIZE1
CASING_SIZE2.            :CASING SIZE2
CASING_SIZE3.            :CASING SIZE3
CASING_SIZE4.            :CASING SIZE4
CASING_SIZE5.            :CASING SIZE5
CASING_SIZE6.            :CASING SIZE6
CASING_TO1.              :CASING TO1
CASING_TO2.              :CASING TO2
CASING_TO3.              :CASING TO3
CASING_TO4.              :CASING TO4
CASING_TO5.              :CASING TO5
CASING_TO6.              :CASING TO6
CO.                      :CO
CTY.                     :CTY
Country_.        Canada  :Country:
Customer_.  Metal Earth  :Customer:
D_F_.                    :D.F.
DENSITY.                 :DENSITY
DEPTH-DRILLER.           :DEPTH-DRILLER
DEPTH-LOGGER.            :DEPTH-LOGGER
DRILLING_MEAS__FROM.     :DRILLING MEAS. FROM
Depth_unit_.     meters  :Depth unit:
Drilling_measured_from_.   :Drilling measured from:
ELEVATION.               :ELEVATION
FIELD.                   :FIELD
FILING_No.               :FILING No
File_Name_. 12-GA-584-petrophysics.WCL  :File Name:
G_L_.                    :G.L.
Height_above_drilling_datum_.   :Height above drilling datum:
Height_above_log_datum_.   :Height above log datum:
K_B_.                    :K.B.
LEVEL.                   :LEVEL
LOG_MEAS__FROM.          :LOG MEAS. FROM
Location_Description_.   :Location Description:
Log_interval_is_from_. 0.84 m  :Log interval is from:
Log_interval_to_. 165 m  :Log interval to:
Log_is_measured_from_. TOP OF COLLAR  :Log is measured from:
MAX__REC__TEMP_.         :MAX. REC. TEMP.
OPERATING_RIG_TIME.      :OPERATING RIG TIME
OTHER_SERVICES.          :OTHER SERVICES
Operator_.      FG, JCD  :Operator:
Other_Services_.         :Other Services:
PERMANENT_DATUM.         :PERMANENT DATUM
Permanent_datum_elevation_#1.   :Permanent datum elevation:#1
Permanent_datum_is_#1.   :Permanent datum is:#1
Permanent_datum_is_#2.   :Permanent datum is:#2
Permanent_datum_is_#3.   :Permanent datum is:#3
Permanent_datum_is__.    :Permanent datum is::
Print_type_is_.          :Print type is:
RECORDED_BY.             :RECORDED BY
RGE.                     :RGE
RUN_No.                  :RUN No
RUN1.                    :RUN1
RUN2.                    :RUN2
RUN3.                    :RUN3
RUN4.                    :RUN4
RUN5.                    :RUN5
RUN6.                    :RUN6
SALINITY.                :SALINITY
SEC.                     :SEC
STE.                     :STE
Scale_ratio_.            :Scale ratio:
Scaled_depth_is_.        :Scaled depth is:
Service_Company_. Université Laval  :Service Company:
State_/_Province_. Québec  :State / Province:
TITLE.                   :TITLE
TOP_LOGGED_INTERVAL.     :TOP LOGGED INTERVAL
TWP.                     :TWP
TYPE_FLUID_IN_HOLE.      :TYPE FLUID IN HOLE
TYPE_LOG.                :TYPE LOG
WELL_ID.                 :WELL ID
WGT1.                    :WGT1
WGT2.                    :WGT2
WGT3.                    :WGT3
WGT4.                    :WGT4
WGT5.                    :WGT5
WGT6.                    :WGT6
WITNESSED_BY.            :WITNESSED BY
Well_Name_.   12-GA-584  :Well Name:
#------------------------------------------------------------
~OTHER
#------------------------------------------------------------
~A
# ...
   130.900
     538.680     15.9082     595.827     1114.41     1512.57
     1735.88     1898.79     128.101     60.1103     38.0711
     55.8160     30.5083    0.476018     20.9537     47.8911
    0.314151     4.48021     8.33929     28.5000     55.0430
     186.686     1.00182     9.12274    -99999.0     5515.41
     3076.54     2.61555    0.270297
   130.950
     542.992     15.8991     596.448     1124.77     1546.14
     1833.80     1846.96     126.921     59.7613     38.3493
     58.0143     32.8857    0.453700     20.9058     48.0209
     0.00000     0.00000     0.00000     28.8931     55.0502
     186.893    0.989353     0.00000    -99999.0     5401.83
     3076.54     2.60405    0.262300
   131.000
     552.623     15.8990     596.452     1138.90     1579.63
     1923.15     1811.82     124.961     58.6685     38.8732
     60.7328     33.7335    0.445912     20.8433     47.9551
    0.604034    0.445804     3.16846     28.7473     55.0347
     186.882    0.993385     5.48755    -99999.0     5409.24
     3068.41     2.60452    0.268020
   131.050
     562.499     15.8843     600.258     1156.06     1582.02
     1933.44     1794.34     124.728     58.5841     38.8789
     58.8535     35.3321    0.457074     20.8424     47.7257
     0.00000     0.00000     0.00000     28.6666     55.0567
     186.600    0.997634     3.66324    -99999.0     5509.57
     3001.25     2.63539    0.295163
   131.100
     570.269     15.8627     604.795     1179.44     1626.84
     2019.16     1791.64     120.453     57.0602     38.8865
     59.5022     35.3872    0.442382     20.9184     47.7036
    0.237824    0.236943    0.494150     28.6475     55.0146
     186.648    0.997285     9.78751    -99999.0     5856.62
     2964.56     2.68129    0.321400
   131.150
     573.480     15.8569     609.735     1179.82     1674.05
     2058.67     1783.86     118.038     56.5092     37.1799
     61.7748     35.7186    0.411950     20.9603     47.7564
  0.00928479   0.0360357    0.112223     28.7000     55.0400
     186.600    0.995625    0.272803    -99999.0     5974.18
     3010.29     2.71570    0.331309
   131.200
     572.864     15.8815     614.323     1207.41     1711.96
     2047.58     1789.00     117.158     55.5178     36.3091
     61.0967     37.7126    0.375963     20.9477     47.8824
    0.127249    0.131063    0.858445     28.5579     55.0442
     186.719    0.997986     5.47902    -99999.0     6072.57
     3043.40     2.71093    0.321610
   131.250
     568.584     15.8817     614.353     1229.20     1712.98
     2014.64     1797.36     117.177     55.4916     36.2891
     58.6860     41.3489    0.390278     20.9035     47.7894
     0.00000     0.00000     0.00000     28.6931     55.0410
     186.707    0.995533     6.15235    -99999.0     5769.23
     3098.25     2.67986    0.302689
   131.300
     565.388     15.9138     617.479     1237.11     1730.65
     2010.14     1807.98     117.482     55.0170     35.9031
     63.1216     37.1144    0.398059     20.9105     47.9506
    0.134726    0.672719     1.87000     28.6123     55.0325
     186.600    0.999303     2.75298    -99999.0     5769.23
     3109.85     2.66900    0.294572
   131.350
     565.680     15.9239     615.806     1236.93     1718.91
     1971.57     1815.24     116.889     54.9254     35.3774
     62.7188     37.6336    0.390701     20.8797     48.2143
     0.00000     0.00000     0.00000     28.6844     55.0116
     186.628    0.996899     1.10375    -99999.0     5744.26
     3128.33     2.65472    0.283969
   131.400
     568.145     15.9294     606.767     1222.89     1667.65
     1942.98     1851.41     120.071     55.7715     35.5965
     60.5152     39.7740    0.395355     20.7799     48.3286
    0.812217     4.86145     6.31088     28.7440     55.0700
     186.712    0.995077     11.1663    -99999.0     5555.56
     3128.33     2.63432    0.271397
   131.450
     570.172     15.9294     606.709     1185.78     1603.44
     1923.70     1895.27     125.558     57.8036     36.9708
     57.5195     39.8258    0.418380     20.7078     48.3325
    0.761591     2.39134     1.03786     28.8000     55.0717
     186.800    0.993228     7.80679    -99999.0     5580.46
     3128.33     2.64248    0.276200
   131.500
     571.420     15.9287     592.646     1129.83     1600.27
     1921.36     1906.21     125.758     57.8737     37.0345
     57.1751     35.3050    0.471685     20.6902     48.5932
    0.764230     3.96124     4.19058     28.7510     55.0473
     186.776    0.994657     7.93230    -99999.0     5756.54
     3134.58     2.65546    0.280220
   131.550
     572.880     15.9150     579.523     1076.46     1540.74
     1900.78     1894.87     129.440     59.2113     38.2177
     57.3786     36.3272    0.502713     20.6177     48.7270
   0.0967508   0.0963074    0.785955     28.4263     55.0574
     186.791     1.00433     4.06638    -99999.0     5686.32
     3184.46     2.66645    0.279490
   131.600
     576.885     15.9079     570.662     1076.01     1486.92
     1878.94     1843.63     131.667     60.7879     39.1240
     58.5596     39.9565    0.512824     20.5412     48.8126
    0.473993    0.193503     1.63220     28.7071     55.0493
     186.800    0.993550     2.10580    -99999.0     5856.41
     3213.10     2.66990    0.271189
   131.650
     585.302     15.9050     569.933     1043.19     1444.97
     1843.11     1781.66     133.925     61.0458     40.0738
     60.2174     40.6719    0.520266     20.4986     48.8508
     0.00000     0.00000     0.00000     28.7000     55.0546
     186.800    0.995694     3.99257    -99999.0     5686.32
     3285.82     2.66990    0.260798
   131.700
     591.836     15.9049     569.929     1033.48     1443.46
     1812.61     1729.33     133.987     61.0936     40.0859
     60.1290     40.0802    0.525298     20.4758     48.8746
     0.00000     0.00000     0.00000     28.7227     55.0516
     186.539    0.994913     4.58552    -99999.0     5882.35
     3306.46     2.68530    0.265710
   131.750
     593.264     15.9087     575.639     1040.19     1415.98
     1810.46     1712.96     135.037     61.8960     40.2701
     60.9514     40.7891    0.520035     20.4639     48.8750
    0.102489   0.0835764    0.217177     28.6456     55.0454
     186.654    0.997698     4.58049    -99999.0     5869.16
     3313.96     2.68392    0.259230
   131.800
     592.680     15.9131     580.290     1040.39     1407.01
     1792.39     1644.92     133.738     60.8878     39.7173
     63.9384     43.3996    0.505800     20.4603     48.8848
    0.605013     2.74339     8.69389     28.6595     55.0600
     186.730    0.996082     6.16947    -99999.0     5769.23
     3357.94     2.67245    0.253671
   131.850
     592.372     15.9168     584.317     1054.93     1410.25
     1778.97     1587.50     130.613     58.7195     39.8285
     65.4556     44.8481    0.507041     20.4577     48.6476
     0.00000     0.00000     0.00000     28.6279     55.0586
     186.628    0.999183     5.89283    -99999.0     5796.20
     3265.06     2.68566    0.268083
   131.900
     592.696     15.9169     584.343     1072.62     1428.93
     1751.39     1547.07     128.630     57.9673     38.3367
     67.5681     46.3596    0.504279     20.5212     48.4017
   0.0928744     3.41148     7.87329     28.7963     55.0305
     186.800    0.995681     7.20361    -99999.0     5986.25
     3296.70     2.70085    0.276529
   131.950
     594.204     15.9210     586.322     1084.55     1430.55
     1745.35     1528.69     128.542     57.9436     38.3361
     68.2791     45.7185    0.484662     20.6249     48.2723
     0.00000     0.00000     0.00000     28.7824     55.0035
     186.935    0.993314     5.41355    -99999.0     5882.35
     3296.70     2.69562    0.272920
   132.000
     595.080     15.9312     588.301     1094.39     1461.07
     1693.65     1522.97     126.768     57.4224     38.3217
     68.0253     46.4595    0.469179     20.6974     48.0256
     0.00000     0.00000     0.00000     28.6334     55.0533
     186.567    0.998166     7.19978    -99999.0     5896.07
     3288.44     2.70058    0.280030
