#------------------------------------------------------------
~VERSION INFORMATION
VERS.               2.0  :CWLS LOG ASCII STANDARD - VERSION 2.0
WRAP.               YES  :MULTIPLE LINES PER DEPTH STEP
#------------------------------------------------------------
~WELL INFORMATION
STRT.M          113.650  :FIRST INDEX VALUE
STOP.M          133.250  :LAST INDEX VALUE
STEP.M        0.0500000  :STEP
NULL.            -99999  :NULL VALUE
COMP.                    :COMPANY
WELL.                    :WELL
FLD.                     :FLD
LOC.                     :LOCATION
SRVC.                    :
CTRY.                    :COUNTRY
STAT.                    :STATE
CNTY.                    :
DATE.                    :DATE
API.                     :API
#------------------------------------------------------------
~CURVE INFORMATION
DEPT.M                   :DEPTH
SP.MV                    :SP
VSPR.V                   :VSPR
SPR.OHM                  :SPR
N8.OHM.M                 :N8
N16.OHM.M                :N16
N32.OHM.M                :N32
N64.OHM.M                :N64
IPLIN161.MV/V            :IPlin161
IPLIN165.MV/V            :IPlin165
IPLIN1610.MV/V           :IPlin1610
IPLIN645.MV/V            :IPlin645
IPLIN6410.MV/V           :IPlin6410
MAG_SUSC.10E-3_SI_UNITS   :Mag Susc
INDUCTION.MS/M           :Induction
IND_RES.OHM-M            :Ind Res
K.%                      :K
U.PPM                    :U
TH.PPM                   :Th
TILT.DEG                 :Tilt
MAGNFIELD.UT             :MagnField
AZIMUTH.DEG              :Azimuth
GRAVITY.G                :Gravity
GR.API                   :GR
CALIPER.CM               :Caliper
VP.M/S                   :Vp
VS.M/S                   :Vs
RHO-ND.G/CM3             :rho-ND
POISSON_RATIO.           :Poisson ratio
#------------------------------------------------------------
~PARAMETER INFORMATION
API_Well_Number_. Yorbeau (Gamble)  :API Well Number:
Acquisition_dates_from_. 21/06/19  :Acquisition dates from:
Acquisition_dates_to_. 22/06/19  :Acquisition dates to:
BIT_FROM1.               :BIT FROM1
BIT_FROM2.               :BIT FROM2
BIT_FROM3.               :BIT FROM3
BIT_FROM4.               :BIT FROM4
BIT_FROM5.               :BIT FROM5
BIT_FROM6.               :BIT FROM6
BIT_TO1.                 :BIT TO1
BIT_TO2.                 :BIT TO2
BIT_TO3.                 :BIT TO3
BIT_TO4.                 :BIT TO4
BIT_TO5.                 :BIT TO5
BIT_TO6.                 :BIT TO6
BIT1.                    :BIT1
BIT2.                    :BIT2
BIT3.                    :BIT3
BIT4.                    :BIT4
BIT5.                    :BIT5
BIT6.                    :BIT6
BTM_LOGGED_INTERVAL.     :BTM LOGGED INTERVAL
CASING_FROM1.            :CASING FROM1
CASING_FROM2.            :CASING FROM2
CASING_FROM3.            :CASING FROM3
CASING_FROM4.            :CASING FROM4
CASING_FROM5.            :CASING FROM5
CASING_FROM6.            :CASING FROM6
CASING_SIZE1.            :CASING SIZE1
CASING_SIZE2.            :CASING SIZE2
CASING_SIZE3.            :CASING SIZE3
CASING_SIZE4.            :CASING SIZE4
CASING_SIZE5.            :CASING SIZE5
CASING_SIZE6.            :CASING SIZE6
CASING_TO1.              :CASING TO1
CASING_TO2.              :CASING TO2
CASING_TO3.              :CASING TO3
CASING_TO4.              :CASING TO4
CASING_TO5.              :CASING TO5
CASING_TO6.              :CASING TO6
CO.                      :CO
CTY.                     :CTY
Country_.        Canada  :Country:
Customer_.  Metal Earth  :Customer:
D_F_.                    :D.F.
DENSITY.                 :DENSITY
DEPTH-DRILLER.           :DEPTH-DRILLER
DEPTH-LOGGER.            :DEPTH-LOGGER
DRILLING_MEAS__FROM.     :DRILLING MEAS. FROM
Depth_unit_.     meters  :Depth unit:
Drilling_measured_from_.   :Drilling measured from:
ELEVATION.               :ELEVATION
FIELD.                   :FIELD
FILING_No.               :FILING No
File_Name_. 12-GA-584-petrophysics.WCL  :File Name:
G_L_.                    :G.L.
Height_above_drilling_datum_.   :Height above drilling datum:
Height_above_log_datum_.   :Height above log datum:
K_B_.                    :K.B.
LEVEL.                   :LEVEL
LOG_MEAS__FROM.          :LOG MEAS. FROM
Location_Description_.   :Location Description:
Log_interval_is_from_. 0.84 m  :Log interval is from:
Log_interval_to_. 165 m  :Log interval to:
Log_is_measured_from_. TOP OF COLLAR  :Log is measured from:
MAX__REC__TEMP_.         :MAX. REC. TEMP.
OPERATING_RIG_TIME.      :OPERATING RIG TIME
OTHER_SERVICES.          :OTHER SERVICES
Operator_.      FG, JCD  :Operator:
Other_Services_.         :Other Services:
PERMANENT_DATUM.         :PERMANENT DATUM
Permanent_datum_elevation_#1.   :Permanent datum elevation:#1
Permanent_datum_is_#1.   :Permanent datum is:#1
Permanent_datum_is_#2.   :Permanent datum is:#2
Permanent_datum_is_#3.   :Permanent datum is:#3
Permanent_datum_is__.    :Permanent datum is::
Print_type_is_.          :Print type is:
RECORDED_BY.             :RECORDED BY
RGE.                     :RGE
RUN_No.                  :RUN No
RUN1.                    :RUN1
RUN2.                    :RUN2
RUN3.                    :RUN3
RUN4.                    :RUN4
RUN5.                    :RUN5
RUN6.                    :RUN6
SALINITY.                :SALINITY
SEC.                     :SEC
STE.                     :STE
Scale_ratio_.            :Scale ratio:
Scaled_depth_is_.        :Scaled depth is:
Service_Company_. Université Laval  :Service Company:
State_/_Province_. Québec  :State / Province:
TITLE.                   :TITLE
TOP_LOGGED_INTERVAL.     :TOP LOGGED INTERVAL
TWP.                     :TWP
TYPE_FLUID_IN_HOLE.      :TYPE FLUID IN HOLE
TYPE_LOG.                :TYPE LOG
WELL_ID.                 :WELL ID
WGT1.                    :WGT1
WGT2.                    :WGT2
WGT3.                    :WGT3
WGT4.                    :WGT4
WGT5.                    :WGT5
WGT6.                    :WGT6
WITNESSED_BY.            :WITNESSED BY
Well_Name_.   12-GA-584  :Well Name:
#------------------------------------------------------------
~OTHER
#------------------------------------------------------------
~A
# ...
   114.800
     74.8800     15.9697     739.179     1793.45     3000.61
     4787.49     5321.10     94.1774     60.3545     45.0780
     68.4369     50.9891    0.348093     20.4494     49.0714
    0.648886     1.69765     3.58814     27.5064     55.0208
     186.600     1.00288     10.1599    -99999.0     5770.89
     3570.33     2.66730    0.194810
   114.850
     71.7999     15.9694     739.996     1793.53     3018.31
     4849.59     5477.47     93.7924     60.3801     45.3078
     68.7459     50.9245    0.316607     20.4169     49.2286
    0.663500    0.759590     1.27961     27.7000     55.0531
     186.765    0.996752     8.23306    -99999.0     5810.78
     3549.42     2.69453    0.210793
   114.900
     64.5672     15.9696     741.947     1799.30     3031.90
     4906.84     5625.76     94.2341     60.7791     45.4821
     68.3279     51.7699    0.268576     20.3351     49.2256
    0.451274     3.44102     5.30206     27.7000     55.0333
     186.700    0.996802     8.31251    -99999.0     6122.10
     3573.52     2.73694    0.237401
   114.950
     55.8592     15.9696     741.960     1802.04     3032.73
     4913.42     5731.50     94.2547     60.7943     45.4945
     68.1511     51.9396    0.334389     20.3137     49.1670
   0.0980272     2.26813     5.58783     27.7490     55.0202
     186.702    0.995790     10.6661    -99999.0     6184.58
     3580.03     2.75050    0.241088
   115.000
     51.4800     15.9695     742.274     1807.75     3048.52
     4969.78     5760.16     94.6111     61.0716     45.7260
     68.2880     51.9687    0.394724     20.3304     48.9726
  0.00489262   0.0561806   0.0758973     27.8353     55.0300
     186.700    0.993508     5.60862    -99999.0     6103.34
     3634.37     2.73790    0.223449
   115.050
     46.2438     15.9691     741.837     1807.82     3068.79
     5013.38     5881.37     94.4310     61.2093     45.9461
     68.4934     52.3273    0.389053     20.3917     49.1705
    0.873015     3.44832     1.91018     27.8611     55.0100
     186.761    0.993312     5.83773    -99999.0     6033.21
     3679.27     2.72641    0.203610
   115.100
     36.0438     15.9689     741.837     1812.47     3084.87
     5055.28     5992.81     94.4951     61.2781     46.0086
     67.8476     53.0658    0.362829     20.3668     49.4641
    0.196351    0.440503     4.43670     27.7000     55.0493
     186.696    0.995996     8.13422    -99999.0     6066.74
     3731.38     2.74669    0.207383
   115.150
     29.2317     15.9689     741.837     1816.72     3085.56
     5060.11     6066.63     94.5190     61.2855     46.0272
     68.3615     52.6544    0.395453     20.2580     49.5891
   0.0473448     1.50296     2.38349     27.7879     55.0524
     186.712    0.996536     7.74567    -99999.0     6330.68
     3727.91     2.78674    0.232122
   115.200
     27.4800     15.9692     741.504     1823.20     3098.46
     5101.23     6086.10     94.9394     61.4220     46.3693
     68.2886     52.6995    0.445992     20.1824     49.5089
     0.00000     0.00000     0.00000     27.8000     55.0344
     186.656    0.995577     3.41225    -99999.0     6407.68
     3701.65     2.80705    0.247020
   115.250
     24.7083     15.9690     741.977     1823.27     3112.04
     5130.68     6170.98     94.8323     61.4947     46.5806
     68.1629     52.9417    0.440285     20.1866     49.4831
    0.235706   0.0800509     1.02344     27.9000     55.0325
     186.744    0.992662     2.56033    -99999.0     6397.52
     3708.64     2.80285    0.241270
   115.300
     18.6919     15.9689     743.314     1828.44     3123.46
     5161.04     6260.62     94.4405     61.5189     46.5910
     68.4469     53.1949    0.459193     20.2055     49.3762
     1.88902     3.69691     5.52256     27.8000     55.0281
     186.700    0.996817     13.2279    -99999.0     6320.50
     3761.59     2.79228    0.229370
   115.350
     13.3239     15.9689     743.323     1829.82     3123.98
     5182.99     6328.87     94.4587     61.5181     46.6020
     68.1569     53.0098    0.478148     20.2375     49.3444
    0.315942     1.25059     5.87653     27.7247     55.0149
     186.651    0.997479     6.80798    -99999.0     6341.14
     3761.59     2.80429    0.233502
   115.400
     6.04305     15.9692     744.066     1833.82     3133.57
     5186.14     6348.08     94.7579     61.5054     46.7975
     68.1677     53.1409    0.458833     20.2616     49.3588
    0.572977     4.03368     13.1322     27.8822     55.0573
     186.609    0.994246     14.5060    -99999.0     6476.66
     3763.38     2.81080    0.235609
   115.450
     1.08000     15.9693     744.292     1833.86     3137.99
     5214.44     6429.11     94.3573     61.5417     46.8255
     68.2344     53.4437    0.401665     20.2620     49.3316
   0.0264830    0.533092     2.86328     27.8000     55.0600
     186.421    0.994872     6.79945    -99999.0     6320.50
     3775.10     2.79561    0.227328
   115.500
    -1.38372     15.9695     745.330     1837.05     3139.93
     5244.31     6505.13     94.9633     61.6341     47.1064
     68.2851     53.2381    0.379242     20.2670     49.7340
   0.0538031     2.51099     4.47291     27.7226     55.0300
     186.623    0.997315     8.25389    -99999.0     6343.96
     3761.59     2.80639    0.234010
   115.550
    -5.26006     15.9695     745.337     1836.33     3144.36
     5254.41     6577.78     95.0933     61.7585     47.2882
     68.0391     53.9488    0.428522     20.1643     49.4598
    0.449849     3.81985     4.89895     27.8616     55.0192
     186.862    0.995653     6.37502    -99999.0     6538.66
     3761.59     2.84425    0.252511
   115.600
    -11.3402     15.9695     745.976     1837.19     3144.62
     5255.24     6632.07     95.0772     61.7633     47.2908
     67.7863     53.9945    0.442410     20.1781     49.0893
   0.0807177    0.410247    0.468173     27.8000     55.0446
     186.654    0.996246     11.4937    -99999.0     6666.67
     3771.46     2.87039    0.258528
   115.650
    -15.7200     15.9693     745.402     1836.99     3149.63
     5264.23     6646.57     94.8349     61.8522     47.3501
     67.8589     53.9686    0.421385     20.3189     49.2271
  0.00122777   0.0159864    0.121838     27.7700     55.0240
     186.670    0.996751    0.263692    -99999.0     6666.67
     3846.15     2.87600    0.252969
   115.700
    -17.8764     15.9691     744.647     1837.02     3155.61
     5285.62     6708.83     95.6199     61.9398     47.5890
     68.0799     53.9918    0.422622     20.3352     49.2288
     0.00000     0.00000     0.00000     27.8000     55.0243
     186.628    0.995128    0.965517    -99999.0     6646.90
     3846.15     2.86074    0.243458
   115.750
    -20.5359     15.9690     743.974     1839.15     3160.24
     5302.20     6772.46     95.4736     61.9999     47.6169
     68.1100     54.2126    0.447914     20.3130     49.2669
    0.169135     1.39920     1.81920     27.8984     55.0498
     186.805    0.993662     6.93853    -99999.0     6497.30
     3846.15     2.83894    0.233330
   115.800
    -25.1242     15.9690     743.970     1844.27     3160.32
     5303.79     6823.44     95.4534     61.9959     47.6191
     68.3952     53.7716    0.440631     20.3031     49.4867
    0.169135     1.39920     1.81920     27.8652     55.0483
     186.700    0.996244     6.12217    -99999.0     6513.55
     3846.15     2.84486    0.236181
   115.850
    -28.9200     15.9690     744.448     1843.21     3161.88
     5318.06     6837.66     95.1069     61.9334     47.6643
     68.3300     53.8958    0.442913     20.2388     49.5227
    0.214739    0.949634     1.74647     27.8668     55.0299
     186.801    0.995560     5.30593    -99999.0     6623.13
     3846.15     2.85237    0.239819
   115.900
    -32.9247     15.9688     745.776     1843.18     3163.90
     5334.12     6899.72     95.3314     62.0537     47.7710
     68.2363     54.2994    0.442380     20.1971     49.1215
     0.00000     0.00000     0.00000     27.8000     55.0206
     186.651    0.996526     8.52229    -99999.0     6505.54
     3851.98     2.83090    0.224828
