#------------------------------------------------------------
~VERSION INFORMATION
VERS.               2.0  :CWLS LOG ASCII STANDARD - VERSION 2.0
WRAP.               YES  :MULTIPLE LINES PER DEPTH STEP
#------------------------------------------------------------
~WELL INFORMATION
STRT.M          113.650  :FIRST INDEX VALUE
STOP.M          133.250  :LAST INDEX VALUE
STEP.M        0.0500000  :STEP
NULL.            -99999  :NULL VALUE
COMP.                    :COMPANY
WELL.                    :WELL
FLD.                     :FLD
LOC.                     :LOCATION
SRVC.                    :
CTRY.                    :COUNTRY
STAT.                    :STATE
CNTY.                    :
DATE.                    :DATE
API.                     :API
#------------------------------------------------------------
~CURVE INFORMATION
DEPT.M                   :DEPTH
SP.MV                    :SP
VSPR.V                   :VSPR
SPR.OHM                  :SPR
N8.OHM.M                 :N8
N16.OHM.M                :N16
N32.OHM.M                :N32
N64.OHM.M                :N64
IPLIN161.MV/V            :IPlin161
IPLIN165.MV/V            :IPlin165
IPLIN1610.MV/V           :IPlin1610
IPLIN645.MV/V            :IPlin645
IPLIN6410.MV/V           :IPlin6410
MAG_SUSC.10E-3_SI_UNITS   :Mag Susc
INDUCTION.MS/M           :Induction
IND_RES.OHM-M            :Ind Res
K.%                      :K
U.PPM                    :U
TH.PPM                   :Th
TILT.DEG                 :Tilt
MAGNFIELD.UT             :MagnField
AZIMUTH.DEG              :Azimuth
GRAVITY.G                :Gravity
GR.API                   :GR
CALIPER.CM               :Caliper
VP.M/S                   :Vp
VS.M/S                   :Vs
RHO-ND.G/CM3             :rho-ND
POISSON_RATIO.           :Poisson ratio
#------------------------------------------------------------
~PARAMETER INFORMATION
API_Well_Number_. Yorbeau (Gamble)  :API Well Number:
Acquisition_dates_from_. 21/06/19  :Acquisition dates from:
Acquisition_dates_to_. 22/06/19  :Acquisition dates to:
BIT_FROM1.               :BIT FROM1
BIT_FROM2.               :BIT FROM2
BIT_FROM3.               :BIT FROM3
BIT_FROM4.               :BIT FROM4
BIT_FROM5.               :BIT FROM5
BIT_FROM6.               :BIT FROM6
BIT_TO1.                 :BIT TO1
BIT_TO2.                 :BIT TO2
BIT_TO3.                 :BIT TO3
BIT_TO4.                 :BIT TO4
BIT_TO5.                 :BIT TO5
BIT_TO6.                 :BIT TO6
BIT1.                    :BIT1
BIT2.                    :BIT2
BIT3.                    :BIT3
BIT4.                    :BIT4
BIT5.                    :BIT5
BIT6.                    :BIT6
BTM_LOGGED_INTERVAL.     :BTM LOGGED INTERVAL
CASING_FROM1.            :CASING FROM1
CASING_FROM2.            :CASING FROM2
CASING_FROM3.            :CASING FROM3
CASING_FROM4.            :CASING FROM4
CASING_FROM5.            :CASING FROM5
CASING_FROM6.            :CASING FROM6
CASING_SIZE1.            :CASING SIZE1
CASING_SIZE2.            :CASING SIZE2
CASING_SIZE3.            :CASING SIZE3
CASING_SIZE4.            :CASING SIZE4
CASING_SIZE5.            :CASING SIZE5
CASING_SIZE6.            :CASING SIZE6
CASING_TO1.              :CASING TO1
CASING_TO2.              :CASING TO2
CASING_TO3.              :CASING TO3
CASING_TO4.              :CASING TO4
CASING_TO5.              :CASING TO5
CASING_TO6.              :CASING TO6
CO.                      :CO
CTY.                     :CTY
Country_.        Canada  :Country:
Customer_.  Metal Earth  :Customer:
D_F_.                    :D.F.
DENSITY.                 :DENSITY
DEPTH-DRILLER.           :DEPTH-DRILLER
DEPTH-LOGGER.            :DEPTH-LOGGER
DRILLING_MEAS__FROM.     :DRILLING MEAS. FROM
Depth_unit_.     meters  :Depth unit:
Drilling_measured_from_.   :Drilling measured from:
ELEVATION.               :ELEVATION
FIELD.                   :FIELD
FILING_No.               :FILING No
File_Name_. 12-GA-584-petrophysics.WCL  :File Name:
G_L_.                    :G.L.
Height_above_drilling_datum_.   :Height above drilling datum:
Height_above_log_datum_.   :Height above log datum:
K_B_.                    :K.B.
LEVEL.                   :LEVEL
LOG_MEAS__FROM.          :LOG MEAS. FROM
Location_Description_.   :Location Description:
Log_interval_is_from_. 0.84 m  :Log interval is from:
Log_interval_to_. 165 m  :Log interval to:
Log_is_measured_from_. TOP OF COLLAR  :Log is measured from:
MAX__REC__TEMP_.         :MAX. REC. TEMP.
OPERATING_RIG_TIME.      :OPERATING RIG TIME
OTHER_SERVICES.          :OTHER SERVICES
Operator_.      FG, JCD  :Operator:
Other_Services_.         :Other Services:
PERMANENT_DATUM.         :PERMANENT DATUM
Permanent_datum_elevation_#1.   :Permanent datum elevation:#1
Permanent_datum_is_#1.   :Permanent datum is:#1
Permanent_datum_is_#2.   :Permanent datum is:#2
Permanent_datum_is_#3.   :Permanent datum is:#3
Permanent_datum_is__.    :Permanent datum is::
Print_type_is_.          :Print type is:
RECORDED_BY.             :RECORDED BY
RGE.                     :RGE
RUN_No.                  :RUN No
RUN1.                    :RUN1
RUN2.                    :RUN2
RUN3.                    :RUN3
RUN4.                    :RUN4
RUN5.                    :RUN5
RUN6.                    :RUN6
SALINITY.                :SALINITY
SEC.                     :SEC
STE.                     :STE
Scale_ratio_.            :Scale ratio:
Scaled_depth_is_.        :Scaled depth is:
Service_Company_. Université Laval  :Service Company:
State_/_Province_. Québec  :State / Province:
TITLE.                   :TITLE
TOP_LOGGED_INTERVAL.     :TOP LOGGED INTERVAL
TWP.                     :TWP
TYPE_FLUID_IN_HOLE.      :TYPE FLUID IN HOLE
TYPE_LOG.                :TYPE LOG
WELL_ID.                 :WELL ID
WGT1.                    :WGT1
WGT2.                    :WGT2
WGT3.                    :WGT3
WGT4.                    :WGT4
WGT5.                    :WGT5
WGT6.                    :WGT6
WITNESSED_BY.            :WITNESSED BY
Well_Name_.   12-GA-584  :Well Name:
#------------------------------------------------------------
~OTHER
#------------------------------------------------------------
~A
   113.650
     291.707     15.9624     712.094     1669.62     2718.96
     4002.96     4081.94     90.8209     55.1045     39.0515
     66.4862     49.4663    0.271120     20.0315     50.0559
   0.0655740     6.74961     14.3946     27.7000     55.0562
     186.662    0.996146     12.9743    -99999.0     5497.62
     3283.09     2.60714    0.211248
   113.700
     289.080     15.9614     710.412     1648.15     2671.42
     3973.45     4093.78     91.4003     55.3469     39.6297
     66.3945     49.7185    0.295900     19.9941     50.0810
    0.492198     4.50538     7.58011     27.7084     55.0246
     186.692    0.995384     11.0473    -99999.0     5249.23
     3283.09     2.58195    0.186077
   113.750
     287.848     15.9606     709.625     1647.74     2624.99
     3951.54     4144.90     92.0500     56.1994     40.2442
     66.2728     50.5927    0.374816     19.9707     50.0935
     0.00000     0.00000     0.00000     27.7000     54.9940
     186.690    0.996230     9.66577    -99999.0     5274.43
     3283.09     2.58762    0.192351
   113.800
     285.448     15.9691     708.729     1617.42     2591.38
     3933.66     4195.11     92.4831     56.5755     40.8444
     66.5230     50.9205    0.454255     19.9643     50.1274
    0.251569     2.25902     6.43099     27.7000     55.0185
     186.514    0.996543     21.1805    -99999.0     5472.97
     3288.58     2.61035    0.211081
   113.850
     277.504     15.9691     708.723     1595.98     2589.89
     3915.42     4227.87     92.4627     56.5998     40.8651
     65.4144     51.4922    0.468380     19.9538     50.2958
    0.931632     1.96647     2.36487     27.6985     55.0297
     186.503    0.994976     16.6126    -99999.0     5530.44
     3330.16     2.62183    0.215898
   113.900
     271.080     15.9703     709.720     1596.02     2562.50
     3914.62     4237.43     92.1127     57.0403     41.2486
     65.4643     51.7604    0.412195     19.9056     50.1424
    0.740617     1.90085     2.23035     27.8480     55.0365
     186.783    0.991413     16.6492    -99999.0     5522.85
     3330.16     2.61947    0.211820
   113.950
     260.298     15.9634     712.652     1596.25     2547.69
     3908.51     4277.78     92.3783     57.2071     41.5737
     65.8641     52.4451    0.343591     19.9214     49.8529
    0.591318     2.36590     1.34329     27.7332     55.0401
     186.600    0.996138     15.5631    -99999.0     5465.38
     3332.96     2.61357    0.203969
   114.000
     239.609     15.9645     716.666     1613.43     2564.44
     3908.89     4316.54     93.1605     57.6494     42.1075
     66.2922     52.2952    0.350864     20.0192     49.8070
     2.10619     1.87754     10.0474     27.6511     55.0147
     186.849    0.997743     10.4947    -99999.0     5465.38
     3364.34     2.61180    0.189679
   114.050
     219.208     15.9645     716.691     1637.22     2605.84
     3905.25     4358.33     92.6914     57.6428     42.1339
     65.4368     53.7504    0.401369     20.0721     49.8240
   0.0649755     1.97804     4.90496     27.7295     55.0429
     186.535    0.996340     8.30001    -99999.0     5465.38
     3435.30     2.61180    0.180920
   114.100
     200.656     15.9655     720.315     1658.46     2608.69
     3907.86     4394.65     92.6797     57.6411     42.1378
     66.3655     53.2238    0.431595     20.0732     49.5700
    0.567947     1.94529     5.61584     27.7805     55.0500
     186.559    0.995505     11.6271    -99999.0     5465.38
     3381.07     2.61180    0.193232
   114.150
     192.480     15.9662     723.296     1674.26     2662.13
     3934.88     4404.57     92.4775     57.6221     42.2316
     66.6545     52.9403    0.434356     20.1376     49.3683
   0.0146474     1.12392     2.18382     27.5148     55.0311
     186.511     1.00143     9.97973    -99999.0     5501.04
     3312.03     2.63196    0.219431
   114.200
     183.238     15.9666     725.610     1674.50     2711.62
     3996.72     4446.53     92.5713     57.8394     42.6801
     67.5211     52.2889    0.429952     20.2281     49.2230
    0.270507     1.45590     3.99664     27.6363     55.0248
     186.612    0.998153     9.67785    -99999.0     5788.06
     3365.85     2.67120    0.238741
   114.250
     165.857     15.9669     726.987     1692.68     2754.64
     4076.50     4488.29     92.5389     58.0668     42.8547
     67.6235     52.8789    0.450343     20.2956     49.1589
    0.216650     1.40493    0.854222     27.7000     55.0544
     186.700    0.996682     16.9511    -99999.0     5917.92
     3449.51     2.69480    0.245120
   114.300
     152.136     15.9669     726.995     1710.08     2757.01
     4089.35     4524.24     92.5139     58.0746     42.8732
     68.8459     51.8083    0.483001     20.3335     49.2175
    0.542137     7.83905     14.7809     27.6437     55.0244
     186.669    0.997057     14.1867    -99999.0     5917.92
     3415.86     2.69930    0.248910
   114.350
     146.880     15.9674     729.275     1721.17     2801.19
     4201.35     4536.38     92.1082     58.2371     43.2175
     68.9254     51.7130    0.492240     20.3267     49.2106
    0.522814     1.11745     2.62724     27.7189     55.0278
     186.559    0.996787     8.66239    -99999.0     5909.23
     3405.86     2.69391    0.253420
   114.400
     141.335     15.9677     731.266     1721.37     2841.51
     4302.52     4589.87     92.7460     58.6542     43.5341
     69.2940     51.5274    0.465354     20.3196     49.1741
    0.259892     6.21814     14.6027     27.8753     55.0400
     186.651    0.993618     11.1168    -99999.0     5818.68
     3315.41     2.67165    0.258510
   114.450
     128.995     15.9682     731.884     1735.58     2872.63
     4397.53     4650.69     92.4455     58.7051     43.8049
     69.7197     51.6087    0.441307     20.3307     49.1650
    0.422471     3.68308     10.2477     27.7000     55.0300
     186.673    0.997048     10.4268    -99999.0     5647.32
     3211.74     2.65799    0.261360
   114.500
     117.353     15.9682     731.888     1748.60     2874.10
     4486.59     4703.77     92.4914     58.7279     43.8304
     69.9589     50.5033    0.409589     20.3385     49.2575
     1.06319     3.39916    0.225392     27.7863     55.0493
     186.700    0.995219     9.96363    -99999.0     5801.48
     3285.45     2.68436    0.264910
   114.550
     112.680     15.9689     733.844     1757.19     2901.64
     4495.99     4725.42     93.3274     59.1582     44.2936
     69.7975     50.6379    0.375079     20.3148     49.5088
    0.438785    0.756276     3.64943     27.7000     55.0245
     186.577    0.996077     5.58001    -99999.0     6019.75
     3393.84     2.70710    0.261649
   114.600
     108.676     15.9694     735.875     1757.34     2928.67
     4577.47     4827.70     93.6536     59.5932     44.4898
     69.2978     51.2119    0.371186     20.2340     49.6931
    0.395134     5.28722     8.31777     27.7000     55.0054
     186.800    0.995983     16.6775    -99999.0     5872.70
     3418.81     2.67645    0.229947
   114.650
     99.3350     15.9693     736.968     1768.09     2954.62
     4648.05     4971.31     93.2715     59.5922     44.8531
     69.3334     51.2896    0.359129     20.1487     49.5510
     1.15336    0.730160     3.55914     27.8000     55.0408
     186.708    0.994858     7.26168    -99999.0     5542.18
     3441.16     2.64145    0.200260
   114.700
     87.9189     15.9693     736.975     1775.79     2977.89
     4713.37     5106.13     93.8092     59.9907     44.9915
     69.1237     50.1231    0.351423     20.1604     49.0774
     1.24849     1.28525     2.70032     27.7600     55.0170
     186.660    0.997009     8.16881    -99999.0     5639.06
     3442.66     2.64410    0.202033
   114.750
     78.3844     15.9694     738.429     1782.50     2979.05
     4720.97     5147.71     93.8300     60.0101     44.9954
     68.9335     50.3471    0.348787     20.3086     48.8138
  0.00699746  0.00594049    0.446481     27.8716     55.0243
     186.672    0.993524     6.36524    -99999.0     5708.34
     3467.89     2.65835    0.201420
