#------------------------------------------------------------
~VERSION INFORMATION
VERS.               2.0  :CWLS LOG ASCII STANDARD - VERSION 2.0
WRAP.               YES  :MULTIPLE LINES PER DEPTH STEP
#------------------------------------------------------------
~WELL INFORMATION
STRT.M          113.650  :FIRST INDEX VALUE
STOP.M          133.250  :LAST INDEX VALUE
STEP.M        0.0500000  :STEP
NULL.            -99999  :NULL VALUE
COMP.                    :COMPANY
WELL.                    :WELL
FLD.                     :FLD
LOC.                     :LOCATION
SRVC.                    :
CTRY.                    :COUNTRY
STAT.                    :STATE
CNTY.                    :
DATE.                    :DATE
API.                     :API
#------------------------------------------------------------
~CURVE INFORMATION
DEPT.M                   :DEPTH
SP.MV                    :SP
VSPR.V                   :VSPR
SPR.OHM                  :SPR
N8.OHM.M                 :N8
N16.OHM.M                :N16
N32.OHM.M                :N32
N64.OHM.M                :N64
IPLIN161.MV/V            :IPlin161
IPLIN165.MV/V            :IPlin165
IPLIN1610.MV/V           :IPlin1610
IPLIN645.MV/V            :IPlin645
IPLIN6410.MV/V           :IPlin6410
MAG_SUSC.10E-3_SI_UNITS   :Mag Susc
INDUCTION.MS/M           :Induction
IND_RES.OHM-M            :Ind Res
K.%                      :K
U.PPM                    :U
TH.PPM                   :Th
TILT.DEG                 :Tilt
MAGNFIELD.UT             :MagnField
AZIMUTH.DEG              :Azimuth
GRAVITY.G                :Gravity
GR.API                   :GR
CALIPER.CM               :Caliper
VP.M/S                   :Vp
VS.M/S                   :Vs
RHO-ND.G/CM3             :rho-ND
POISSON_RATIO.           :Poisson ratio
#------------------------------------------------------------
~PARAMETER INFORMATION
API_Well_Number_. Yorbeau (Gamble)  :API Well Number:
Acquisition_dates_from_. 21/06/19  :Acquisition dates from:
Acquisition_dates_to_. 22/06/19  :Acquisition dates to:
BIT_FROM1.               :BIT FROM1
BIT_FROM2.               :BIT FROM2
BIT_FROM3.               :BIT FROM3
BIT_FROM4.               :BIT FROM4
BIT_FROM5.               :BIT FROM5
BIT_FROM6.               :BIT FROM6
BIT_TO1.                 :BIT TO1
BIT_TO2.                 :BIT TO2
BIT_TO3.                 :BIT TO3
BIT_TO4.                 :BIT TO4
BIT_TO5.                 :BIT TO5
BIT_TO6.                 :BIT TO6
BIT1.                    :BIT1
BIT2.                    :BIT2
BIT3.                    :BIT3
BIT4.                    :BIT4
BIT5.                    :BIT5
BIT6.                    :BIT6
BTM_LOGGED_INTERVAL.     :BTM LOGGED INTERVAL
CASING_FROM1.            :CASING FROM1
CASING_FROM2.            :CASING FROM2
CASING_FROM3.            :CASING FROM3
CASING_FROM4.            :CASING FROM4
CASING_FROM5.            :CASING FROM5
CASING_FROM6.            :CASING FROM6
CASING_SIZE1.            :CASING SIZE1
CASING_SIZE2.            :CASING SIZE2
CASING_SIZE3.            :CASING SIZE3
CASING_SIZE4.            :CASING SIZE4
CASING_SIZE5.            :CASING SIZE5
CASING_SIZE6.            :CASING SIZE6
CASING_TO1.              :CASING TO1
CASING_TO2.              :CASING TO2
CASING_TO3.              :CASING TO3
CASING_TO4.              :CASING TO4
CASING_TO5.              :CASING TO5
CASING_TO6.              :CASING TO6
CO.                      :CO
CTY.                     :CTY
Country_.        Canada  :Country:
Customer_.  Metal Earth  :Customer:
D_F_.                    :D.F.
DENSITY.                 :DENSITY
DEPTH-DRILLER.           :DEPTH-DRILLER
DEPTH-LOGGER.            :DEPTH-LOGGER
DRILLING_MEAS__FROM.     :DRILLING MEAS. FROM
Depth_unit_.     meters  :Depth unit:
Drilling_measured_from_.   :Drilling measured from:
ELEVATION.               :ELEVATION
FIELD.                   :FIELD
FILING_No.               :FILING No
File_Name_. 12-GA-584-petrophysics.WCL  :File Name:
G_L_.                    :G.L.
Height_above_drilling_datum_.   :Height above drilling datum:
Height_above_log_datum_.   :Height above log datum:
K_B_.                    :K.B.
LEVEL.                   :LEVEL
LOG_MEAS__FROM.          :LOG MEAS. FROM
Location_Description_.   :Location Description:
Log_interval_is_from_. 0.84 m  :Log interval is from:
Log_interval_to_. 165 m  :Log interval to:
Log_is_measured_from_. TOP OF COLLAR  :Log is measured from:
MAX__REC__TEMP_.         :MAX. REC. TEMP.
OPERATING_RIG_TIME.      :OPERATING RIG TIME
OTHER_SERVICES.          :OTHER SERVICES
Operator_.      FG, JCD  :Operator:
Other_Services_.         :Other Services:
PERMANENT_DATUM.         :PERMANENT DATUM
Permanent_datum_elevation_#1.   :Permanent datum elevation:#1
Permanent_datum_is_#1.   :Permanent datum is:#1
Permanent_datum_is_#2.   :Permanent datum is:#2
Permanent_datum_is_#3.   :Permanent datum is:#3
Permanent_datum_is__.    :Permanent datum is::
Print_type_is_.          :Print type is:
RECORDED_BY.             :RECORDED BY
RGE.                     :RGE
RUN_No.                  :RUN No
RUN1.                    :RUN1
RUN2.                    :RUN2
RUN3.                    :RUN3
RUN4.                    :RUN4
RUN5.                    :RUN5
RUN6.                    :RUN6
SALINITY.                :SALINITY
SEC.                     :SEC
STE.                     :STE
Scale_ratio_.            :Scale ratio:
Scaled_depth_is_.        :Scaled depth is:
Service_Company_. Université Laval  :Service Company:
State_/_Province_. Québec  :State / Province:
TITLE.                   :TITLE
TOP_LOGGED_INTERVAL.     :TOP LOGGED INTERVAL
TWP.                     :TWP
TYPE_FLUID_IN_HOLE.      :TYPE FLUID IN HOLE
TYPE_LOG.                :TYPE LOG
WELL_ID.                 :WELL ID
WGT1.                    :WGT1
WGT2.                    :WGT2
WGT3.                    :WGT3
WGT4.                    :WGT4
WGT5.                    :WGT5
WGT6.                    :WGT6
WITNESSED_BY.            :WITNESSED BY
Well_Name_.   12-GA-584  :Well Name:
#------------------------------------------------------------
~OTHER
#------------------------------------------------------------
~A
# ...
   120.550
     473.572     15.9579     705.541     1755.93     3047.18
     5247.99     7071.60     89.5924     53.8446     38.3540
     51.2380     36.7457    0.369023     20.5432     48.8205
    0.194533    0.607180   0.0717628     28.1000     55.0170
     186.735    0.994344     4.22503    -99999.0     6636.53
     3819.83     2.87596    0.258261
   120.600
     478.208     15.9486     701.970     1745.53     3033.81
     5223.27     7003.64     89.4561     53.3508     37.9281
     50.9269     36.6239    0.391072     20.4932     48.6959
    0.558392     2.45595     2.76808     28.2000     55.0267
     186.733    0.992736     8.10780    -99999.0     6609.82
     3670.70     2.84780    0.267329
   120.650
     482.880     15.9475     698.017     1745.42     3022.19
     5182.31     6657.74     88.8843     52.6817     37.3150
     49.5651     36.0347    0.424199     20.5171     48.6524
     1.06605    0.674884     3.28970     28.1530     55.0247
     186.906    0.993797     9.48227    -99999.0     6313.07
     3654.59     2.75782    0.219094
   120.700
     488.425     15.9456     693.783     1737.04     3005.72
     5138.87     5992.87     88.5462     51.9197     36.6690
     48.1767     35.2289    0.429555     20.5480     48.5831
    0.134653     4.38192     10.6845     28.0648     55.0300
     186.965    0.996020     5.78474    -99999.0     5574.28
     3657.59     2.64963   0.0975370
   120.750
     501.995     15.9456     693.756     1728.99     3004.69
     5095.57     5132.07     88.5531     51.8837     36.6348
     47.2793     34.6236    0.413393     20.5732     48.4749
     1.30205     2.01485     3.59408     28.1000     55.0200
     186.819    0.996751     10.8834    -99999.0     5424.59
     3871.31     2.61820   0.0210685
   120.800
     519.736     15.9441     690.051     1720.67     2985.23
     5086.95     4855.42     88.6151     51.1934     35.9849
     47.5991     34.9808    0.400080     20.6135     48.6944
    0.466780    0.465050    0.969872     27.9107     55.0496
     186.607     1.00173     7.46883    -99999.0     5625.84
     3863.90     2.64739   0.0623583
   120.850
     529.080     15.9430     686.560     1720.54     2963.18
     5009.45     3759.69     87.4897     50.2531     35.2212
     47.8384     35.4270    0.431519     20.5691     48.6732
    0.454864    0.205798    0.109606     28.0878     55.0261
     186.812    0.996800     8.98815    -99999.0     5884.41
     3815.25     2.70323    0.134498
   120.900
     539.554     15.9491     683.117     1710.39     2934.37
     4916.30     3010.43     86.7817     49.1684     34.5937
     46.3346     34.0178    0.462768     20.5412     48.3432
     1.51143     1.89672     10.3846     28.0720     55.0472
     186.684    0.995159     9.48109    -99999.0     6198.94
     3873.20     2.75162    0.173119
   120.950
     550.404     15.9492     683.094     1694.90     2902.62
     4804.43     2485.56     86.6794     48.3712     33.7964
     50.8320     37.4882    0.463029     20.6367     48.2104
    0.225658     1.02820     4.25058     28.0438     55.0200
     186.788    0.997599     17.9729    -99999.0     6194.42
     3874.59     2.74073    0.170226
   121.000
     554.360     15.9471     678.502     1678.81     2900.41
     4780.30     2204.84     86.6341     48.3055     33.7512
     53.0794     38.3324    0.453126     20.7238     48.0591
    0.200375     1.24813    0.470461     28.1000     55.0281
     187.138    0.995060     14.0565    -99999.0     5896.07
     3776.89     2.71219    0.162130
   121.050
     557.280     15.9375     671.990     1661.16     2858.27
     4548.57     2141.07     85.7637     47.0701     32.9117
     53.5461     38.8411    0.452549     20.7854     47.9768
    0.121542    0.896532     4.90962     28.0247     55.0526
     186.925    0.999179     12.7379    -99999.0     6000.00
     3776.89     2.71298    0.168441
   121.100
     569.909     15.9359     665.419     1660.80     2803.74
     4123.89     1887.16     84.5879     45.8223     32.2487
     56.0708     41.1224    0.438677     20.8315     47.9998
     1.79835     3.31437     9.51494     28.1000     54.9953
     186.809    0.996148     14.8938    -99999.0     6029.18
     3776.89     2.73623    0.186011
   121.150
     590.506     15.9332     657.850     1633.95     2733.00
     3418.74     1714.19     84.6768     44.6536     31.3893
     59.2772     43.1048    0.433713     20.8372     48.0782
   0.0604950     1.11741     3.59359     28.1862     55.0307
     186.907    0.994862     8.19075    -99999.0     6250.00
     3775.10     2.76413    0.207571
   121.200
     603.917     15.9332     657.800     1602.80     2726.45
     3325.15     1626.69     84.6192     44.5859     31.3596
     59.1026     43.0201    0.444204     20.8112     48.1496
   0.0692519     2.36427     5.74719     28.1545     55.0377
     186.545    0.994019     14.7765    -99999.0     6220.82
     3761.59     2.75296    0.201526
   121.250
     608.880     15.9306     647.507     1560.26     2598.12
     2531.89     1615.09     83.6009     43.3080     30.7984
     59.3019     43.1280    0.426777     20.7791     48.0942
     1.45297     3.43812     11.4382     28.1385     55.0569
     186.777    0.995905     13.8976    -99999.0     6013.13
     3761.59     2.73368    0.188820
   121.300
     615.040     15.9272     635.139     1559.29     2363.12
     2009.42     1575.53     83.7754     41.9417     30.1623
     59.8582     42.9489    0.418566     20.7839     48.0405
    0.392628     3.68214     2.57452     28.1086     55.0337
     186.854    0.996038     14.9732    -99999.0     6128.63
     3761.59     2.74853    0.199632
   121.350
     629.196     15.9223     618.188     1486.90     1931.28
     1649.64     1564.49     84.9286     41.0860     29.7750
     58.8960     41.4237    0.433440     20.8079     48.0402
     2.57359     4.27036     16.5009     28.1701     55.0340
     186.830    0.993835     27.6544    -99999.0     6265.52
     3774.40     2.77888    0.210429
   121.400
     645.706     15.9223     618.077     1359.31     1906.19
     1437.85     1530.99     85.0937     41.1726     29.8710
     56.9440     41.6943    0.459912     20.8161     48.1123
     1.21677     5.41552     15.9020     28.0859     55.0358
     186.800    0.996466     17.0217    -99999.0     6367.46
     3877.03     2.78830    0.198428
   121.450
     662.198     15.9143     590.812     1100.40     1443.84
     1417.76     1487.89     87.7472     42.5046     31.3976
     57.4343     40.1345    0.467222     20.7956     48.0651
   0.0850331     2.03497     9.07262     28.0051     55.0600
     186.610     1.00151     11.4903    -99999.0     6250.00
     3920.31     2.77724    0.180708
   121.500
     670.080     15.8986     542.381     1096.76     1140.36
     1246.45     1474.81     83.3506     39.0785     28.4261
     57.7792     39.7529    0.473432     20.7977     48.0112
    0.899034     5.19069     7.85580     28.0523     55.0552
     186.817    0.999843     13.9045    -99999.0     6250.00
     3920.31     2.77250    0.175700
   121.550
     677.780     15.8634     448.346     827.158     933.851
     1126.54     1417.71     94.7975     43.9799     32.2998
     58.4470     39.3290    0.475484     20.8205     47.9913
     0.00000     0.00000     0.00000     28.1667     55.0334
     186.933    0.996298     15.7923    -99999.0     6250.00
     3930.18     2.77250    0.167299
   121.600
     694.012     15.8632     447.741     652.715     806.942
     1058.85     1358.74     98.9535     46.5913     33.4275
     57.5546     41.1651    0.472342     20.8343     48.0078
    0.229096     6.09945     8.33087     28.1980     55.0398
     186.847    0.995649     15.7673    -99999.0     6250.00
     4004.80     2.77250    0.155300
   121.650
     708.333     15.8279     372.783     536.780     801.594
     1055.02     1317.90     99.2288     46.6997     33.5336
     59.6356     38.2517    0.477651     20.8325     47.9584
  0.00704736   0.0916581  0.00172621     28.1352     55.0394
     186.670    0.996448     19.5307    -99999.0     6248.33
     3985.49     2.77138    0.166752
