#------------------------------------------------------------
~VERSION INFORMATION
VERS.               2.0  :CWLS LOG ASCII STANDARD - VERSION 2.0
WRAP.               YES  :MULTIPLE LINES PER DEPTH STEP
#------------------------------------------------------------
~WELL INFORMATION
STRT.M          113.650  :FIRST INDEX VALUE
STOP.M          133.250  :LAST INDEX VALUE
STEP.M        0.0500000  :STEP
NULL.            -99999  :NULL VALUE
COMP.                    :COMPANY
WELL.                    :WELL
FLD.                     :FLD
LOC.                     :LOCATION
SRVC.                    :
CTRY.                    :COUNTRY
STAT.                    :STATE
CNTY.                    :
DATE.                    :DATE
API.                     :API
#------------------------------------------------------------
~CURVE INFORMATION
DEPT.M                   :DEPTH
SP.MV                    :SP
VSPR.V                   :VSPR
SPR.OHM                  :SPR
N8.OHM.M                 :N8
N16.OHM.M                :N16
N32.OHM.M                :N32
N64.OHM.M                :N64
IPLIN161.MV/V            :IPlin161
IPLIN165.MV/V            :IPlin165
IPLIN1610.MV/V           :IPlin1610
IPLIN645.MV/V            :IPlin645
IPLIN6410.MV/V           :IPlin6410
MAG_SUSC.10E-3_SI_UNITS   :Mag Susc
INDUCTION.MS/M           :Induction
IND_RES.OHM-M            :Ind Res
K.%                      :K
U.PPM                    :U
TH.PPM                   :Th
TILT.DEG                 :Tilt
MAGNFIELD.UT             :MagnField
AZIMUTH.DEG              :Azimuth
GRAVITY.G                :Gravity
GR.API                   :GR
CALIPER.CM               :Caliper
VP.M/S                   :Vp
VS.M/S                   :Vs
RHO-ND.G/CM3             :rho-ND
POISSON_RATIO.           :Poisson ratio
#------------------------------------------------------------
~PARAMETER INFORMATION
API_Well_Number_. Yorbeau (Gamble)  :API Well Number:
Acquisition_dates_from_. 21/06/19  :Acquisition dates from:
Acquisition_dates_to_. 22/06/19  :Acquisition dates to:
BIT_FROM1.               :BIT FROM1
BIT_FROM2.               :BIT FROM2
BIT_FROM3.               :BIT FROM3
BIT_FROM4.               :BIT FROM4
BIT_FROM5.               :BIT FROM5
BIT_FROM6.               :BIT FROM6
BIT_TO1.                 :BIT TO1
BIT_TO2.                 :BIT TO2
BIT_TO3.                 :BIT TO3
BIT_TO4.                 :BIT TO4
BIT_TO5.                 :BIT TO5
BIT_TO6.                 :BIT TO6
BIT1.                    :BIT1
BIT2.                    :BIT2
BIT3.                    :BIT3
BIT4.                    :BIT4
BIT5.                    :BIT5
BIT6.                    :BIT6
BTM_LOGGED_INTERVAL.     :BTM LOGGED INTERVAL
CASING_FROM1.            :CASING FROM1
CASING_FROM2.            :CASING FROM2
CASING_FROM3.            :CASING FROM3
CASING_FROM4.            :CASING FROM4
CASING_FROM5.            :CASING FROM5
CASING_FROM6.            :CASING FROM6
CASING_SIZE1.            :CASING SIZE1
CASING_SIZE2.            :CASING SIZE2
CASING_SIZE3.            :CASING SIZE3
CASING_SIZE4.            :CASING SIZE4
CASING_SIZE5.            :CASING SIZE5
CASING_SIZE6.            :CASING SIZE6
CASING_TO1.              :CASING TO1
CASING_TO2.              :CASING TO2
CASING_TO3.              :CASING TO3
CASING_TO4.              :CASING TO4
CASING_TO5.              :CASING TO5
CASING_TO6.              :CASING TO6
CO.                      :CO
CTY.                     :CTY
Country_.        Canada  :Country:
Customer_.  Metal Earth  :Customer:
D_F_.                    :D.F.
DENSITY.                 :DENSITY
DEPTH-DRILLER.           :DEPTH-DRILLER
DEPTH-LOGGER.            :DEPTH-LOGGER
DRILLING_MEAS__FROM.     :DRILLING MEAS. FROM
Depth_unit_.     meters  :Depth unit:
Drilling_measured_from_.   :Drilling measured from:
ELEVATION.               :ELEVATION
FIELD.                   :FIELD
FILING_No.               :FILING No
File_Name_. 12-GA-584-petrophysics.WCL  :File Name:
G_L_.                    :G.L.
Height_above_drilling_datum_.   :Height above drilling datum:
Height_above_log_datum_.   :Height above log datum:
K_B_.                    :K.B.
LEVEL.                   :LEVEL
LOG_MEAS__FROM.          :LOG MEAS. FROM
Location_Description_.   :Location Description:
Log_interval_is_from_. 0.84 m  :Log interval is from:
Log_interval_to_. 165 m  :Log interval to:
Log_is_measured_from_. TOP OF COLLAR  :Log is measured from:
MAX__REC__TEMP_.         :MAX. REC. TEMP.
OPERATING_RIG_TIME.      :OPERATING RIG TIME
OTHER_SERVICES.          :OTHER SERVICES
Operator_.      FG, JCD  :Operator:
Other_Services_.         :Other Services:
PERMANENT_DATUM.         :PERMANENT DATUM
Permanent_datum_elevation_#1.   :Permanent datum elevation:#1
Permanent_datum_is_#1.   :Permanent datum is:#1
Permanent_datum_is_#2.   :Permanent datum is:#2
Permanent_datum_is_#3.   :Permanent datum is:#3
Permanent_datum_is__.    :Permanent datum is::
Print_type_is_.          :Print type is:
RECORDED_BY.             :RECORDED BY
RGE.                     :RGE
RUN_No.                  :RUN No
RUN1.                    :RUN1
RUN2.                    :RUN2
RUN3.                    :RUN3
RUN4.                    :RUN4
RUN5.                    :RUN5
RUN6.                    :RUN6
SALINITY.                :SALINITY
SEC.                     :SEC
STE.                     :STE
Scale_ratio_.            :Scale ratio:
Scaled_depth_is_.        :Scaled depth is:
Service_Company_. Université Laval  :Service Company:
State_/_Province_. Québec  :State / Province:
TITLE.                   :TITLE
TOP_LOGGED_INTERVAL.     :TOP LOGGED INTERVAL
TWP.                     :TWP
TYPE_FLUID_IN_HOLE.      :TYPE FLUID IN HOLE
TYPE_LOG.                :TYPE LOG
WELL_ID.                 :WELL ID
WGT1.                    :WGT1
WGT2.                    :WGT2
WGT3.                    :WGT3
WGT4.                    :WGT4
WGT5.                    :WGT5
WGT6.                    :WGT6
WITNESSED_BY.            :WITNESSED BY
Well_Name_.   12-GA-584  :Well Name:
#------------------------------------------------------------
~OTHER
#------------------------------------------------------------
~A
# ...
   127.450
     555.124     15.9428     531.802     1134.99     1762.44
     1956.46     1895.38     99.0838     44.2159     27.7397
     43.9051     35.9557    0.423615     21.2741     46.9934
     0.00000     0.00000     0.00000     28.2176     55.0589
     186.804     1.00349     11.2265    -99999.0     5219.58
     3187.06     2.56347    0.189002
   127.500
     568.786     15.9428     531.571     1165.36     1720.99
     1959.89     1822.71     103.478     46.0675     29.0746
     45.3217     37.9794    0.424468     21.2645     47.2860
     0.00000     0.00000     0.00000     28.2612     55.0363
     186.700     1.00223     8.82984    -99999.0     5039.00
     3228.72     2.56151    0.176600
   127.550
     591.380     15.9377     516.731     1161.95     1715.53
     1958.91     1695.07     103.702     46.1501     29.1758
     49.5685     37.8206    0.392545     21.1942     47.6309
    0.156158     1.77061     5.53595     28.5439     55.0172
     186.972    0.993792     13.9675    -99999.0     5404.43
     3248.65     2.60443    0.216104
   127.600
     598.680     15.9359     514.919     1090.57     1613.90
     1947.77     1658.67     107.757     47.6425     31.0187
     49.6584     39.0610    0.277748     21.0470     47.6526
    0.346472   0.0232185    0.394313     28.6000     55.0388
     187.025    0.992935     12.3908    -99999.0     5660.38
     3248.65     2.63998    0.247947
   127.650
     597.140     15.9305     525.679     1089.31     1521.63
     1915.76     1520.52     109.338     48.1572     31.9240
     51.2721     43.0899    0.242693     20.9872     47.6758
    0.525341     2.02896     6.25527     28.3613     55.0600
     187.023    0.997934     15.4434    -99999.0     5660.38
     3248.65     2.64790    0.254399
   127.700
     590.135     15.9357     544.540     997.542     1434.05
     1879.41     1454.16     110.448     48.3071     32.2594
     55.5997     41.7750    0.254576     20.9785     47.7736
     1.13378    0.765714     2.77538     28.4736     55.0251
     187.025    0.995083     13.3947    -99999.0     5648.14
     3239.59     2.64097    0.255800
   127.750
     581.800     15.9358     544.661     960.043     1429.37
     1870.22     1436.16     110.575     48.3078     32.3341
     55.5981     37.9667    0.283069     20.9469     47.7590
   0.0525472     1.22485     1.02117     28.7737     55.0153
     186.765    0.986712     8.43266    -99999.0     5567.78
     3172.30     2.63800    0.261510
   127.800
     571.180     15.9396     557.158     980.074     1342.76
     1789.81     1441.97     112.849     48.3191     33.6923
     56.1640     38.0699    0.352525     20.9358     47.5810
  0.00136623    0.118024    0.759988     28.7578     55.0393
     186.886    0.988817     8.26947    -99999.0     5673.08
     3180.63     2.65228    0.272521
   127.850
     563.880     15.9400     557.446     980.398     1283.02
     1711.63     1476.77     112.992     48.1670     34.1727
     57.9868     37.1653    0.403411     20.9895     47.5917
    0.614697    0.595962     2.87526     28.3772     55.0423
     186.568    0.998862     8.52887    -99999.0     5782.44
     3155.31     2.67387    0.293591
   127.900
     558.027     15.9385     551.807     1003.98     1261.90
     1593.42     1538.02     110.668     45.6192     33.2010
     57.1703     32.8668    0.412265     21.0144     48.0359
    0.490677     4.55295     7.10804     28.5386     55.0484
     186.739    0.995672     11.0994    -99999.0     5882.35
     3041.01     2.68848    0.310870
   127.950
     554.020     15.9385     551.769     985.503     1259.74
     1429.51     1573.96     110.620     45.5990     33.1317
     55.4971     31.3928    0.383007     20.8855     48.1127
    0.299543    0.461186     3.68619     28.4456     55.0291
     186.809    0.998010     14.5339    -99999.0     5869.15
     3074.17     2.68392    0.310338
   128.000
     551.169     15.9362     544.140     937.380     1218.98
     1412.38     1588.52     109.663     45.1983     31.8821
     57.5386     28.8507    0.388254     20.7944     48.0932
   0.0749498    0.901818     4.83979     28.6299     55.0710
     186.749    0.993204     13.7380    -99999.0     5782.42
     3062.26     2.68050    0.306480
   128.050
     547.080     15.9304     524.941     936.339     1176.52
     1272.10     1600.90     107.721     44.3160     31.5199
     56.5422     29.8277    0.435527     20.7898     48.2017
     1.12181     2.77038    0.977544     28.9441     55.0084
     186.886    0.981392     16.5900    -99999.0     5882.35
     3118.68     2.68848    0.300169
   128.100
     548.928     15.9196     494.366     859.011     1125.83
     1225.07     1663.47     103.374     41.9417     30.3727
     53.0444     32.6981    0.470293     20.7626     48.2723
     2.28884    0.256638     10.1839     28.4983     55.0497
     186.402    0.996949     10.3058    -99999.0     5882.35
     3211.75     2.69190    0.287159
   128.150
     559.616     15.9195     494.169     799.961     1044.55
     1234.17     1743.20     107.564     44.4612     30.9189
     52.8598     30.5969    0.436727     20.7260     48.2067
    0.955946   0.0188535     3.38239     28.2410     55.0482
     186.288     1.00353     11.3094    -99999.0     5882.35
     3271.53     2.69190    0.278049
   128.200
     566.848     15.9031     450.011     755.961     1040.47
     1239.25     1768.85     107.795     44.5696     31.0783
     54.6906     27.3417    0.376021     20.7339     48.2933
    0.196399     3.29382     8.36173     28.6000     55.1033
     186.767    0.993734     6.15986    -99999.0     5910.34
     3261.08     2.70996    0.289681
   128.250
     565.680     15.8894     417.528     695.671     965.477
     1287.34     1757.89     112.099     46.6929     33.9722
     54.8841     28.1318    0.348383     20.7200     48.3163
     1.14656     1.54350     1.71372     28.8630     55.0953
     186.553    0.985519     6.86240    -99999.0     6122.45
     3181.90     2.73576    0.309151
   128.300
     580.770     15.8947     428.812     695.037     926.622
     1357.69     1716.70     115.281     50.0534     34.7739
     55.5611     31.5573    0.355680     20.7001     48.3530
  0.00266988   0.0321247    0.172404     28.5545     55.1200
     187.055    0.994901    0.195080    -99999.0     6137.36
     3181.90     2.75365    0.318499
   128.350
     559.961     15.9135     472.480     648.772     917.371
     1405.97     1706.83     114.168     49.5540     33.0049
     55.3711     32.9391    0.365232     20.6866     47.5911
     1.21323    0.874825     4.31978     28.4000     55.0981
     186.984    0.997717     3.21100    -99999.0     6207.03
     3181.90     2.73994    0.312368
   128.400
     453.649     15.9136     472.761     674.087     918.219
     1435.98     1730.42     113.974     49.5265     32.9616
     54.2981     28.5156    0.383382     20.8969     46.8149
     1.31784     4.09382     1.46843     28.7035     55.1197
     186.990    0.990940     7.46357    -99999.0     5923.65
     3187.06     2.73108    0.306370
   128.450
     388.484     15.9284     513.567     770.847     936.858
     1442.81     1744.22     110.452     48.9536     32.0194
     54.0566     28.8918    0.388246     21.2423     47.0311
   0.0466094    0.964064     5.17805     28.2734     55.1188
     186.976     1.00410     11.6896    -99999.0     6203.05
     3226.09     2.73592    0.304920
   128.500
     392.280     15.9355     537.216     772.260     1006.81
     1506.39     1804.35     108.843     47.3100     28.8240
     51.9771     30.1365    0.389967     21.2998     46.8670
    0.904373     1.86900     8.74559     28.7000     55.0544
     186.856    0.989702     5.54537    -99999.0     5898.67
     3226.09     2.68311    0.275189
   128.550
     426.772     15.9387     549.934     876.990     1108.31
     1588.56     1871.36     104.315     45.2619     27.5702
     47.8501     30.0402    0.404992     21.3101     46.8687
    0.122033     1.90204     7.32157     28.5122     55.0644
     186.412    0.995052     7.98022    -99999.0     5423.26
     3223.49     2.60490    0.221477
