#------------------------------------------------------------
~VERSION INFORMATION
VERS.               2.0  :CWLS LOG ASCII STANDARD - VERSION 2.0
WRAP.               YES  :MULTIPLE LINES PER DEPTH STEP
#------------------------------------------------------------
~WELL INFORMATION
STRT.M          113.650  :FIRST INDEX VALUE
STOP.M          133.250  :LAST INDEX VALUE
STEP.M        0.0500000  :STEP
NULL.            -99999  :NULL VALUE
COMP.                    :COMPANY
WELL.                    :WELL
FLD.                     :FLD
LOC.                     :LOCATION
SRVC.                    :
CTRY.                    :COUNTRY
STAT.                    :STATE
CNTY.                    :
DATE.                    :DATE
API.                     :API
#------------------------------------------------------------
~CURVE INFORMATION
DEPT.M                   :DEPTH
SP.MV                    :SP
VSPR.V                   :VSPR
SPR.OHM                  :SPR
N8.OHM.M                 :N8
N16.OHM.M                :N16
N32.OHM.M                :N32
N64.OHM.M                :N64
IPLIN161.MV/V            :IPlin161
IPLIN165.MV/V            :IPlin165
IPLIN1610.MV/V           :IPlin1610
IPLIN645.MV/V            :IPlin645
IPLIN6410.MV/V           :IPlin6410
MAG_SUSC.10E-3_SI_UNITS   :Mag Susc
INDUCTION.MS/M           :Induction
IND_RES.OHM-M            :Ind Res
K.%                      :K
U.PPM                    :U
TH.PPM                   :Th
TILT.DEG                 :Tilt
MAGNFIELD.UT             :MagnField
AZIMUTH.DEG              :Azimuth
GRAVITY.G                :Gravity
GR.API                   :GR
CALIPER.CM               :Caliper
VP.M/S                   :Vp
VS.M/S                   :Vs
RHO-ND.G/CM3             :rho-ND
POISSON_RATIO.           :Poisson ratio
#------------------------------------------------------------
~PARAMETER INFORMATION
API_Well_Number_. Yorbeau (Gamble)  :API Well Number:
Acquisition_dates_from_. 21/06/19  :Acquisition dates from:
Acquisition_dates_to_. 22/06/19  :Acquisition dates to:
BIT_FROM1.               :BIT FROM1
BIT_FROM2.               :BIT FROM2
BIT_FROM3.               :BIT FROM3
BIT_FROM4.               :BIT FROM4
BIT_FROM5.               :BIT FROM5
BIT_FROM6.               :BIT FROM6
BIT_TO1.                 :BIT TO1
BIT_TO2.                 :BIT TO2
BIT_TO3.                 :BIT TO3
BIT_TO4.                 :BIT TO4
BIT_TO5.                 :BIT TO5
BIT_TO6.                 :BIT TO6
BIT1.                    :BIT1
BIT2.                    :BIT2
BIT3.                    :BIT3
BIT4.                    :BIT4
BIT5.                    :BIT5
BIT6.                    :BIT6
BTM_LOGGED_INTERVAL.     :BTM LOGGED INTERVAL
CASING_FROM1.            :CASING FROM1
CASING_FROM2.            :CASING FROM2
CASING_FROM3.            :CASING FROM3
CASING_FROM4.            :CASING FROM4
CASING_FROM5.            :CASING FROM5
CASING_FROM6.            :CASING FROM6
CASING_SIZE1.            :CASING SIZE1
CASING_SIZE2.            :CASING SIZE2
CASING_SIZE3.            :CASING SIZE3
CASING_SIZE4.            :CASING SIZE4
CASING_SIZE5.            :CASING SIZE5
CASING_SIZE6.            :CASING SIZE6
CASING_TO1.              :CASING TO1
CASING_TO2.              :CASING TO2
CASING_TO3.              :CASING TO3
CASING_TO4.              :CASING TO4
CASING_TO5.              :CASING TO5
CASING_TO6.              :CASING TO6
CO.                      :CO
CTY.                     :CTY
Country_.        Canada  :Country:
Customer_.  Metal Earth  :Customer:
D_F_.                    :D.F.
DENSITY.                 :DENSITY
DEPTH-DRILLER.           :DEPTH-DRILLER
DEPTH-LOGGER.            :DEPTH-LOGGER
DRILLING_MEAS__FROM.     :DRILLING MEAS. FROM
Depth_unit_.     meters  :Depth unit:
Drilling_measured_from_.   :Drilling measured from:
ELEVATION.               :ELEVATION
FIELD.                   :FIELD
FILING_No.               :FILING No
File_Name_. 12-GA-584-petrophysics.WCL  :File Name:
G_L_.                    :G.L.
Height_above_drilling_datum_.   :Height above drilling datum:
Height_above_log_datum_.   :Height above log datum:
K_B_.                    :K.B.
LEVEL.                   :LEVEL
LOG_MEAS__FROM.          :LOG MEAS. FROM
Location_Description_.   :Location Description:
Log_interval_is_from_. 0.84 m  :Log interval is from:
Log_interval_to_. 165 m  :Log interval to:
Log_is_measured_from_. TOP OF COLLAR  :Log is measured from:
MAX__REC__TEMP_.         :MAX. REC. TEMP.
OPERATING_RIG_TIME.      :OPERATING RIG TIME
OTHER_SERVICES.          :OTHER SERVICES
Operator_.      FG, JCD  :Operator:
Other_Services_.         :Other Services:
PERMANENT_DATUM.         :PERMANENT DATUM
Permanent_datum_elevation_#1.   :Permanent datum elevation:#1
Permanent_datum_is_#1.   :Permanent datum is:#1
Permanent_datum_is_#2.   :Permanent datum is:#2
Permanent_datum_is_#3.   :Permanent datum is:#3
Permanent_datum_is__.    :Permanent datum is::
Print_type_is_.          :Print type is:
RECORDED_BY.             :RECORDED BY
RGE.                     :RGE
RUN_No.                  :RUN No
RUN1.                    :RUN1
RUN2.                    :RUN2
RUN3.                    :RUN3
RUN4.                    :RUN4
RUN5.                    :RUN5
RUN6.                    :RUN6
SALINITY.                :SALINITY
SEC.                     :SEC
STE.                     :STE
Scale_ratio_.            :Scale ratio:
Scaled_depth_is_.        :Scaled depth is:
Service_Company_. Université Laval  :Service Company:
State_/_Province_. Québec  :State / Province:
TITLE.                   :TITLE
TOP_LOGGED_INTERVAL.     :TOP LOGGED INTERVAL
TWP.                     :TWP
TYPE_FLUID_IN_HOLE.      :TYPE FLUID IN HOLE
TYPE_LOG.                :TYPE LOG
WELL_ID.                 :WELL ID
WGT1.                    :WGT1
WGT2.                    :WGT2
WGT3.                    :WGT3
WGT4.                    :WGT4
WGT5.                    :WGT5
WGT6.                    :WGT6
WITNESSED_BY.            :WITNESSED BY
Well_Name_.   12-GA-584  :Well Name:
#------------------------------------------------------------
~OTHER
#------------------------------------------------------------
~A
# ...
   126.300
     619.080     15.8692     368.708     646.229     884.914
     1135.51     1209.33     112.395     44.9997     29.3640
     46.9082     49.2928    0.368445     21.1152     46.5685
    0.729724    0.659347     6.45891     28.3000     55.1100
     186.600    0.999300     12.0725    -99999.0     6122.45
     3488.37     2.74350    0.258410
   126.350
     623.700     15.8532     343.839     603.098     767.746
     1083.44     1205.82     120.020     48.9066     32.1737
     48.1815     49.1613    0.348102     21.3611     45.8060
    0.164179   0.0517734    0.613749     28.4527     55.0404
     186.598    0.996523     5.44560    -99999.0     6122.45
     3474.65     2.74350    0.267680
   126.400
     637.014     15.8531     343.676     526.542     699.028
     1034.23     1220.68     122.454     51.0107     33.8893
     49.6345     46.8560    0.349708     21.7096     45.4056
    0.412454    0.453499     3.41240     28.3756     55.0105
     186.765    0.998444     13.4836    -99999.0     6122.45
     3380.49     2.74350    0.273480
   126.450
     647.020     15.8667     364.181     480.281     696.962
     1028.80     1244.42     122.446     51.0300     33.9737
     51.3504     42.9212    0.368815     21.9598     44.8484
     1.39340     5.04509     10.9412     28.6841     55.0181
     186.881    0.989464     19.2250    -99999.0     6108.16
     3471.14     2.73412    0.252094
   126.500
     648.480     15.9018     430.554     523.399     659.110
     981.767     1258.17     122.276     51.4148     35.5032
     51.7423     42.4263    0.352425     22.2036     44.2179
    0.386822     3.46157     4.74839     28.7750     55.0193
     186.986    0.987366     11.6291    -99999.0     6014.28
     3579.61     2.73010    0.245090
   126.550
     648.480     15.9231     484.862     525.026     641.723
     941.709     1319.12     121.883     52.1842     36.0117
     53.9422     39.4898    0.324426     22.5069     43.2299
    0.368127     3.51283     9.15367     28.2612     55.0463
     186.649     1.00228     5.35033    -99999.0     6122.45
     3408.66     2.73948    0.269722
   126.600
     596.734     15.9338     517.394     646.124     683.696
     908.724     1386.96     124.430     52.6621     35.7559
     56.2474     34.7255    0.322872     22.9549     41.7925
    0.771929     1.73869     8.86453     28.4440     54.9944
     186.772    0.995661     10.3062    -99999.0     6130.81
     3351.40     2.74917    0.287708
   126.650
     488.533     15.9338     517.606     763.871     690.697
     905.604     1439.60     124.227     52.5062     35.7192
     53.9699     33.2194    0.350518     23.6554     40.9163
     1.56752     4.82438     5.19349     28.4123     54.9956
     186.588    0.998130     9.87819    -99999.0     6194.09
     3330.16     2.75720    0.295020
   126.700
     441.106     15.9383     532.918     847.325     823.554
     880.213     1458.37     120.290     49.6478     34.9938
     54.9901     31.7804    0.354022     24.2689     41.1045
    0.110943  0.00200249    0.494348     28.5193     55.0100
     186.881    0.993796     14.1722    -99999.0     6198.94
     3337.25     2.76296    0.294389
   126.750
     449.280     15.9417     547.511     848.132     979.710
     878.092     1538.60     114.267     48.0309     33.7051
     57.8344     27.7193    0.332601     24.3717     41.5564
     1.17936     1.43112     1.79928     28.4000     55.0100
     186.749    0.996797     4.95114    -99999.0     6203.04
     3390.93     2.74606    0.280589
   126.800
     484.701     15.9458     564.334     908.228     1105.83
     938.279     1612.82     109.002     47.1002     33.9499
     56.6813     29.0804    0.324122     24.1549     41.8801
     1.48188     2.36489     3.86346     28.3088     55.0109
     186.791     1.00087     9.93460    -99999.0     5955.86
     3390.93     2.71657    0.264670
   126.850
     544.769     15.9458     564.442     967.054     1111.21
     1063.26     1647.72     108.906     47.0847     33.9811
     59.0171     26.3774    0.348370     23.9403     42.3596
    0.380670  0.00687095     1.69621     28.5860     55.0207
     186.700    0.991910     3.61819    -99999.0     5988.52
     3386.64     2.72894    0.272873
   126.900
     580.354     15.9489     576.581     1021.94     1212.10
     1085.37     1622.29     107.310     46.8721     34.5322
     61.3201     26.2009    0.348102     23.7001     42.7761
    0.224539     2.12630     5.92701     28.6089     54.9923
     187.232    0.993315     5.52897    -99999.0     6212.03
     3354.20     2.74401    0.283970
   126.950
     590.280     15.9513     587.036     1022.57     1309.99
     1275.67     1601.79     109.358     48.0106     34.4391
     61.1824     27.0970    0.310099     23.4554     42.9727
    0.887596    0.748275     4.58323     28.3544     55.0423
     186.977    0.998582     3.17365    -99999.0     6011.06
     3341.88     2.71667    0.279328
   127.000
     602.599     15.9527     594.392     1068.97     1412.73
     1424.67     1523.54     109.426     48.3733     33.9312
     60.6095     30.8153    0.279425     23.3059     43.4323
    0.698882     1.01862     3.53332     28.2456     55.0200
     186.854     1.00338     8.30621    -99999.0     5806.99
     3246.02     2.66883    0.264329
   127.050
     613.972     15.9527     594.439     1114.85     1496.91
     1523.00     1488.02     108.806     48.3655     32.7675
     59.5566     33.1001    0.300491     23.1093     44.0437
  0.00469423   0.0183744   0.0585362     28.5403     55.0260
     186.800    0.994860     2.93972    -99999.0     5515.43
     3226.09     2.62461    0.240439
   127.100
     601.976     15.9535     600.187     1156.04     1500.40
     1539.49     1490.17     108.805     48.3528     32.7250
     57.4039     32.2088    0.295885     22.8141     44.5199
     1.57921     2.22524     7.03689     28.4000     55.0000
     186.656    0.997596     11.4274    -99999.0     5424.61
     3226.09     2.61637    0.235623
   127.150
     591.188     15.9544     606.633     1184.81     1562.65
     1687.53     1496.78     108.690     48.1174     31.9007
     56.4460     33.6625    0.302389     22.5438     44.9893
  0.00683175    0.267761     1.47128     28.6913     55.0497
     187.002    0.987686     3.68503    -99999.0     5547.50
     3214.68     2.60469    0.233079
   127.200
     591.480     15.9552     610.910     1184.99     1567.00
     1852.49     1536.34     106.817     47.9114     30.6653
     52.8062     38.7535    0.392523     22.3072     45.6337
    0.230552     1.75917    0.675291     28.7121     55.0218
     186.947    0.989221     8.32530    -99999.0     5152.29
     3125.89     2.56354    0.208364
   127.250
     602.875     15.9545     609.759     1197.88     1563.76
     1978.46     1625.74     104.782     46.9004     30.0746
     49.8331     39.6903    0.435106     22.0212     46.1945
    0.157930     2.90760     5.26639     28.4667     55.0133
     186.967    0.997400     5.44899    -99999.0     5022.22
     3106.20     2.54938    0.202700
   127.300
     609.060     15.9545     609.751     1161.83     1567.03
     2008.37     1726.82     104.521     46.7937     29.9682
     45.4051     39.3357    0.415707     21.7377     46.5445
    0.418796    0.861371     4.52368     28.5543     55.0302
     186.902    0.995761     12.4281    -99999.0     5187.21
     3098.26     2.55876    0.215141
   127.350
     580.347     15.9513     600.122     1121.58     1629.55
     2004.36     1752.94     99.8207     44.8640     28.0484
     45.4683     38.5894    0.368806     21.5393     46.8529
    0.198931    0.462474     4.38303     28.5595     55.0465
     186.930    0.993008     11.0330    -99999.0     5186.12
     3116.10     2.57317    0.221799
   127.400
     557.280     15.9516     567.835     1121.76     1713.19
     1971.02     1854.41     98.6436     44.1789     27.4630
     45.2539     35.9475    0.351851     21.3913     47.0834
   0.0346506    0.135631    0.432087     28.2000     55.0400
     186.700     1.00630     12.0478    -99999.0     5356.43
     3181.90     2.58274    0.220530
