#------------------------------------------------------------
~VERSION INFORMATION
VERS.               2.0  :CWLS LOG ASCII STANDARD - VERSION 2.0
WRAP.               YES  :MULTIPLE LINES PER DEPTH STEP
#------------------------------------------------------------
~WELL INFORMATION
STRT.M         0.554600  :FIRST INDEX VALUE
STOP.M          359.955  :LAST INDEX VALUE
STEP.M          0.00000  :STEP
NULL.            -99999  :NULL VALUE
COMP.                    :COMPANY
WELL.                    :WELL
FLD.                     :FLD
LOC.                     :LOCATION
SRVC.                    :
CTRY.                    :COUNTRY
STAT.                    :STATE
CNTY.                    :
DATE.                    :DATE
API.                     :API
#------------------------------------------------------------
~CURVE INFORMATION
DEPT.M                   :DEPTH
A1.                      :A1
CHI2.                    :Chi2
K.%                      :K
U.PPM                    :U
TH.PPM                   :Th
K-ERROR.%                :K-Error
U-ERROR.PPM              :U-Error
TH-ERROR.PPM             :Th-Error
TIME.SEC                 :Time
COUNTS.                  :Counts
STACK_TIME.SEC           :Stack Time
STACK_COUNTS.            :Stack counts
EHT.V                    :EHT
TCPU.'C                  :TCPU
GR.API                   :GR
SPEED.M/MIN              :Speed
TOOLPOWERVOLTAGE.V       :ToolPowerVoltage
TOOLPOWERCURRENT.MA      :ToolPowerCurrent
#------------------------------------------------------------
~PARAMETER INFORMATION
#------------------------------------------------------------
~OTHER
#------------------------------------------------------------
~A
# ...
   144.055
    0.567000    0.331805     2.72234     5.47782     0.00000
     1.42725     3.07159     0.00000     1.40500     226.000
     66.0150     4227.00     1197.95     12.1636     108.016
     2.02500     126.000     31.3514
   144.105
    0.567000    0.355881    0.169691     6.19428     7.54080
     1.43617     5.58159     13.6409     1.43700     198.000
     66.0470     4073.00     1197.95     12.1636     92.5262
     2.10000     125.000     29.1892
   144.155
    0.567000    0.735166     1.86273     3.26817     0.00000
     1.38208     2.87980     0.00000     1.43500     192.000
     66.0250     3938.00     1198.11     12.1636     89.8474
     2.07500     125.000     29.1892
   144.205
    0.567000     1.36065    0.250951     4.79498     0.00000
     1.38670     2.88942     0.00000     1.43000     147.000
     66.0120     3815.00     1198.11     12.1636     69.0300
     2.10000     124.000     29.1892
   144.255
    0.567000    0.282531     2.19919    0.533521     0.00000
     1.37992     2.87530     0.00000     1.43700     143.000
     66.0050     3741.00     1197.95     12.1636     66.8245
     2.10000     124.000     27.0270
   144.305
    0.567000    0.349860     0.00000     0.00000     14.1737
     0.00000     0.00000     3.70671     1.43600     111.000
     66.0200     3670.00     1198.11     12.1636     51.9069
     2.10000     124.000     27.0270
   144.355
    0.567000    0.703668     1.31643    0.877027     0.00000
     1.38056     2.87664     0.00000     1.43600     77.0000
     66.0260     3631.00     1198.11     12.1636     36.0075
     2.12500     123.000     22.7027
   144.405
    0.567000    0.280831     1.76786    0.788341    0.586477
     1.42590     5.36574     13.3458     1.43300     87.0000
     66.0280     3630.00     1198.11     12.1636     40.7689
     2.12500     123.000     22.7027
   144.455
    0.567000    0.394057    0.897645     0.00000     5.08249
     1.38261     0.00000     7.16483     1.43400     78.0000
     66.0350     3607.00     1198.11     12.1636     36.5260
     2.12500     123.000     18.3784
   144.505
    0.567000    0.253566     1.08976     0.00000     1.72783
     1.38256     0.00000     7.16461     1.43400     69.0000
     66.0470     3603.00     1197.95     12.1636     32.3114
     2.10000     125.000     21.6216
   144.555
    0.567000    0.552299     1.43424    0.842722     1.50621
     1.42896     5.37725     13.3744     1.43000     100.000
     66.0480     3639.00     1198.11     12.1636     46.9592
     2.10000     125.000     21.6216
   144.605
    0.567000    0.765711    0.994418     0.00000     1.70049
     1.38455     0.00000     7.17489     1.43200     80.0000
     66.0550     3662.00     1198.11     12.1636     37.5149
     2.07500     126.000     30.2703
   144.655
    0.567000    0.387232     1.17495     0.00000     6.95759
     1.39141     0.00000     7.21048     1.42500     93.0000
     66.0640     3685.00     1198.11     12.1636     43.8253
     2.10000     126.000     31.3514
   144.705
    0.567000    0.481037    0.626872     1.67060     1.91334
     1.43892     5.41473     13.4676     1.42000     79.0000
     66.0680     3713.00     1197.95     12.1636     37.3590
     2.07500     124.000     25.9459
   144.755
    0.567000    0.305726     0.00000     5.46358     0.00000
     0.00000     1.51456     0.00000     1.41300     85.0000
     66.0850     3743.00     1198.11     12.1636     40.3955
     2.07500     123.000     19.4595
   144.805
    0.567000    0.312649     1.03443     0.00000     2.33696
     1.38064     0.00000     7.15465     1.43600     70.0000
     66.1040     3771.00     1198.11     12.1636     32.7341
     2.07500     123.000     20.5405
   144.855
    0.567000    0.253309    0.375858     1.08827     7.06785
     1.44709     5.44549     13.5441     1.41200     83.0000
     66.0940     3799.00     1197.95     12.1636     39.4730
     2.10000     123.000     19.4595
   144.905
    0.567000    0.386566    0.848365    0.308180     1.84286
     1.42780     5.37287     13.3635     1.43100     67.0000
     66.1120     3833.00     1198.11     12.1636     31.4407
     2.10000     125.000     22.7027
   144.955
    0.567000    0.552828    0.942719     2.17304     0.00000
     1.38061     2.87673     0.00000     1.43600     86.0000
     66.1030     3860.00     1197.95     12.1636     40.2161
     2.07500     125.000     23.7838
   145.005
    0.567000    0.286250    0.629977     0.00000     3.24108
     1.38739     0.00000     7.18963     1.42900     67.0000
     66.0820     3875.00     1198.11     12.1636     31.4847
     2.10000     126.000     30.2703
   145.055
    0.567000    0.291179     1.27790     0.00000     0.00000
    0.712731     0.00000     0.00000     1.44100     81.0000
     66.0880     3904.00     1198.11     12.1636     37.7466
     2.10000     125.000     30.2703
   145.105
    0.567000    0.260810    0.603181     1.31202     2.92605
     1.42289     5.35442     13.3176     1.43600     81.0000
     66.0920     3908.00     1197.95     12.1636     37.8780
     2.12500     123.000     21.6216
   145.155
    0.567000    0.265392     1.57888     0.00000     3.33951
     1.37973     0.00000     7.14992     1.43700     80.0000
     66.1030     3902.00     1198.11     12.1636     37.3843
     2.12500     123.000     21.6216
   145.205
    0.567000    0.361993    0.536344     0.00000     4.99871
     1.36828     0.00000     7.09062     1.44900     77.0000
     66.1100     3896.00     1197.95     12.1636     35.6844
     2.07500     124.000     20.5405
   145.255
    0.567000    0.383393    0.574304     0.00000     5.40178
     1.36647     0.00000     7.08123     1.45100     93.0000
     66.1100     3913.00     1197.95     12.1636     43.0400
     2.12500     124.000     20.5405
   145.305
    0.567000    0.732928     0.00000     3.66741     0.00000
     0.00000     1.48407     0.00000     1.44200     82.0000
     66.1030     3913.00     1198.11     12.1636     38.1861
     2.10000     125.000     21.6216
   145.355
    0.567000     1.33183     1.07089     2.28536     0.00000
     1.35889     2.83148     0.00000     1.45900     97.0000
     66.1040     3914.00     1197.89     12.1636     44.6450
     2.07500     125.000     23.7838
   145.405
    0.567000    0.263479    0.682518     0.00000     2.50151
     1.37684     0.00000     7.13497     1.44000     78.0000
     66.0790     3913.00     1198.11     12.1636     36.3738
     2.10000     125.000     23.7838
   145.455
    0.567000     1068.77     1.52374     0.00000     0.00000
    0.722770     0.00000     0.00000     1.42100     83.0000
     66.0690     3920.00     1198.11     12.1636     39.2230
     2.07500     125.000     25.9459
   145.505
    0.567000    0.293820    0.714065    0.115168     4.25666
     1.43083     5.38429     13.3919     1.42800     74.0000
     66.0860     3936.00     1198.11     12.1636     34.7984
     2.10000     126.000     28.1081
   145.555
    0.567000    0.485987    0.432545     0.00000     5.11813
     1.38647     0.00000     7.18488     1.43000     78.0000
     66.1010     3950.00     1198.11     12.1636     36.6281
     2.07500     125.000     30.2703
   145.605
    0.567000    0.571198     1.21509    0.487994     2.31644
     1.44292     5.42980     13.5051     1.41600     67.0000
     66.0980     3973.00     1197.95     12.1636     31.7737
     2.05000     125.000     31.3514
   145.655
    0.567000     2.71834   0.0475646     2.93745     0.00000
     1.39024     2.89680     0.00000    -99999.0    -99999.0
    -99999.0    -99999.0    -99999.0    -99999.0    -99999.0
     2.07500     126.000     31.3514
   145.705
    0.567000     2.71834   0.0475646     2.93745     0.00000
     1.39024     2.89680     0.00000     1.42600     75.0000
     66.1310     4012.00     1197.95     12.1636     35.3182
     2.05000     126.000     31.3514
   145.755
    0.567000    0.359722    0.341464     1.88781    0.631876
     1.42490     5.36198     13.3364     1.43400     86.0000
     66.1260     4018.00     1197.95     12.1636     40.2722
     2.05000     124.000     25.9459
