#------------------------------------------------------------
~VERSION INFORMATION
VERS.               2.0  :CWLS LOG ASCII STANDARD - VERSION 2.0
WRAP.               YES  :MULTIPLE LINES PER DEPTH STEP
#------------------------------------------------------------
~WELL INFORMATION
STRT.M          4.03750  :FIRST INDEX VALUE
STOP.M          359.938  :LAST INDEX VALUE
STEP.M          0.00000  :STEP
NULL.            -99999  :NULL VALUE
COMP.                    :COMPANY
WELL.                    :WELL
FLD.                     :FLD
LOC.                     :LOCATION
SRVC.                    :
CTRY.                    :COUNTRY
STAT.                    :STATE
CNTY.                    :
DATE.                    :DATE
API.                     :API
#------------------------------------------------------------
~CURVE INFORMATION
DEPT.M                   :DEPTH
SPEED.MT/MIN             :Speed
TIME.SEC                 :Time
POSCOUNT.COUNT           :Poscount
NEGCOUNT.COUNT           :Negcount
POSDT.SEC                :Posdt
NEGDT.SEC                :Negdt
MAG_SUSC.10E-3_SI_UNITS   :Mag Susc
INDUCTION.MS/M           :Induction
IND_RES.OHM-M            :Ind Res
#------------------------------------------------------------
~PARAMETER INFORMATION
BIT_FROM1.               :BIT FROM1
BIT_FROM2.               :BIT FROM2
BIT_FROM3.               :BIT FROM3
BIT_FROM4.               :BIT FROM4
BIT_FROM5.               :BIT FROM5
BIT_FROM6.               :BIT FROM6
BIT_TO1.                 :BIT TO1
BIT_TO2.                 :BIT TO2
BIT_TO3.                 :BIT TO3
BIT_TO4.                 :BIT TO4
BIT_TO5.                 :BIT TO5
BIT_TO6.                 :BIT TO6
BIT1.                    :BIT1
BIT2.                    :BIT2
BIT3.                    :BIT3
BIT4.                    :BIT4
BIT5.                    :BIT5
BIT6.                    :BIT6
BTM_LOGGED_INTERVAL.     :BTM LOGGED INTERVAL
CASING_FROM1.            :CASING FROM1
CASING_FROM2.            :CASING FROM2
CASING_FROM3.            :CASING FROM3
CASING_FROM4.            :CASING FROM4
CASING_FROM5.            :CASING FROM5
CASING_FROM6.            :CASING FROM6
CASING_SIZE1.            :CASING SIZE1
CASING_SIZE2.            :CASING SIZE2
CASING_SIZE3.            :CASING SIZE3
CASING_SIZE4.            :CASING SIZE4
CASING_SIZE5.            :CASING SIZE5
CASING_SIZE6.            :CASING SIZE6
CASING_TO1.              :CASING TO1
CASING_TO2.              :CASING TO2
CASING_TO3.              :CASING TO3
CASING_TO4.              :CASING TO4
CASING_TO5.              :CASING TO5
CASING_TO6.              :CASING TO6
CO.                      :CO
CTY.                     :CTY
D_F_.                    :D.F.
DENSITY.                 :DENSITY
DEPTH-DRILLER.           :DEPTH-DRILLER
DEPTH-LOGGER.            :DEPTH-LOGGER
DRILLING_MEAS__FROM.     :DRILLING MEAS. FROM
ELEVATION.               :ELEVATION
FIELD.                   :FIELD
FILING_No.               :FILING No
G_L_.                    :G.L.
K_B_.                    :K.B.
LEVEL.                   :LEVEL
LOG_MEAS__FROM.          :LOG MEAS. FROM
MAX__REC__TEMP_.         :MAX. REC. TEMP.
OPERATING_RIG_TIME.      :OPERATING RIG TIME
OTHER_SERVICES.          :OTHER SERVICES
PERMANENT_DATUM.         :PERMANENT DATUM
RECORDED_BY.             :RECORDED BY
RGE.                     :RGE
RUN_No.                  :RUN No
RUN1.                    :RUN1
RUN2.                    :RUN2
RUN3.                    :RUN3
RUN4.                    :RUN4
RUN5.                    :RUN5
RUN6.                    :RUN6
SALINITY.                :SALINITY
SEC.                     :SEC
STE.                     :STE
TITLE.                   :TITLE
TOP_LOGGED_INTERVAL.     :TOP LOGGED INTERVAL
TWP.                     :TWP
TYPE_FLUID_IN_HOLE.      :TYPE FLUID IN HOLE
TYPE_LOG.                :TYPE LOG
WELL_ID.                 :WELL ID
WGT1.                    :WGT1
WGT2.                    :WGT2
WGT3.                    :WGT3
WGT4.                    :WGT4
WGT5.                    :WGT5
WGT6.                    :WGT6
WITNESSED_BY.            :WITNESSED BY
#------------------------------------------------------------
~OTHER
#------------------------------------------------------------
~A
# ...
   74.3875
     5.40000    0.550000     69.1461     68.1983    0.542658
    0.542749    0.862706     2.53528     276.791
   74.4375
     5.32495    0.550000     37.4033     66.3996    0.530553
    0.541263     1.18431     3.30862     231.002
   74.4875
     5.27500    0.580021     50.0064     70.2030    0.567891
    0.569529     1.67777     4.08567     198.212
   74.5375
     5.29001    0.569989     54.7996     66.9979    0.561862
    0.564677     1.28887     4.80162     213.355
   74.5875
     5.30000    0.550000     55.2006     51.5948    0.540192
    0.537173    0.896288     4.80873     198.212
   74.6375
     5.30000    0.580029     60.8046     62.6180    0.568293
    0.569069    0.692538     4.92350     198.212
   74.6875
     5.30000    0.569982     64.0000     90.0092    0.558329
    0.562809    0.530001     5.04509     213.355
   74.7375
     5.30000    0.550000     66.4017     93.3953    0.545418
    0.545948    0.862723     4.80868     198.212
   74.7875
     5.30000    0.580011     80.0043     84.7985    0.571164
    0.574097    0.378513     4.92335     276.791
   74.8375
     5.30000    0.569986     79.5962     71.1951    0.563777
    0.561531    0.429001     4.09966     345.220
   74.8875
     5.31501    0.550000     69.1954     62.7988    0.540144
    0.538078    0.492548     3.13990     458.594
   74.9375
     5.32500    0.550000     64.1989     63.8011    0.541469
    0.540242    0.548632     2.42395     367.962
   74.9875
     5.32500    0.580021     62.3996     70.4038    0.570183
    0.573654    0.593491     2.53520     458.594
   75.0375
     5.32500    0.569989     65.0011     66.1972    0.560255
    0.560859    0.609388     2.36319     458.594
   75.0875
     5.32500    0.550000     60.3970     55.5975    0.544111
    0.538813    0.668261     2.18058     458.594
   75.1375
     5.32500    0.580029     59.6035     59.8075    0.572518
    0.574022    0.649573     2.18058     458.594
   75.1875
     5.38504    0.569982     59.5985     58.3960    0.558081
    0.559716    0.660796     2.18058     345.220
   75.2375
     5.37997    0.550000     58.6004     57.0021    0.537226
    0.541760    0.699114     2.65341     485.149
   75.2875
     5.35000    0.550000     59.6002     67.4030    0.540765
    0.542061    0.679487     2.34528     345.220
   75.3375
     5.31999    0.550000     60.0000     69.9986    0.540963
    0.540186    0.694423     2.61273     458.594
   75.3875
     5.30000    0.580029     64.2041     72.2041    0.574685
    0.573460    0.654249     2.42377     485.149
   75.4375
     5.31501    0.569982     63.3978     71.9982    0.562952
    0.563848    0.668264     2.10178     345.220
   75.4875
     5.32500    0.550000     61.0000     70.6004    0.537408
    0.539621    0.638360     2.61286     458.594
   75.5375
     5.30999    0.550000     61.6002     71.6002    0.539838
    0.542394    0.593491     2.42406     345.220
   75.5875
     5.33001    0.580014     65.0014     75.6016    0.569985
    0.572516    0.593491     2.65330     367.962
   75.6375
     5.35000    0.569971     63.9971     74.3965    0.564751
    0.562242    0.599102     2.77847     458.594
   75.6875
     5.31998    0.550000     61.3996     72.0000    0.543481
    0.542971    0.627144     2.36311     345.220
   75.7375
     5.30000    0.580021     64.6026     75.6026    0.570406
    0.570734    0.649573     2.65341     458.594
   75.7875
     5.33001    0.569989     63.3987     74.3987    0.559849
    0.564119    0.638352     2.42406     345.220
   75.8375
     5.35000    0.550000     60.3997     70.7995    0.537462
    0.540247    0.604723     2.65330     458.594
   75.8875
     5.35000    0.550000     60.0000     69.3994    0.539898
    0.540328    0.649573     2.42377     345.220
   75.9375
     5.35000    0.550000     60.0000     68.3996    0.540965
    0.543561    0.643961     2.65334     485.149
   75.9875
     5.39503    0.580021     63.6026     72.2030    0.571166
    0.572125    0.627138     2.34507     345.220
   76.0375
     5.39499    0.569989     62.9989     70.7985    0.561604
    0.560647    0.638352     2.61265     458.594
   76.0875
     5.37500    0.550000     61.0000     68.0000    0.542959
    0.541544    0.599107     2.42399     367.962
   76.1375
     5.34497    0.550000     60.3994     68.0000    0.540832
    0.541740    0.615921     2.53528     458.594
   76.1875
     5.32500    0.550000     60.6004     68.0000    0.542000
    0.540904    0.582268     2.36311     345.220
   76.2375
     5.30999    0.550000     61.0000     68.6004    0.543026
    0.544755    0.548622     2.65341     485.149
   76.2875
     5.30000    0.580011     64.0011     72.0011    0.567442
    0.571657    0.599102     2.34528     458.594
   76.3375
     5.30000    0.569986     62.9986     70.9986    0.561196
    0.563574    0.593452     2.14001     345.220
   76.3875
     5.33003    0.550000     60.3994     68.3994    0.542920
    0.542641    0.458883     2.65352     458.594
   76.4375
     5.35000    0.580018     63.6022     71.6022    0.568736
    0.568357    0.357939     2.42395     682.851
   76.4875
     5.33499    0.569979     62.3974     70.9979    0.558244
    0.562761    0.313080     1.70775     485.149
   76.5375
     5.32500    0.550000     59.3998     68.3998    0.539385
    0.541321    0.301858     1.85832     458.594
   76.5875
     5.34001    0.550000     59.6003     68.6003    0.541246
    0.542957    0.223302     2.14001     682.851
   76.6375
     5.35000    0.580029     63.6035     72.6035    0.574367
    0.575081   0.0719189     1.70764     458.594
   76.6875
     5.36501    0.569982     61.1971     70.7974    0.560257
    0.560479   0.0663560     1.93721    -99999.0
   76.7375
     5.37500    0.550000     56.7991     68.6004    0.538429
    0.542397    0.772813    -99999.0     231.002
   76.7875
     5.40501    0.550000     55.3998     68.3998    0.539488
    0.540321     2.92385     4.32897     187.144
   76.8375
     5.40999    0.550000     55.0000     68.6003    0.540496
    0.542395     3.94690     4.99865     276.791
   76.8875
     5.40000    0.550000     54.3994     68.3994    0.544462
    0.541178     2.97133     4.20055     345.220
   76.9375
     5.33996    0.550000     52.1989     68.6004    0.538835
    0.542792     2.88274     3.14008     231.002
   76.9875
     5.30000    0.580021     52.8013     72.0021    0.565762
    0.570106     5.35257     3.84237     115.932
   77.0375
     5.30000    0.569989     54.6002     70.9989    0.560646
    0.562082     10.6657     7.16486     126.428
   77.0875
     5.30000    0.550000     79.6113     68.3997    0.542620
    0.541856     8.71287     8.15302     231.002
   77.1375
     5.31501    0.580029     119.423     72.2041    0.576394
    0.573007     4.85574     5.54492     711.859
   77.1875
     5.32500    0.569982     116.389     70.7974    0.564613
    0.561871     5.05776     2.39853    -714.251
   77.2375
     5.30999    0.550000     99.1966     68.6004    0.542904
    0.544102     6.05584   -0.447141     682.851
   77.2875
     5.31501    0.580011     117.007     72.0011    0.575196
    0.571294     5.78623    0.490531     198.212
   77.3375
     5.32500    0.569986     198.831     70.3984    0.567214
    0.558579     1.27717     3.82805     296.373
   77.3875
     5.34001    0.550000     230.787     68.6006    0.548629
    0.545052   -0.247742     3.94157    -353.067
   77.4375
     5.35000    0.550000     170.369     68.3996    0.546673
    0.545004    -99999.0   -0.723116    -200.774
   77.4875
     5.35000    0.550000     136.000     67.3996    0.546191
    0.538243    0.556997    -4.25081     198.212
   77.5375
     5.35000    0.580011     155.207     71.2015    0.575868
    0.570131     1.22167     1.63638     126.428
   77.5875
     5.38001    0.569986     169.801     70.3984    0.566050
    0.564443     1.65890     6.93597     458.594
   77.6375
     5.41501    0.550000     115.747     67.3994    0.544203
    0.540371     1.15429     4.12611     485.149
   77.6875
     5.42500    0.550000     58.5876     67.6004    0.537235
    0.542288    0.971136     2.10178     458.594
