#------------------------------------------------------------
~VERSION INFORMATION
VERS.               2.0  :CWLS LOG ASCII STANDARD - VERSION 2.0
WRAP.               YES  :MULTIPLE LINES PER DEPTH STEP
#------------------------------------------------------------
~WELL INFORMATION
STRT.M          4.03750  :FIRST INDEX VALUE
STOP.M          359.938  :LAST INDEX VALUE
STEP.M          0.00000  :STEP
NULL.            -99999  :NULL VALUE
COMP.                    :COMPANY
WELL.                    :WELL
FLD.                     :FLD
LOC.                     :LOCATION
SRVC.                    :
CTRY.                    :COUNTRY
STAT.                    :STATE
CNTY.                    :
DATE.                    :DATE
API.                     :API
#------------------------------------------------------------
~CURVE INFORMATION
DEPT.M                   :DEPTH
SPEED.MT/MIN             :Speed
TIME.SEC                 :Time
POSCOUNT.COUNT           :Poscount
NEGCOUNT.COUNT           :Negcount
POSDT.SEC                :Posdt
NEGDT.SEC                :Negdt
MAG_SUSC.10E-3_SI_UNITS   :Mag Susc
INDUCTION.MS/M           :Induction
IND_RES.OHM-M            :Ind Res
#------------------------------------------------------------
~PARAMETER INFORMATION
BIT_FROM1.               :BIT FROM1
BIT_FROM2.               :BIT FROM2
BIT_FROM3.               :BIT FROM3
BIT_FROM4.               :BIT FROM4
BIT_FROM5.               :BIT FROM5
BIT_FROM6.               :BIT FROM6
BIT_TO1.                 :BIT TO1
BIT_TO2.                 :BIT TO2
BIT_TO3.                 :BIT TO3
BIT_TO4.                 :BIT TO4
BIT_TO5.                 :BIT TO5
BIT_TO6.                 :BIT TO6
BIT1.                    :BIT1
BIT2.                    :BIT2
BIT3.                    :BIT3
BIT4.                    :BIT4
BIT5.                    :BIT5
BIT6.                    :BIT6
BTM_LOGGED_INTERVAL.     :BTM LOGGED INTERVAL
CASING_FROM1.            :CASING FROM1
CASING_FROM2.            :CASING FROM2
CASING_FROM3.            :CASING FROM3
CASING_FROM4.            :CASING FROM4
CASING_FROM5.            :CASING FROM5
CASING_FROM6.            :CASING FROM6
CASING_SIZE1.            :CASING SIZE1
CASING_SIZE2.            :CASING SIZE2
CASING_SIZE3.            :CASING SIZE3
CASING_SIZE4.            :CASING SIZE4
CASING_SIZE5.            :CASING SIZE5
CASING_SIZE6.            :CASING SIZE6
CASING_TO1.              :CASING TO1
CASING_TO2.              :CASING TO2
CASING_TO3.              :CASING TO3
CASING_TO4.              :CASING TO4
CASING_TO5.              :CASING TO5
CASING_TO6.              :CASING TO6
CO.                      :CO
CTY.                     :CTY
D_F_.                    :D.F.
DENSITY.                 :DENSITY
DEPTH-DRILLER.           :DEPTH-DRILLER
DEPTH-LOGGER.            :DEPTH-LOGGER
DRILLING_MEAS__FROM.     :DRILLING MEAS. FROM
ELEVATION.               :ELEVATION
FIELD.                   :FIELD
FILING_No.               :FILING No
G_L_.                    :G.L.
K_B_.                    :K.B.
LEVEL.                   :LEVEL
LOG_MEAS__FROM.          :LOG MEAS. FROM
MAX__REC__TEMP_.         :MAX. REC. TEMP.
OPERATING_RIG_TIME.      :OPERATING RIG TIME
OTHER_SERVICES.          :OTHER SERVICES
PERMANENT_DATUM.         :PERMANENT DATUM
RECORDED_BY.             :RECORDED BY
RGE.                     :RGE
RUN_No.                  :RUN No
RUN1.                    :RUN1
RUN2.                    :RUN2
RUN3.                    :RUN3
RUN4.                    :RUN4
RUN5.                    :RUN5
RUN6.                    :RUN6
SALINITY.                :SALINITY
SEC.                     :SEC
STE.                     :STE
TITLE.                   :TITLE
TOP_LOGGED_INTERVAL.     :TOP LOGGED INTERVAL
TWP.                     :TWP
TYPE_FLUID_IN_HOLE.      :TYPE FLUID IN HOLE
TYPE_LOG.                :TYPE LOG
WELL_ID.                 :WELL ID
WGT1.                    :WGT1
WGT2.                    :WGT2
WGT3.                    :WGT3
WGT4.                    :WGT4
WGT5.                    :WGT5
WGT6.                    :WGT6
WITNESSED_BY.            :WITNESSED BY
#------------------------------------------------------------
~OTHER
#------------------------------------------------------------
~A
# ...
   238.538
     4.82500    0.619982     1176.16     109.197    0.619564
    0.615824     56.9441     32.0521     29.2164
   238.588
     4.84001    0.630021     1205.25     113.806    0.629268
    0.623614     57.0271     33.5583     28.6666
   238.637
     4.85000    0.619988     1202.18     115.399    0.619488
    0.613039     56.9552     34.6607     31.0001
   238.688
     4.85000    0.630012     1223.62     119.603    0.629531
    0.626203     56.5028     33.1506     32.3153
   238.738
     4.83499    0.619979     1192.15     119.197    0.619373
    0.616501    -99999.0     31.3911     32.4404
   238.788
     4.84001    0.600000     1148.80     115.400    0.599556
    0.592338     55.3344     30.8663     33.7471
   238.838
     4.85000    0.630021     1214.85     120.404    0.629538
    0.625005     54.0713     30.0377     34.0211
   238.887
     4.85000    0.619988     1200.98     118.598    0.619390
    0.615708     52.7784     29.4746     34.5116
   238.938
     4.85000    0.630012     1221.82     122.203    0.629579
    0.623484     52.3395     29.1178     33.0157
   238.988
     4.88002    0.619979     1196.15     120.996    0.619627
    0.614646     52.4842     29.8426     33.0157
   239.038
     4.86998    -99999.0    -99999.0    -99999.0    -99999.0
    -99999.0     51.9130     30.2886     32.3153
   239.088
     4.85000    0.600000     1135.00     116.000    0.599886
    0.593517     51.2692     30.7221     31.0001
   239.137
     4.85000    0.630012     1176.42     123.803    0.629581
    0.625697     51.0193     31.8117     31.6440
   239.188
     4.81999    0.619988     1131.37     122.397    0.619137
    0.613876     52.5318     31.8247     31.6440
   239.238
     4.80000    0.630021     1129.23     124.605    0.629332
    0.624621     53.2229     31.6015     31.0001
   239.288
     4.81501    0.619982     1110.17     124.197    0.619536
    0.615071     52.5442     32.0349     31.7039
   239.338
     4.82500    0.630021     1123.83     125.803    0.629529
    0.624001     51.8757     31.7852     35.3116
   239.387
     4.84001    0.619988     1094.38     122.998    0.619490
    0.614593     50.8375     29.4148     33.7471
   239.438
     4.89502    0.600000     1045.60     120.200    0.599227
    0.595854     50.9292     29.1859     31.6440
   239.488
     4.92500    0.630021     1112.65     125.803    0.629664
    0.624892     51.5021     30.9325     31.0001
   239.538
     4.90999    0.619982     1119.57     123.597    0.619696
    0.614664     51.5272     32.0349     32.3153
   239.588
     4.90000    0.600000     1083.59     121.801    0.599442
    0.595786     50.9029     31.3911     34.0211
   239.637
     5.00504    0.600000     1072.00     123.600    0.599350
    0.596355     50.5188     29.9209     37.0283
   239.688
     5.13502    0.600000     1052.99     121.599    0.599347
    0.594380     49.3670     27.8179     39.9408
   239.738
     5.17500    0.600000     1042.40     118.799    0.599431
    0.594299     47.3212     25.7061     38.9204
   239.788
     5.17500    0.569982     996.973     111.996    0.569089
    0.565983     46.4389     25.4704     36.7039
   239.838
     5.17500    0.580021     1022.24     112.803    0.579334
    0.574884     46.5162     26.7179     38.9204
   239.887
     5.12998    0.569988     998.375     109.998    0.569552
    0.565816     45.4500     26.2209     43.3507
   239.938
     5.10000    0.580012     1007.22     111.402    0.579510
    0.573659     42.9714     23.9603     51.1956
   239.988
     5.10000    0.600000     1029.79     116.201    0.599549
    0.594490     37.6343     20.7338     81.5563
   240.038
     5.10000    0.600000     996.584     117.000    0.599326
    0.596851     33.1663     14.7326     65.8317
   240.088
     5.10000    0.600000     965.190     117.600    0.599225
    0.594872     33.7282     14.1952     56.4491
   240.137
     5.08499    0.569988     911.582     113.198    0.569467
    0.564921     30.7576     16.8568     58.2764
   240.188
     5.09001    0.580012     919.815     115.402    0.579322
    0.575332     23.0164     17.3484     74.2204
   240.238
     5.10000    0.600000     923.985     119.000    0.599204
    0.593281     9.12846     14.7258     77.7156
   240.288
     5.10000    0.600000     849.363     119.600    0.599632
    0.593394     20.0102     13.0734     56.1291
   240.338
     5.10000    0.569979     705.126     113.395    0.569066
    0.567176     24.8201     16.1348     45.9669
   240.387
     5.13001    0.580012     686.421     112.001    0.579185
    0.574651     24.6295     20.4158     31.0001
   240.438
     5.15000    0.600000     689.988     115.200    0.599063
    0.593151     22.2847     28.6875     38.1702
   240.488
     5.16501    0.600000     616.562     117.801    0.599160
    0.594196     19.9155     28.2571     48.9192
   240.538
     5.15999    0.569982     333.649     113.597    0.568800
    0.567085     22.2156     22.3982     35.6935
   240.588
     5.15000    0.580021     319.707     114.803    0.578600
    0.575811     25.5145     25.4429     34.9378
   240.637
     5.11999    0.569988     462.617     110.797    0.568999
    0.565032     29.7219     28.4163     37.9508
   240.688
     5.10000    0.580012     521.012     109.601    0.579011
    0.574174     31.4619     27.1224     46.8366
   240.738
     5.10000    0.600000     516.983     110.199    0.598186
    0.592712     31.5306     23.0492     65.8317
   240.788
     5.08499    0.600000     460.175     109.600    0.598655
    0.595624     33.8347     17.2839     66.3530
   240.838
     5.07500    0.569979     434.201     105.797    0.569043
    0.565939     35.2436     15.1115     45.9669
   240.887
     4.92494    0.580012     493.224     107.202    0.579020
    0.573170     40.2061     19.4826     51.6324
   240.938
     4.82500    0.600000     586.622     107.599    0.598831
    0.593611     41.0287     20.1792     55.7556
   240.988
     4.77997    0.630021     683.643     107.801    0.628924
    0.623635     41.1007     18.4220     47.3971
   241.038
     4.75000    0.650000     716.195     101.796    0.649169
    0.645163     41.4195     20.0234     69.6632
   241.088
     4.75000    0.619979     711.000     95.1987    0.619031
    0.613571     41.5254     16.6459     60.5945
   241.137
     4.76501    0.630012     750.016     101.203    0.629416
    0.624022     41.0858     15.7728     49.7914
   241.188
     4.77500    0.619988     809.614     100.598    0.619305
    0.612540     39.5608     18.8666     52.2767
   241.238
     4.77500    0.630021     886.639     98.2009    0.629051
    0.625105     39.1907     19.4534     60.5945
   241.288
     4.80502    0.650000     923.000     98.3996    0.649364
    0.644516     38.0483     17.3955     63.1046
   241.338
     4.82500    0.619979     884.573     98.0000    0.619392
    0.613988     36.2467     16.0697     60.5945
   241.387
     4.79499    0.600000     860.801     101.601    0.599082
    0.593577     34.7522     16.2800     60.5945
   241.438
     4.74499    0.630012     904.017     119.606    0.629346
    0.624713     33.8845     16.5032     54.1345
   241.488
     4.72500    0.650000     908.583     123.996    0.649269
    0.645702     33.5923     17.8034     51.6324
   241.538
     4.74001    0.619982     849.173     109.193    0.619208
    0.613798     32.5966     19.0635     54.1345
   241.588
     4.75000    0.630021     848.820     114.609    0.629389
    0.624425     31.3936     18.7766     49.7914
   241.637
     4.73499    0.650000     844.590     123.600    0.649059
    0.644376     30.4068     19.5361     48.9192
   241.688
     4.84505    0.619988     771.977     116.197    0.619172
    0.612890     29.6578     20.3201     58.0744
   241.738
     4.92500    0.630021     757.417     111.600    0.629201
    0.622833     27.1879     18.3141     60.5945
   241.788
     5.12012    0.619982     735.777     101.193    0.619073
    0.614525     24.2265     16.7465     58.2764
   241.838
     5.25000    0.569979     665.367     89.1966    0.569349
    0.563818     23.8000     16.9366     81.9243
