#------------------------------------------------------------
~VERSION INFORMATION
VERS.               2.0  :CWLS LOG ASCII STANDARD - VERSION 2.0
WRAP.               YES  :MULTIPLE LINES PER DEPTH STEP
#------------------------------------------------------------
~WELL INFORMATION
STRT.M          4.03750  :FIRST INDEX VALUE
STOP.M          359.938  :LAST INDEX VALUE
STEP.M          0.00000  :STEP
NULL.            -99999  :NULL VALUE
COMP.                    :COMPANY
WELL.                    :WELL
FLD.                     :FLD
LOC.                     :LOCATION
SRVC.                    :
CTRY.                    :COUNTRY
STAT.                    :STATE
CNTY.                    :
DATE.                    :DATE
API.                     :API
#------------------------------------------------------------
~CURVE INFORMATION
DEPT.M                   :DEPTH
SPEED.MT/MIN             :Speed
TIME.SEC                 :Time
POSCOUNT.COUNT           :Poscount
NEGCOUNT.COUNT           :Negcount
POSDT.SEC                :Posdt
NEGDT.SEC                :Negdt
MAG_SUSC.10E-3_SI_UNITS   :Mag Susc
INDUCTION.MS/M           :Induction
IND_RES.OHM-M            :Ind Res
#------------------------------------------------------------
~PARAMETER INFORMATION
BIT_FROM1.               :BIT FROM1
BIT_FROM2.               :BIT FROM2
BIT_FROM3.               :BIT FROM3
BIT_FROM4.               :BIT FROM4
BIT_FROM5.               :BIT FROM5
BIT_FROM6.               :BIT FROM6
BIT_TO1.                 :BIT TO1
BIT_TO2.                 :BIT TO2
BIT_TO3.                 :BIT TO3
BIT_TO4.                 :BIT TO4
BIT_TO5.                 :BIT TO5
BIT_TO6.                 :BIT TO6
BIT1.                    :BIT1
BIT2.                    :BIT2
BIT3.                    :BIT3
BIT4.                    :BIT4
BIT5.                    :BIT5
BIT6.                    :BIT6
BTM_LOGGED_INTERVAL.     :BTM LOGGED INTERVAL
CASING_FROM1.            :CASING FROM1
CASING_FROM2.            :CASING FROM2
CASING_FROM3.            :CASING FROM3
CASING_FROM4.            :CASING FROM4
CASING_FROM5.            :CASING FROM5
CASING_FROM6.            :CASING FROM6
CASING_SIZE1.            :CASING SIZE1
CASING_SIZE2.            :CASING SIZE2
CASING_SIZE3.            :CASING SIZE3
CASING_SIZE4.            :CASING SIZE4
CASING_SIZE5.            :CASING SIZE5
CASING_SIZE6.            :CASING SIZE6
CASING_TO1.              :CASING TO1
CASING_TO2.              :CASING TO2
CASING_TO3.              :CASING TO3
CASING_TO4.              :CASING TO4
CASING_TO5.              :CASING TO5
CASING_TO6.              :CASING TO6
CO.                      :CO
CTY.                     :CTY
D_F_.                    :D.F.
DENSITY.                 :DENSITY
DEPTH-DRILLER.           :DEPTH-DRILLER
DEPTH-LOGGER.            :DEPTH-LOGGER
DRILLING_MEAS__FROM.     :DRILLING MEAS. FROM
ELEVATION.               :ELEVATION
FIELD.                   :FIELD
FILING_No.               :FILING No
G_L_.                    :G.L.
K_B_.                    :K.B.
LEVEL.                   :LEVEL
LOG_MEAS__FROM.          :LOG MEAS. FROM
MAX__REC__TEMP_.         :MAX. REC. TEMP.
OPERATING_RIG_TIME.      :OPERATING RIG TIME
OTHER_SERVICES.          :OTHER SERVICES
PERMANENT_DATUM.         :PERMANENT DATUM
RECORDED_BY.             :RECORDED BY
RGE.                     :RGE
RUN_No.                  :RUN No
RUN1.                    :RUN1
RUN2.                    :RUN2
RUN3.                    :RUN3
RUN4.                    :RUN4
RUN5.                    :RUN5
RUN6.                    :RUN6
SALINITY.                :SALINITY
SEC.                     :SEC
STE.                     :STE
TITLE.                   :TITLE
TOP_LOGGED_INTERVAL.     :TOP LOGGED INTERVAL
TWP.                     :TWP
TYPE_FLUID_IN_HOLE.      :TYPE FLUID IN HOLE
TYPE_LOG.                :TYPE LOG
WELL_ID.                 :WELL ID
WGT1.                    :WGT1
WGT2.                    :WGT2
WGT3.                    :WGT3
WGT4.                    :WGT4
WGT5.                    :WGT5
WGT6.                    :WGT6
WITNESSED_BY.            :WITNESSED BY
#------------------------------------------------------------
~OTHER
#------------------------------------------------------------
~A
   4.03750
    -99999.0    -99999.0    -99999.0    -99999.0    -99999.0
    -99999.0    -99999.0    -99999.0    -21.4548
   4.08750
    -99999.0    -99999.0    -99999.0    -99999.0    -99999.0
    -99999.0    -99999.0    -99999.0     66.9539
   4.13750
    -99999.0    -99999.0    -99999.0    -99999.0    -99999.0
    -99999.0    -99999.0    -5.94397     18.2722
   4.18750
    -99999.0    -99999.0    -99999.0    -99999.0    -99999.0
    -99999.0    -99999.0     41.2266     52.3827
   4.23750
    -99999.0    -99999.0    -99999.0    -99999.0    -99999.0
    -99999.0    -99999.0     31.2384     226.042
   4.28750
    -99999.0    -99999.0    -99999.0    -99999.0    -99999.0
    -99999.0    -99999.0     9.42348     333.350
   4.33750
    -99999.0    -99999.0    -99999.0    -99999.0    -99999.0
    -99999.0    -99999.0     3.48355     141.979
   4.38750
    -99999.0    -99999.0    -99999.0    -99999.0    -99999.0
    -99999.0    -99999.0     5.67410     333.343
   4.43750
    -99999.0    -99999.0    -99999.0    -99999.0    -99999.0
    -99999.0    -99999.0     4.37579     56.9826
   4.48750
    -99999.0    -99999.0    -99999.0    -99999.0    -99999.0
    -99999.0    -99999.0     12.6077     79.5851
   4.53750
    -99999.0    -99999.0    -99999.0    -99999.0    -99999.0
    -99999.0    -99999.0     14.2605     60.5849
   4.58750
    -99999.0    -99999.0    -99999.0    -99999.0    -99999.0
    -99999.0    -99999.0     15.1643     41.0185
   4.63750
    -99999.0    -99999.0    -99999.0    -99999.0    -99999.0
    -99999.0    -99999.0     21.7047     44.0808
   4.68750
    -99999.0    -99999.0    -99999.0    -99999.0    -99999.0
    -99999.0    -99999.0     23.2662     80.5896
   4.73750
    -99999.0    -99999.0    -99999.0    -99999.0    -99999.0
    -99999.0    -99999.0     15.8327    -1063.88
   4.78750
    -99999.0    -99999.0    -99999.0    -99999.0    -99999.0
    -99999.0     24.5376     3.56198     141.840
   4.83750
    -99999.0    -99999.0    -99999.0    -99999.0    -99999.0
    -99999.0     28.2399     4.33427     144.182
   4.88750
    -99999.0    -99999.0    -99999.0    -99999.0    -99999.0
    -99999.0     23.1256     6.97595     201.974
   4.93750
    -99999.0    -99999.0    -99999.0    -99999.0    -99999.0
    -99999.0     19.8649     5.62525     34.2676
   4.98750
    -99999.0    -99999.0    -99999.0    -99999.0    -99999.0
    -99999.0     20.0067     22.9783     5385.31
   5.03750
    -99999.0    -99999.0    -99999.0    -99999.0    -99999.0
    -99999.0     20.2843     11.0891     131.955
   5.08750
    -99999.0    -99999.0    -99999.0    -99999.0    -99999.0
    -99999.0     30.6856     5.06345     26.6619
   5.13750
     4.10000    0.750000     722.070     70.2567    0.748710
    0.235394     42.1274     27.3414     29.4685
   5.18750
     4.10000    0.719982     676.137     154.823    0.719542
    0.573549     45.0791     35.1571     56.9638
   5.23750
     4.08499    0.730018     570.978     146.980    0.728910
    0.725942     40.4285     23.1238     48.9220
   5.28750
     4.10501    0.750000     557.204     108.193    0.748218
    0.743680     39.9228     19.4599     60.5978
   5.33750
     4.12500    0.719988     512.979     91.5978    0.718985
    0.712735     42.0239     17.8420     67.4670
   5.38750
     4.14001    0.730024     641.731     96.4068    0.729058
    0.720488     40.1921     15.3885     24.5710
   5.43750
     4.13499    0.719982     897.690     93.5949    0.718767
    0.713082     42.0008     31.9020     23.9828
   5.48750
     4.14001    0.730018     1112.47     108.412    0.729222
    0.724716     43.8135     41.3667     37.5485
   5.53750
     4.15000    0.719988     1068.15     111.796    0.719346
    0.714080     44.0512     31.7578     32.1222
   5.58750
     4.15000    0.730012     1008.01     114.004    0.729466
    0.721051     40.2707     29.6025     35.3429
   5.63750
     4.18002    0.719976     1026.20     123.603    0.719081
    0.714059     34.1935     29.2750     77.9716
   5.68750
     4.20000    0.700000     991.777     124.199    0.699403
    0.696715     24.7982     18.0919     108.794
   5.73750
     4.18499    0.730018     1034.24     116.396    0.729324
    0.723273     18.1751     10.4249     45.1844
   5.78750
     4.12998    0.719988     1062.79     93.3925    0.719077
    0.712295     27.5156     17.7302     31.0006
   5.83750
     4.08499    0.730012     1113.83     93.6052    0.729609
    0.722518     34.4907     28.8152     32.1265
   5.88750
     4.07500    0.719976     1062.53     97.7966    0.719076
    0.712101     30.8034     31.5149     40.1491
   5.93750
     4.07500    0.730018     966.179     96.8011    0.729434
    0.720671     26.6119     27.0219     33.9617
   5.98750
     4.09001    0.750000     810.320     129.219    0.749122
    0.741933     38.9491     27.9023     33.3264
   6.03750
     4.11501    0.719988     548.530     109.784    0.718594
    0.714437     43.5617     29.8160     38.3582
   6.08750
     4.12500    0.730012     587.864     95.0049    0.728906
    0.721833     33.1985     27.4075     33.9711
   6.13750
     4.12500    0.750000     827.310     137.228    0.748981
    0.745547     19.6768     28.2978     46.3850
   6.18750
     4.12500    0.719982     847.757     149.794    0.719009
    0.716899     24.7951     24.2443     96.9221
   6.23750
     4.12500    0.730018     709.745     130.392    0.728683
    0.722798     33.9963     14.1378     38.3558
   6.28750
     4.14001    0.719988     806.263     120.199    0.719165
    0.714592     30.9458     20.7125     19.2584
   6.33750
     4.16501    0.730012     1065.26     119.600    0.729281
    0.725419     24.6506     43.1533     39.2688
   6.38750
     4.19001    0.719976     1005.27     113.395    0.719070
    0.712969     24.2877     34.4891     123.996
   6.43750
     4.20000    0.700000     655.052     136.617    0.698850
    0.694355     25.4563     13.9909     50.2966
   6.48750
     4.21501    0.730018     564.843     162.805    0.728724
    0.724909     25.1481     15.8640     38.3598
   6.53750
     4.24001    0.719988     750.656     145.191    0.719031
    0.715353     23.7732     23.9644     36.0351
   6.58750
     4.25000    0.700000     817.189     134.802    0.699046
    0.694034     25.3882     27.1828     51.7986
   6.63750
     4.18995    0.700000     695.516     134.998    0.698873
    0.695346     26.7060     22.1835     91.9258
   6.68750
     4.19503    0.730018     641.009     120.993    0.729261
    0.721548     23.4906     13.7447     47.6080
   6.73750
     4.24001    0.719982     644.396     104.595    0.719108
    0.712126     20.6621     17.5629     46.3738
   6.78750
     4.25000    0.700000     641.801     112.806    0.698520
    0.695177     19.5775     21.3759     76.1696
   6.83750
     4.23499    0.700000     614.788     132.804    0.698580
    0.693872     13.7067     15.9961     58.6211
   6.88750
     4.20999    0.700000     615.216     138.799    0.699059
    0.695667     5.87405     15.7279     92.0295
   6.93750
     4.20000    0.730018     690.438     136.799    0.729344
    0.724291     1.70575     12.9798     336.526
   6.98750
     4.21501    0.719982     659.957     135.400    0.718611
    0.715887     3.60886     5.67584     5385.36
   7.03750
     4.24001    0.700000     563.981     135.600    0.698858
    0.695274     5.12491     1.14209     333.331
   7.08750
     4.26501    0.700000     531.400     131.798    0.698711
    0.693930     5.02804     2.04268     102.593
   7.13750
     4.27500    0.700000     459.542     132.603    0.698857
    0.695726     5.47744     7.45750     156.906
   7.18750
     4.27500    0.700000     297.930     126.595    0.696183
    0.694262     7.31099     7.52237     280.690
   7.23750
     4.27500    0.700000     144.552     108.993    0.695673
    0.694535     10.0867     4.51767     156.867
   7.28750
     4.27500    0.700000     118.810     117.807    0.692902
    0.693485     8.87895     5.41860     178.254
   7.33750
     4.33502    0.700000     162.411     156.611    0.693883
    0.694445     6.70206     5.86079    -739.020
