#------------------------------------------------------------
~VERSION INFORMATION
VERS.               2.0  :CWLS LOG ASCII STANDARD - VERSION 2.0
WRAP.               YES  :MULTIPLE LINES PER DEPTH STEP
#------------------------------------------------------------
~WELL INFORMATION
STRT.M          4.03750  :FIRST INDEX VALUE
STOP.M          359.938  :LAST INDEX VALUE
STEP.M          0.00000  :STEP
NULL.            -99999  :NULL VALUE
COMP.                    :COMPANY
WELL.                    :WELL
FLD.                     :FLD
LOC.                     :LOCATION
SRVC.                    :
CTRY.                    :COUNTRY
STAT.                    :STATE
CNTY.                    :
DATE.                    :DATE
API.                     :API
#------------------------------------------------------------
~CURVE INFORMATION
DEPT.M                   :DEPTH
SPEED.MT/MIN             :Speed
TIME.SEC                 :Time
POSCOUNT.COUNT           :Poscount
NEGCOUNT.COUNT           :Negcount
POSDT.SEC                :Posdt
NEGDT.SEC                :Negdt
MAG_SUSC.10E-3_SI_UNITS   :Mag Susc
INDUCTION.MS/M           :Induction
IND_RES.OHM-M            :Ind Res
#------------------------------------------------------------
~PARAMETER INFORMATION
BIT_FROM1.               :BIT FROM1
BIT_FROM2.               :BIT FROM2
BIT_FROM3.               :BIT FROM3
BIT_FROM4.               :BIT FROM4
BIT_FROM5.               :BIT FROM5
BIT_FROM6.               :BIT FROM6
BIT_TO1.                 :BIT TO1
BIT_TO2.                 :BIT TO2
BIT_TO3.                 :BIT TO3
BIT_TO4.                 :BIT TO4
BIT_TO5.                 :BIT TO5
BIT_TO6.                 :BIT TO6
BIT1.                    :BIT1
BIT2.                    :BIT2
BIT3.                    :BIT3
BIT4.                    :BIT4
BIT5.                    :BIT5
BIT6.                    :BIT6
BTM_LOGGED_INTERVAL.     :BTM LOGGED INTERVAL
CASING_FROM1.            :CASING FROM1
CASING_FROM2.            :CASING FROM2
CASING_FROM3.            :CASING FROM3
CASING_FROM4.            :CASING FROM4
CASING_FROM5.            :CASING FROM5
CASING_FROM6.            :CASING FROM6
CASING_SIZE1.            :CASING SIZE1
CASING_SIZE2.            :CASING SIZE2
CASING_SIZE3.            :CASING SIZE3
CASING_SIZE4.            :CASING SIZE4
CASING_SIZE5.            :CASING SIZE5
CASING_SIZE6.            :CASING SIZE6
CASING_TO1.              :CASING TO1
CASING_TO2.              :CASING TO2
CASING_TO3.              :CASING TO3
CASING_TO4.              :CASING TO4
CASING_TO5.              :CASING TO5
CASING_TO6.              :CASING TO6
CO.                      :CO
CTY.                     :CTY
D_F_.                    :D.F.
DENSITY.                 :DENSITY
DEPTH-DRILLER.           :DEPTH-DRILLER
DEPTH-LOGGER.            :DEPTH-LOGGER
DRILLING_MEAS__FROM.     :DRILLING MEAS. FROM
ELEVATION.               :ELEVATION
FIELD.                   :FIELD
FILING_No.               :FILING No
G_L_.                    :G.L.
K_B_.                    :K.B.
LEVEL.                   :LEVEL
LOG_MEAS__FROM.          :LOG MEAS. FROM
MAX__REC__TEMP_.         :MAX. REC. TEMP.
OPERATING_RIG_TIME.      :OPERATING RIG TIME
OTHER_SERVICES.          :OTHER SERVICES
PERMANENT_DATUM.         :PERMANENT DATUM
RECORDED_BY.             :RECORDED BY
RGE.                     :RGE
RUN_No.                  :RUN No
RUN1.                    :RUN1
RUN2.                    :RUN2
RUN3.                    :RUN3
RUN4.                    :RUN4
RUN5.                    :RUN5
RUN6.                    :RUN6
SALINITY.                :SALINITY
SEC.                     :SEC
STE.                     :STE
TITLE.                   :TITLE
TOP_LOGGED_INTERVAL.     :TOP LOGGED INTERVAL
TWP.                     :TWP
TYPE_FLUID_IN_HOLE.      :TYPE FLUID IN HOLE
TYPE_LOG.                :TYPE LOG
WELL_ID.                 :WELL ID
WGT1.                    :WGT1
WGT2.                    :WGT2
WGT3.                    :WGT3
WGT4.                    :WGT4
WGT5.                    :WGT5
WGT6.                    :WGT6
WITNESSED_BY.            :WITNESSED BY
#------------------------------------------------------------
~OTHER
#------------------------------------------------------------
~A
# ...
   261.988
     5.27500    0.600000     66.0000     74.0000    0.594915
    0.592372     1.12813     2.18058     485.149
   262.038
     5.29001    0.569982     61.7974     70.3978    0.559254
    0.563219     1.08514     2.10178     458.594
   262.087
     5.30000    0.550000     59.0000     67.3999    0.538830
    0.538878     1.06826     2.13999     485.149
   262.138
     5.30000    0.580037     63.2051     71.2051    0.575322
    0.569616     1.22630     2.10174     682.851
   262.188
     5.30000    0.569982     63.5985     70.3978    0.563448
    0.563136     1.25150     1.66726     458.594
   262.238
     5.26996    0.550000     65.0037     68.0000    0.541144
    0.543769     1.05331     1.93750     485.149
   262.288
     5.23499    0.580018     72.4033     71.6022    0.570568
    0.573007    0.854261     2.10178     458.594
   262.337
     5.22500    0.569994     71.7991     69.7991    0.562107
    0.558530    0.761763     2.13999     485.149
   262.388
     5.22500    0.580037     72.0037     71.2051    0.570939
    0.569910    0.699104     2.10174     458.594
   262.438
     5.22500    0.569982     72.1989     70.3978    0.562955
    0.563233    0.724381     2.14002     367.962
   262.488
     5.24002    0.580037     75.8059     71.6044    0.573125
    0.573016    0.941214     2.53536     682.851
   262.538
     5.25000    0.569982     72.9963     70.3978    0.560088
    0.563337    0.964555     1.89035     458.594
   262.587
     5.25000    0.550000     66.5995     68.0000    0.542427
    0.543906    0.900034     1.93706     367.962
   262.638
     5.26502    0.580037     67.4029     71.6044    0.569404
    0.572998     1.01976     2.53536     458.594
   262.688
     5.27500    0.569982     64.7974     69.7974    0.561390
    0.558326     1.14028     2.36311     458.594
   262.738
     5.27500    0.580037     65.0037     71.2051    0.570024
    0.569552     1.12071     2.18058     485.149
   262.788
     5.27500    0.569982     66.3996     70.3978    0.560826
    0.563077     1.30202     2.10178     458.594
   262.837
     5.30501    0.550000     66.6001     68.0000    0.542638
    0.543800     1.43101     2.13999     458.594
   262.888
     5.32500    0.580037     69.4029     71.6044    0.570753
    0.573069     1.27757     2.18058     485.149
   262.938
     5.30999    0.569982     68.5985     70.3978    0.562972
    0.562419    0.823397     2.10178     458.594
   262.988
     5.25494    0.550000     68.8022     68.0000    0.543244
    0.542307    0.683298     2.14006     485.149
   263.038
     5.22500    0.580018     73.0018     71.6022    0.570891
    0.571722    0.929984     2.10178     682.851
   263.087
     5.24000    0.569994     73.1996     70.3993    0.564212
    0.562445    0.862809     1.66738     485.149
   263.138
     5.25000    0.580037     78.0073     71.6044    0.574029
    0.572311    0.568223     1.85866     458.594
   263.188
     5.23499    0.569982     77.1971     69.7974    0.559444
    0.557455    0.458889     2.14002     485.149
   263.238
     5.22500    0.550000     68.5934     67.6007    0.542806
    0.539900    0.436475     2.10174     682.851
   263.288
     5.24001    0.580018     65.6004     71.6022    0.569730
    0.572414    0.488809     1.66726     458.594
   263.337
     5.26500    0.569994     66.0000     70.3993    0.559259
    0.562323    0.533643     1.93706     367.962
   263.388
     5.27500    0.580037     69.6044     71.6044    0.573000
    0.572455    0.593491     2.53536     682.851
   263.438
     5.25999    0.569982     64.7956     70.3978    0.562503
    0.561953    0.588815     1.89035     458.594
   263.488
     5.25000    0.580037     61.8022     72.2051    0.574349
    0.575191    0.574803     1.93750     458.594
   263.538
     5.26501    0.569982     59.3978     70.1971    0.561521
    0.559468    0.582268     2.18058     485.149
   263.587
     5.27500    0.550000     57.6001     67.6001    0.538511
    0.539172    0.533677     2.10181     458.594
   263.638
     5.30504    0.580037     61.6044     72.2051    0.566758
    0.576014    0.544918     2.14006     367.962
   263.688
     5.29498    0.569982     61.5985     70.7974    0.559524
    0.564044    0.664537     2.53515     458.594
   263.738
     5.27500    0.550000     60.0000     68.0000    0.541812
    0.541926    0.709376     2.36289     485.149
   263.788
     5.25999    0.580018     63.0018     71.6022    0.571119
    0.571057    0.674825     2.10178     458.594
   263.837
     5.25000    0.569994     61.9994     70.3993    0.562977
    0.560621    0.806547     2.13999     458.594
   263.888
     5.23498    0.550000     59.3993     68.0000    0.543675
    0.542278    0.919690     2.18058     367.962
   263.938
     5.22500    0.580018     62.0018     71.6022    0.571759
    0.572792    0.866417     2.53515     458.594
   263.988
     5.24002    0.569963     62.1978     70.3956    0.560104
    0.562829    0.817820     2.36289     485.149
   264.038
     5.25000    0.580018     65.2026     71.6022    0.569146
    0.572520    0.809402     2.10178     458.594
   264.087
     5.25000    0.569994     63.7991     69.7991    0.558184
    0.559015    0.761763     2.13999     458.594
   264.138
     5.26502    0.580037     65.8059     71.2051    0.570803
    0.569977    0.660735     2.18058    -99999.0
   264.188
     5.27500    0.569982     67.1989     70.3978    0.563812
    0.562732    0.481327    -99999.0     682.851
   264.238
     5.25998    0.580037     69.0037     71.6044    0.569632
    0.574804    0.478519     1.46445     458.594
   264.288
     5.25000    0.569982     66.7974     69.7974    0.560506
    0.560017    0.458889     1.93721     485.149
   264.337
     5.28001    0.550000     64.0000     67.6001    0.544895
    0.539042    0.413115     2.10181     458.594
   264.388
     5.33004    0.580037     67.0037     72.2051    0.571696
    0.575232    0.354194     2.14006     485.149
   264.438
     5.35000    0.569982     64.7974     70.1971    0.562490
    0.560572    0.323368     2.10178     682.851
   264.488
     5.28993    0.550000     59.5971     67.6007    0.538127
    0.540526    0.376655     1.66702     485.149
   264.538
     5.25000    0.550000     58.0000     68.0000    0.538668
    0.543211    0.414021     1.85841     458.594
   264.587
     5.25000    0.580006     61.0006     71.6007    0.572709
    0.572398    0.378492     2.13999     485.149
   264.638
     5.25000    0.569963     59.3956     70.3956    0.559693
    0.561559    0.406539     2.10174     682.851
   264.688
     5.25000    0.580018     59.4015     72.2026    0.568688
    0.574001    0.378515     1.66726     485.149
   264.738
     5.25000    0.569963     57.3956     70.7949    0.559760
    0.562651    0.406539     1.85866     682.851
   264.788
     5.25000    0.580018     58.6022     71.6022    0.570519
    0.569854    0.369162     1.66726     485.149
   264.837
     5.25000    0.569994     58.5995     70.3993    0.561723
    0.559699    0.369162     1.85829     458.594
   264.888
     5.25000    0.550000     56.3993     68.0000    0.538494
    0.540451    -99999.0     2.14006     485.149
   264.938
     5.26501    0.580018     59.6022     72.2026    0.573358
    0.574852    0.380385     2.10178     682.851
   264.988
     5.27500    0.569963     58.3956     70.7949    0.561438
    0.563491    0.413078     1.66702     458.594
   265.038
     5.27500    0.580018     59.6022     71.6022    0.570050
    0.570321    0.376647     1.93721     485.149
   265.087
     5.30501    0.569994     58.3993     70.3993    0.559701
    0.561614    0.433641     2.10181     458.594
   265.138
     5.32500    0.550000     56.0000     68.0000    0.541026
    0.543846    0.458883     2.14006     485.149
   265.188
     5.30999    -99999.0    -99999.0    -99999.0    -99999.0
    -99999.0    0.423374     2.10178     682.851
   265.238
     5.30000    0.550000     56.0000     67.0000    0.538061
    0.534850    0.417769     1.66702     485.149
   265.288
     5.25497    0.550000     56.6004     67.6004    0.543817
    0.540232    0.423374     1.85841     458.594
