#------------------------------------------------------------
~VERSION INFORMATION
VERS.               2.0  :CWLS LOG ASCII STANDARD - VERSION 2.0
WRAP.               YES  :MULTIPLE LINES PER DEPTH STEP
#------------------------------------------------------------
~WELL INFORMATION
STRT.M         0.554600  :FIRST INDEX VALUE
STOP.M          359.955  :LAST INDEX VALUE
STEP.M          0.00000  :STEP
NULL.            -99999  :NULL VALUE
COMP.                    :COMPANY
WELL.                    :WELL
FLD.                     :FLD
LOC.                     :LOCATION
SRVC.                    :
CTRY.                    :COUNTRY
STAT.                    :STATE
CNTY.                    :
DATE.                    :DATE
API.                     :API
#------------------------------------------------------------
~CURVE INFORMATION
DEPT.M                   :DEPTH
A1.                      :A1
CHI2.                    :Chi2
K.%                      :K
U.PPM                    :U
TH.PPM                   :Th
K-ERROR.%                :K-Error
U-ERROR.PPM              :U-Error
TH-ERROR.PPM             :Th-Error
TIME.SEC                 :Time
COUNTS.                  :Counts
STACK_TIME.SEC           :Stack Time
STACK_COUNTS.            :Stack counts
EHT.V                    :EHT
TCPU.'C                  :TCPU
GR.API                   :GR
SPEED.M/MIN              :Speed
TOOLPOWERVOLTAGE.V       :ToolPowerVoltage
TOOLPOWERCURRENT.MA      :ToolPowerCurrent
#------------------------------------------------------------
~PARAMETER INFORMATION
#------------------------------------------------------------
~OTHER
#------------------------------------------------------------
~A
# ...
   47.8046
    0.567000    0.319709    0.600140     0.00000     6.61043
     1.33791     0.00000     6.93323     1.48200     100.000
     68.1030     3181.00     1197.79     12.6453     45.3115
     2.02500     124.000     27.0270
   47.8546
    0.567000    0.244437     1.23271     0.00000     2.65078
     1.33598     0.00000     6.92323     1.48400     72.0000
     68.1010     3131.00     1197.79     12.6453     32.5803
     2.02500     124.000     23.7838
   47.9046
    0.567000    0.321052    0.709595     1.14441     0.00000
     1.33586     2.78350     0.00000     1.48400     69.0000
     68.1250     3112.00     1197.95     12.6453     31.2228
     2.00000     124.000     23.7838
   47.9546
    0.567000    0.318033     1.30418     1.02457     1.77897
     1.36767     5.14663     12.8008     1.49400     89.0000
     68.1210     3099.00     1197.79     12.6453     40.0033
     2.00000     124.000     19.4595
   48.0046
    0.567000    0.852306     1.02145     0.00000    0.328696
     1.33601     0.00000     6.92339     1.48400     79.0000
     68.1100     3065.00     1197.79     12.6453     35.7478
     2.02500     124.000     19.4595
   48.0546
    0.567000    0.267569     1.47953     0.00000    0.155397
     1.33510     0.00000     6.91863     1.48500     75.0000
     68.1120     3057.00     1197.79     12.6453     33.9150
     2.00000     125.000     21.6216
   48.1046
    0.567000    0.322149    0.781194    0.659272     0.00000
     1.34219     2.79667     0.00000     1.47700     67.0000
     68.1010     3053.00     1197.95     12.6453     30.4615
     2.02500     125.000     23.7838
   48.1546
    0.567000    0.271053    0.204781     3.63454     0.00000
     1.35234     2.81784     0.00000     1.46600     85.0000
     68.0980     3048.00     1197.95     12.6453     38.9351
     2.05000     126.000     27.0270
   48.2046
    0.567000    0.240406    0.703989     0.00000     2.68026
     1.35696     0.00000     7.03196     1.46100     60.0000
     68.0980     3032.00     1197.79     12.6453     27.5777
     2.00000     126.000     29.1892
   48.2546
    0.567000    0.290869    0.298372     1.60651     2.00499
     1.38145     5.19847     12.9297     1.47900     68.0000
     68.1130     3017.00     1197.79     12.6453     30.8743
     2.02500     126.000     27.0270
   48.3046
    0.567000    0.310196    0.774247     0.00000     1.78381
     1.32077     0.00000     6.84439     1.50100     54.0000
     68.0960     2994.00     1197.95     12.6453     24.1585
     2.02500     126.000     29.1892
   48.3546
    0.567000    0.256748    0.916728    0.228762     0.00000
     1.32772     2.76653     0.00000     1.49300     49.0000
     68.0780     3000.00     1197.79     12.6453     22.0390
     2.02500     124.000     28.1081
   48.4046
    0.567000    0.306440   0.0658173    0.407583     4.91852
     1.36667     5.14284     12.7914     1.49500     69.0000
     68.0440     2995.00     1197.95     12.6453     30.9930
     2.02500     124.000     28.1081
   48.4546
    0.567000    0.339648    0.534689     1.42218     0.00000
     1.32871     2.76860     0.00000     1.49200     72.0000
     67.9960     2985.00     1197.79     12.6453     32.4056
     2.00000     124.000     25.9459
   48.5046
    0.567000    0.320114    0.665066     0.00000     0.00000
    0.688763     0.00000     0.00000     1.49100     55.0000
     67.9500     2956.00     1197.79     12.6453     24.7709
     2.02500     124.000     23.7838
   48.5546
    0.567000    0.405546    0.365657     0.00000     3.60108
     1.32348     0.00000     6.85846     1.49800     70.0000
     67.9590     2954.00     1197.79     12.6453     31.3793
     2.05000     123.000     21.6216
   48.6046
    0.567000    0.380259    0.117011     1.17371     0.00000
     1.33313     2.77780     0.00000     1.48700     60.0000
     67.9570     2940.00     1197.95     12.6453     27.0955
     2.05000     124.000     19.4595
   48.6546
    0.567000    0.454209    0.870341     0.00000     0.00000
    0.690598     0.00000     0.00000     1.48700     47.0000
     67.9520     2932.00     1197.95     12.6453     21.2248
     2.02500     126.000     25.9459
   48.7046
    0.567000    0.363869    0.973996     0.00000     0.00000
    0.690621     0.00000     0.00000     1.48700     57.0000
     67.9480     2937.00     1197.95     12.6453     25.7407
     2.00000     126.000     29.1892
   48.7546
    0.567000     2.04348    0.447359   0.0720516     0.00000
     1.34575     2.80411     0.00000     1.47300     50.0000
     67.9330     2942.00     1197.95     12.6453     22.7942
     2.00000     126.000     31.3514
   48.8046
    0.567000    0.278194    0.704644     0.00000     2.20636
     1.33952     0.00000     6.94157     1.48000     56.0000
     67.9230     2952.00     1197.79     12.6453     25.4087
     2.00000     125.000     29.1892
   48.8546
    0.567000    0.278891    0.130968     0.00000     6.97340
     1.34046     0.00000     6.94643     1.47900     63.0000
     67.9370     2956.00     1197.79     12.6453     28.6041
     2.00000     125.000     30.2703
   48.9046
    0.567000    0.257300    0.952101     0.00000     1.94515
     1.33681     0.00000     6.92752     1.48300     56.0000
     67.9200     2943.00     1197.95     12.6453     25.3573
     2.02500     124.000     25.9459
   48.9546
    0.567000    0.462624    0.457385    0.224240     1.18088
     1.38698     5.21928     12.9815     1.47300     47.0000
     67.9070     2934.00     1197.79     12.6453     21.4265
     2.00000     124.000     19.4595
   49.0046
    0.567000    0.762627    0.918084     0.00000    0.622361
     1.36349     0.00000     7.06579     1.45400     59.0000
     67.9080     2931.00     1197.95     12.6453     27.2486
     2.02500     123.000     19.4595
   49.0546
    0.567000    0.279664    0.921291     0.00000     2.16783
     1.36064     0.00000     7.05102     1.45700     50.0000
     67.9170     2912.00     1197.79     12.6453     23.0445
     2.00000     124.000     19.4595
   49.1046
    0.567000     46.5901    0.809254     0.00000     0.00000
    0.699097     0.00000     0.00000     1.46900     62.0000
     67.9290     2897.00     1197.79     12.6453     28.3417
     2.02500     125.000     20.5405
   49.1546
    0.567000    0.287559     1.10528     0.00000     0.00000
    0.686023     0.00000     0.00000     1.49700     64.0000
     67.9330     2868.00     1197.79     12.6453     28.7088
     2.02500     125.000     23.7838
   49.2046
    0.567000    0.293371     1.07510     0.00000    0.997241
     1.32873     0.00000     6.88566     1.49200     53.0000
     67.9040     2842.00     1197.79     12.6453     23.8541
     2.02500     125.000     21.6216
   49.2546
    0.567000    0.324772     0.00000     1.15404     2.87628
     0.00000     4.99697     12.4276     1.49300     67.0000
     67.8640     2817.00     1197.95     12.6453     30.1350
     2.02500     125.000     23.7838
   49.3046
    0.567000    0.366367    0.641556     0.00000     4.71665
     1.33154     0.00000     6.90018     1.48900     81.0000
     67.8430     2785.00     1197.79     12.6453     36.5297
     2.02500     126.000     25.9459
   49.3546
    0.567000     9.59725     1.09643     0.00000     0.00000
    0.692052     0.00000     0.00000     1.48400     72.0000
     67.8120     2735.00     1197.79     12.6453     32.5803
     2.05000     126.000     25.9459
   49.4046
    0.567000    0.310007     1.28328     0.00000     0.00000
    0.692024     0.00000     0.00000     1.48400     60.0000
     67.8030     2689.00     1197.95     12.6453     27.1502
     2.07500     126.000     28.1081
   49.4546
    0.567000     96354.9     2.24834     0.00000     0.00000
    0.693968     0.00000     0.00000     1.48000     91.0000
     67.8210     2652.00     1197.79     12.6453     41.2892
     2.05000     126.000     29.1892
   49.5046
    0.567000    0.283577    0.988838    0.951364     0.00000
     1.33771     2.78735     0.00000     1.48200     79.0000
     67.8430     2580.00     1197.95     12.6453     35.7961
     2.02500     126.000     28.1081
