#------------------------------------------------------------
~VERSION INFORMATION
VERS.               2.0  :CWLS LOG ASCII STANDARD - VERSION 2.0
WRAP.               YES  :MULTIPLE LINES PER DEPTH STEP
#------------------------------------------------------------
~WELL INFORMATION
STRT.M          4.03750  :FIRST INDEX VALUE
STOP.M          359.938  :LAST INDEX VALUE
STEP.M          0.00000  :STEP
NULL.            -99999  :NULL VALUE
COMP.                    :COMPANY
WELL.                    :WELL
FLD.                     :FLD
LOC.                     :LOCATION
SRVC.                    :
CTRY.                    :COUNTRY
STAT.                    :STATE
CNTY.                    :
DATE.                    :DATE
API.                     :API
#------------------------------------------------------------
~CURVE INFORMATION
DEPT.M                   :DEPTH
SPEED.MT/MIN             :Speed
TIME.SEC                 :Time
POSCOUNT.COUNT           :Poscount
NEGCOUNT.COUNT           :Negcount
POSDT.SEC                :Posdt
NEGDT.SEC                :Negdt
MAG_SUSC.10E-3_SI_UNITS   :Mag Susc
INDUCTION.MS/M           :Induction
IND_RES.OHM-M            :Ind Res
#------------------------------------------------------------
~PARAMETER INFORMATION
BIT_FROM1.               :BIT FROM1
BIT_FROM2.               :BIT FROM2
BIT_FROM3.               :BIT FROM3
BIT_FROM4.               :BIT FROM4
BIT_FROM5.               :BIT FROM5
BIT_FROM6.               :BIT FROM6
BIT_TO1.                 :BIT TO1
BIT_TO2.                 :BIT TO2
BIT_TO3.                 :BIT TO3
BIT_TO4.                 :BIT TO4
BIT_TO5.                 :BIT TO5
BIT_TO6.                 :BIT TO6
BIT1.                    :BIT1
BIT2.                    :BIT2
BIT3.                    :BIT3
BIT4.                    :BIT4
BIT5.                    :BIT5
BIT6.                    :BIT6
BTM_LOGGED_INTERVAL.     :BTM LOGGED INTERVAL
CASING_FROM1.            :CASING FROM1
CASING_FROM2.            :CASING FROM2
CASING_FROM3.            :CASING FROM3
CASING_FROM4.            :CASING FROM4
CASING_FROM5.            :CASING FROM5
CASING_FROM6.            :CASING FROM6
CASING_SIZE1.            :CASING SIZE1
CASING_SIZE2.            :CASING SIZE2
CASING_SIZE3.            :CASING SIZE3
CASING_SIZE4.            :CASING SIZE4
CASING_SIZE5.            :CASING SIZE5
CASING_SIZE6.            :CASING SIZE6
CASING_TO1.              :CASING TO1
CASING_TO2.              :CASING TO2
CASING_TO3.              :CASING TO3
CASING_TO4.              :CASING TO4
CASING_TO5.              :CASING TO5
CASING_TO6.              :CASING TO6
CO.                      :CO
CTY.                     :CTY
D_F_.                    :D.F.
DENSITY.                 :DENSITY
DEPTH-DRILLER.           :DEPTH-DRILLER
DEPTH-LOGGER.            :DEPTH-LOGGER
DRILLING_MEAS__FROM.     :DRILLING MEAS. FROM
ELEVATION.               :ELEVATION
FIELD.                   :FIELD
FILING_No.               :FILING No
G_L_.                    :G.L.
K_B_.                    :K.B.
LEVEL.                   :LEVEL
LOG_MEAS__FROM.          :LOG MEAS. FROM
MAX__REC__TEMP_.         :MAX. REC. TEMP.
OPERATING_RIG_TIME.      :OPERATING RIG TIME
OTHER_SERVICES.          :OTHER SERVICES
PERMANENT_DATUM.         :PERMANENT DATUM
RECORDED_BY.             :RECORDED BY
RGE.                     :RGE
RUN_No.                  :RUN No
RUN1.                    :RUN1
RUN2.                    :RUN2
RUN3.                    :RUN3
RUN4.                    :RUN4
RUN5.                    :RUN5
RUN6.                    :RUN6
SALINITY.                :SALINITY
SEC.                     :SEC
STE.                     :STE
TITLE.                   :TITLE
TOP_LOGGED_INTERVAL.     :TOP LOGGED INTERVAL
TWP.                     :TWP
TYPE_FLUID_IN_HOLE.      :TYPE FLUID IN HOLE
TYPE_LOG.                :TYPE LOG
WELL_ID.                 :WELL ID
WGT1.                    :WGT1
WGT2.                    :WGT2
WGT3.                    :WGT3
WGT4.                    :WGT4
WGT5.                    :WGT5
WGT6.                    :WGT6
WITNESSED_BY.            :WITNESSED BY
#------------------------------------------------------------
~OTHER
#------------------------------------------------------------
~A
# ...
   285.438
     5.14001    0.580018     63.0018     71.6022    0.571903
    0.572729    0.563576     1.91693     485.149
   285.488
     5.15000    0.600000     65.6007     74.0000    0.592839
    0.591784    0.533665     2.10174     682.851
   285.538
     5.16501    0.569982     62.3978     70.3978    0.559163
    0.562843    0.518715     1.66726     485.149
   285.587
     5.17500    0.580006     63.6007     71.6007    0.569743
    0.572897    0.518715     1.85829     485.149
   285.638
     5.19002    0.600000     65.3993     74.0000    0.590810
    0.592466    0.511228     2.06122     711.859
   285.688
     5.20000    0.569982     61.3978     69.7974    0.559371
    0.559166    0.499097     1.62786     458.594
   285.738
     5.16996    0.580037     62.6044     71.2051    0.573023
    0.570678    0.549535     1.91724     485.149
   285.788
     5.11998    0.569982     61.3978     70.3978    0.562594
    0.563509    0.481335     2.10178     485.149
   285.837
     5.10000    0.580006     62.0006     71.6007    0.569256
    0.573127    0.533677     2.06122     485.149
   285.888
     5.11502    0.600000     64.0000     73.3993    0.589196
    0.588475    0.539303     2.06122     682.851
   285.938
     5.12500    0.600000     64.0000     73.6004    0.590436
    0.589869    0.615920     1.66726    -99999.0
   285.988
     5.10998    0.569963     60.3956     70.3956    0.558214
    0.563267    0.588812    -99999.0     485.149
   286.038
     5.13002    0.580018     62.2026     71.6022    0.574186
    0.573024    0.559835     2.06122     458.594
   286.087
     5.15000    0.600000     63.7998     74.0000    0.590607
    0.592542    0.522447     2.13999     485.149
   286.138
     5.15000    0.569963     60.5971     70.3956    0.559940
    0.563338    0.543960     2.10174     458.594
   286.188
     5.15000    0.580018     62.0018     71.6022    0.568784
    0.573538    0.563576     2.14002     711.859
   286.238
     5.13498    0.600000     65.2015     73.3993    0.592610
    0.588890    0.554254     1.66811     485.149
   286.288
     5.12500    0.569982     62.3978     69.9982    0.563356
    0.561408    0.631820     1.83813     485.149
   286.337
     5.17001    0.580006     63.0006     71.6007    0.570717
    0.574157    0.672941     2.06122     458.594
   286.388
     5.20000    0.600000     64.3993     73.3993    0.588939
    0.588984    0.657031     2.14006     485.149
   286.438
     5.20000    0.569982     60.9982     69.9982    0.559335
    0.561201    0.588815     2.10178     485.149
   286.488
     5.15494    0.580037     62.6044     71.6044    0.573543
    0.573784    0.559829     2.06122     458.594
   286.538
     5.12500    0.569982     61.3978     69.7974    0.559577
    0.559433    0.518715     2.14002     711.859
   286.587
     5.11000    0.580006     63.2009     71.2009    0.571636
    0.571791    0.522447     1.66858     485.149
   286.638
     5.11502    0.600000     66.6007     74.0000    0.588795
    0.595092    0.537409     1.83840     485.149
   286.688
     5.12500    0.600000     67.0000     73.3996    0.590908
    0.589402    -99999.0     2.06122     458.594
   286.738
     5.09496    0.569963     62.7949     69.9963    0.562460
    0.560578    0.627147     2.14006     485.149
   286.788
     5.07500    0.580018     63.0018     71.6022    0.572638
    0.573210    0.654249     2.10178     682.851
   286.837
     5.12001    0.600000     64.3999     74.0000    0.587775
    0.593217    0.690668     1.66738     485.149
   286.888
     5.13498    0.600000     64.0000     74.0000    0.588746
    0.593983    0.764545     1.85866     485.149
   286.938
     5.12500    0.569982     60.9982     69.7974    0.563122
    0.559340    0.775758     2.06122     458.594
   286.988
     5.12500    -99999.0    -99999.0    -99999.0    -99999.0
    -99999.0    0.796347     2.14006     485.149
   287.038
     5.12500    0.600000     66.0000     74.0000    0.589730
    0.592514    0.888863     2.10178     458.594
   287.087
     5.17001    0.569994     62.9994     70.3993    0.561201
    0.563425    0.950510     2.13999     485.149
   287.138
     5.20000    0.580037     64.6044     71.6044    0.567796
    0.573162     1.01221     2.10174     485.149
   287.188
     5.16998    0.569982     64.5985     70.3978    0.559489
    0.563435    0.941207     2.06122     485.149
   287.238
     5.11996    0.580037     66.6044     71.0037    0.574608
    0.568751    0.964542     2.06122     458.594
   287.288
     5.10000    0.600000     69.0000     73.6004    0.590038
    0.589558    0.857999     2.14002     485.149
   287.337
     5.11500    0.600000     70.2002     74.0000    0.590674
    0.592401    0.734706     2.10181     485.149
   287.388
     5.12500    0.569963     67.9963     70.3956    0.562253
    0.563189    0.574803     2.06122     485.149
   287.438
     5.10999    0.580018     70.8029     71.6022    0.573589
    0.573053    0.578527     2.06122     682.851
   287.488
     5.13004    0.600000     72.7985     74.0000    0.589033
    0.592515    0.522458     1.66702     485.149
   287.538
     5.15000    0.569982     68.9982     70.3978    0.562470
    0.563335    0.533668     1.85841     711.859
   287.587
     5.13500    0.580006     69.4005     71.0006    0.573584
    0.568470    0.549503     1.62800     458.594
   287.638
     5.12500    0.600000     69.7985     73.6007    0.592372
    0.589554    0.679492     1.91724     711.859
   287.688
     5.14001    0.600000     66.5985     74.0000    0.586898
    0.592788    0.709396     1.66842     458.594
   287.738
     5.15000    0.569963     61.9963     70.3956    0.562371
    0.564710    0.731836     1.91724     485.149
   287.788
     5.16501    0.580018     62.4015     71.6022    0.573364
    0.574499    0.754255     2.10178     485.149
   287.837
     5.19000    0.569994     60.9994     69.7991    0.561036
    0.558316    0.724349     2.06122     485.149
   287.888
     5.20000    0.580037     62.0037     71.2051    0.566133
    0.569240    0.724349     2.06122     485.149
   287.938
     5.16998    0.600000     65.8011     74.0000    0.591064
    0.592329    0.720608     2.06122     458.594
   287.988
     5.15000    0.569963     63.9963     70.3956    0.564978
    0.562960    0.719693     2.14006     711.859
   288.038
     5.13499    0.580018     65.6022     71.6022    0.568857
    0.572830    0.775758     1.66842     485.149
   288.087
     5.12500    0.569994     64.9994     70.3993    0.559333
    0.562971    0.775758     1.83800     485.149
   288.138
     5.12500    0.580037     66.0037     71.6044    0.572631
    0.571536    0.784181     2.06122     458.594
   288.188
     5.09498    0.600000     68.0000     74.0000    0.592916
    0.589745    0.809402     2.14002     485.149
   288.238
     5.07500    0.600000     68.0000     74.0000    0.592557
    0.590342    0.765464     2.10174     485.149
   288.288
     5.10502    0.569982     64.3978     70.3978    0.557380
    0.562647    0.731831     2.06122     458.594
   288.337
     5.12500    0.580006     66.2009     71.6007    0.570428
    0.572704    0.754274     2.13999     485.149
   288.388
     5.12500    0.600000     69.0000     74.0000    0.592480
    0.592758    0.720606     2.10174     682.851
   288.438
     5.14001    0.600000     69.0000     74.0000    0.589099
    0.593901    0.699108     1.66726     485.149
   288.488
     5.15000    0.569963     65.9963     69.7949    0.561855
    0.560761    0.652352     1.85866     458.594
   288.538
     5.15000    0.580018     67.0018     71.2026    0.572752
    0.573675    0.559835     2.14002     711.859
   288.587
     5.15000    0.600000     68.3999     73.3999    0.590653
    0.591429    0.528978     1.66858     485.149
   288.638
     5.18004    0.569963     64.9963     69.9963    0.561646
    0.562217    0.574803     1.83840     485.149
   288.688
     5.15497    0.580018     66.0018     71.0018    0.569893
    0.569881    0.599103     2.06122     458.594
   288.738
     5.12500    0.569963     64.3956     69.9963    0.561847
    0.560986    0.621532     2.14006     711.859
