#------------------------------------------------------------
~VERSION INFORMATION
VERS.               2.0  :CWLS LOG ASCII STANDARD - VERSION 2.0
WRAP.               YES  :MULTIPLE LINES PER DEPTH STEP
#------------------------------------------------------------
~WELL INFORMATION
STRT.M          4.03750  :FIRST INDEX VALUE
STOP.M          359.938  :LAST INDEX VALUE
STEP.M          0.00000  :STEP
NULL.            -99999  :NULL VALUE
COMP.                    :COMPANY
WELL.                    :WELL
FLD.                     :FLD
LOC.                     :LOCATION
SRVC.                    :
CTRY.                    :COUNTRY
STAT.                    :STATE
CNTY.                    :
DATE.                    :DATE
API.                     :API
#------------------------------------------------------------
~CURVE INFORMATION
DEPT.M                   :DEPTH
SPEED.MT/MIN             :Speed
TIME.SEC                 :Time
POSCOUNT.COUNT           :Poscount
NEGCOUNT.COUNT           :Negcount
POSDT.SEC                :Posdt
NEGDT.SEC                :Negdt
MAG_SUSC.10E-3_SI_UNITS   :Mag Susc
INDUCTION.MS/M           :Induction
IND_RES.OHM-M            :Ind Res
#------------------------------------------------------------
~PARAMETER INFORMATION
BIT_FROM1.               :BIT FROM1
BIT_FROM2.               :BIT FROM2
BIT_FROM3.               :BIT FROM3
BIT_FROM4.               :BIT FROM4
BIT_FROM5.               :BIT FROM5
BIT_FROM6.               :BIT FROM6
BIT_TO1.                 :BIT TO1
BIT_TO2.                 :BIT TO2
BIT_TO3.                 :BIT TO3
BIT_TO4.                 :BIT TO4
BIT_TO5.                 :BIT TO5
BIT_TO6.                 :BIT TO6
BIT1.                    :BIT1
BIT2.                    :BIT2
BIT3.                    :BIT3
BIT4.                    :BIT4
BIT5.                    :BIT5
BIT6.                    :BIT6
BTM_LOGGED_INTERVAL.     :BTM LOGGED INTERVAL
CASING_FROM1.            :CASING FROM1
CASING_FROM2.            :CASING FROM2
CASING_FROM3.            :CASING FROM3
CASING_FROM4.            :CASING FROM4
CASING_FROM5.            :CASING FROM5
CASING_FROM6.            :CASING FROM6
CASING_SIZE1.            :CASING SIZE1
CASING_SIZE2.            :CASING SIZE2
CASING_SIZE3.            :CASING SIZE3
CASING_SIZE4.            :CASING SIZE4
CASING_SIZE5.            :CASING SIZE5
CASING_SIZE6.            :CASING SIZE6
CASING_TO1.              :CASING TO1
CASING_TO2.              :CASING TO2
CASING_TO3.              :CASING TO3
CASING_TO4.              :CASING TO4
CASING_TO5.              :CASING TO5
CASING_TO6.              :CASING TO6
CO.                      :CO
CTY.                     :CTY
D_F_.                    :D.F.
DENSITY.                 :DENSITY
DEPTH-DRILLER.           :DEPTH-DRILLER
DEPTH-LOGGER.            :DEPTH-LOGGER
DRILLING_MEAS__FROM.     :DRILLING MEAS. FROM
ELEVATION.               :ELEVATION
FIELD.                   :FIELD
FILING_No.               :FILING No
G_L_.                    :G.L.
K_B_.                    :K.B.
LEVEL.                   :LEVEL
LOG_MEAS__FROM.          :LOG MEAS. FROM
MAX__REC__TEMP_.         :MAX. REC. TEMP.
OPERATING_RIG_TIME.      :OPERATING RIG TIME
OTHER_SERVICES.          :OTHER SERVICES
PERMANENT_DATUM.         :PERMANENT DATUM
RECORDED_BY.             :RECORDED BY
RGE.                     :RGE
RUN_No.                  :RUN No
RUN1.                    :RUN1
RUN2.                    :RUN2
RUN3.                    :RUN3
RUN4.                    :RUN4
RUN5.                    :RUN5
RUN6.                    :RUN6
SALINITY.                :SALINITY
SEC.                     :SEC
STE.                     :STE
TITLE.                   :TITLE
TOP_LOGGED_INTERVAL.     :TOP LOGGED INTERVAL
TWP.                     :TWP
TYPE_FLUID_IN_HOLE.      :TYPE FLUID IN HOLE
TYPE_LOG.                :TYPE LOG
WELL_ID.                 :WELL ID
WGT1.                    :WGT1
WGT2.                    :WGT2
WGT3.                    :WGT3
WGT4.                    :WGT4
WGT5.                    :WGT5
WGT6.                    :WGT6
WITNESSED_BY.            :WITNESSED BY
#------------------------------------------------------------
~OTHER
#------------------------------------------------------------
~A
# ...
   191.637
     4.95000    0.600000     67.0000     75.0000    0.592239
    0.594931    0.640517     2.28438     367.962
   191.688
     4.95000    0.600000     65.7995     74.3998    0.590267
    0.590655    0.621532     2.49452     485.149
   191.738
     4.95000    0.600000     65.0000     74.6002    0.588587
    0.592008    0.631823     2.28438     367.962
   191.788
     4.95000    0.600000     65.6004     74.3996    0.590986
    0.590702    0.693523     2.49465     367.962
   191.838
     4.95000    0.600000     66.0000     74.6005    0.591548
    0.593148    0.786049     2.71767     485.149
   191.887
     4.96501    0.600000     65.3998     74.3998    0.589225
    0.592248    0.806616     2.28438     367.962
   191.938
     4.97500    0.630012     69.2017     77.6015    0.623319
    0.618275    0.724349     2.49452     485.149
   191.988
     4.97500    0.619988     68.3985     76.9988    0.613525
    0.612348    0.724349     2.28438     367.962
   192.038
     4.99001    0.600000     66.0000     75.0000    0.590656
    0.594750    0.724349     2.49465     485.149
   192.088
     5.00000    0.600000     66.6005     74.3995    0.589285
    0.589508    0.714058     2.28418     367.962
   192.137
     5.01501    0.600000     68.2005     74.6002    0.590203
    0.591682    0.672941     2.49452     367.962
   192.188
     5.02500    0.600000     69.6002     75.0000    0.592666
    0.595432    0.652384     2.71767     485.149
   192.238
     5.02500    0.600000     68.7995     74.3998    0.589290
    0.590679    0.590706     2.28438     367.962
   192.288
     4.97997    0.600000     68.0000     74.6004    0.589289
    0.591477    0.652358     2.49465     485.149
   192.338
     4.95000    0.600000     68.0000     75.0000    0.590982
    0.594491    0.580414     2.28418     389.683
   192.387
     4.95000    0.600000     68.0000     74.3998    0.591091
    0.590833    0.631808     2.39453     485.149
   192.438
     4.95000    0.600000     67.3998     74.0000    0.590499
    0.588899    0.672941     2.23288     367.962
   192.488
     4.96501    0.600000     67.0000     74.6002    0.594146
    0.593826    0.662650     2.49452     367.962
   192.538
     4.97500    0.600000     65.7991     74.3996    0.589792
    0.591368    0.600950     2.71767     485.149
   192.588
     4.97500    0.600000     66.2011     74.6005    0.593587
    0.592573    0.539297     2.28418     485.149
   192.637
     4.99001    0.600000     65.7995     74.3998    0.589901
    0.590950    0.611257     2.06122     485.149
   192.688
     5.00000    0.600000     65.6002     74.6002    0.588096
    0.592611    0.570123     2.06122     367.962
   192.738
     5.00000    0.600000     66.6002     74.3998    0.590766
    0.591024    0.559832     2.49452    -99999.0
   192.788
     4.96998    0.600000     67.0000     74.6004    0.590801
    0.592290    0.529006    -99999.0     367.962
   192.838
     4.95000    0.600000     66.3995     75.0000    0.594879
    0.594616    0.570123     2.71767     485.149
   192.887
     4.98001    0.600000     64.7995     74.3998    0.591858
    0.589356    0.590674     2.28438     367.962
   192.938
     5.00000    0.600000     65.2005     74.6002    0.591890
    0.591849    0.672941     2.49452     485.149
   192.988
     5.03001    0.600000     65.3998     74.3998    0.587544
    0.590900    0.683232     2.28438    -99999.0
   193.038
     5.03499    0.600000     65.0000     74.6004    0.588552
    0.592572    0.718016    -99999.0     485.149
   193.088
     5.02500    0.600000     64.3995     74.3995    0.591919
    0.590974    0.699046     2.06122     367.962
   193.137
     4.97998    0.600000     64.6002     74.6002    0.594234
    0.592020    0.734625     2.49452     367.962
   193.188
     4.95000    0.600000     65.0000     75.0000    0.588284
    0.595068    0.775758     2.71767     389.683
   193.238
     4.95000    0.600000     66.2005     74.3998    0.590726
    0.591223    0.775758     2.61768     485.149
   193.288
     4.95000    0.600000     67.0000     74.6004    0.591729
    0.593021    0.775758     2.23278     367.962
   193.338
     4.95000    0.600000     67.6005     74.3995    0.592821
    0.591033    0.786049     2.49472     367.962
   193.387
     4.95000    0.630012     71.0012     78.2017    0.620091
    0.621562    0.827167     2.71767     485.149
   193.438
     4.95000    0.619988     69.9988     76.7983    0.608929
    0.609943    0.827167     2.28438     367.962
   193.488
     4.96501    0.600000     68.6002     74.6002    0.592242
    0.591965    -99999.0     2.49452     367.962
   193.538
     4.95999    0.600000     69.0000     75.0000    0.590589
    0.596065    0.816876     2.71767     367.962
   193.588
     4.95000    0.600000     69.0000     74.3995    0.590438
    0.592324    0.786049     2.71767     485.149
   193.637
     4.98001    0.600000     69.0000     74.0000    0.590946
    0.589375    0.816891     2.28438     367.962
   193.688
     5.00000    0.600000     69.6002     74.0000    0.591946
    0.589328    0.775758     2.49452     367.962
   193.738
     5.01501    0.600000     70.0000     74.6002    0.592883
    0.593948    -99999.0     2.71767     485.149
   193.788
     5.04001    -99999.0    -99999.0    -99999.0    -99999.0
    -99999.0    0.919693     2.28425     367.962
   193.838
     5.05000    0.600000     70.0000     75.0000    0.592654
    0.597325    0.868284     2.49472     367.962
   193.887
     5.00498    0.600000     69.3998     74.3998    0.588541
    0.592445    0.809777     2.71767     485.149
   193.938
     4.97500    0.600000     69.6002     74.6002    0.593224
    0.592553    0.757562     2.28438     389.683
   193.988
     4.97500    0.600000     69.3998     74.3998    0.592739
    0.589602    0.806584     2.39453     367.962
   194.038
     4.95999    -99999.0    -99999.0    -99999.0    -99999.0
    -99999.0    0.724349     2.66621     485.149
   194.088
     4.95000    0.600000     72.0000     74.0000    0.594638
    0.588631    0.703767     2.28418     367.962
   194.137
     4.93499    0.600000     71.3998     74.6002    0.593970
    0.592509    0.621532     2.49452     485.149
   194.188
     4.92500    0.600000     70.3998     75.0000    0.593055
    0.594574    0.621532     2.28438     485.149
   194.238
     4.92500    0.630012     72.4010     78.6015    0.618884
    0.623115    0.621532     2.06122     367.962
   194.288
     4.95502    0.619979     71.5983     76.7970    0.612692
    0.608624    0.631823     2.49465     367.962
   194.338
     4.97500    0.600000     68.7989     74.6005    0.588960
    0.590983    0.662650     2.71767     485.149
   194.387
     4.97500    0.600000     68.0000     75.0000    0.589370
    0.594177    0.631808     2.28438     367.962
   194.438
     4.99001    0.600000     66.7995     74.3998    0.592378
    0.589377    0.683219     2.49452     485.149
   194.488
     5.00000    0.600000     66.0000     74.6002    0.592540
    0.590916    0.724349     2.28438     367.962
   194.538
     5.01501    0.600000     66.0000     75.0000    0.591178
    0.594115    0.724349     2.49465     485.149
   194.588
     5.02500    0.600000     66.0000     75.0000    0.589288
    0.594446    0.714058     2.28418     367.962
   194.637
     5.00999    0.600000     66.6002     74.3998    0.593267
    0.590231    0.695863     2.49452     389.683
   194.688
     4.96999    0.600000     66.3998     74.6002    0.589911
    0.591386    0.774971     2.61768     485.149
   194.738
     4.95000    0.600000     66.6002     75.0000    0.589712
    0.594087    0.734640     2.23288     367.962
   194.788
     4.95000    0.600000     67.6004     74.3996    0.592482
    0.589215    0.765467     2.49465     485.149
   194.838
     4.95000    0.600000     68.0000     74.6005    0.592067
    0.590820    0.714058     2.28418     367.962
   194.887
     4.95000    0.600000     68.0000     75.0000    0.591754
    0.594082    0.672941     2.49452     485.149
   194.938
     4.96501    0.600000     67.3998     74.3998    0.587523
    0.590084    0.672941     2.28438     367.962
