#------------------------------------------------------------
~VERSION INFORMATION
VERS.               2.0  :CWLS LOG ASCII STANDARD - VERSION 2.0
WRAP.               YES  :MULTIPLE LINES PER DEPTH STEP
#------------------------------------------------------------
~WELL INFORMATION
STRT.M          4.03750  :FIRST INDEX VALUE
STOP.M          359.938  :LAST INDEX VALUE
STEP.M          0.00000  :STEP
NULL.            -99999  :NULL VALUE
COMP.                    :COMPANY
WELL.                    :WELL
FLD.                     :FLD
LOC.                     :LOCATION
SRVC.                    :
CTRY.                    :COUNTRY
STAT.                    :STATE
CNTY.                    :
DATE.                    :DATE
API.                     :API
#------------------------------------------------------------
~CURVE INFORMATION
DEPT.M                   :DEPTH
SPEED.MT/MIN             :Speed
TIME.SEC                 :Time
POSCOUNT.COUNT           :Poscount
NEGCOUNT.COUNT           :Negcount
POSDT.SEC                :Posdt
NEGDT.SEC                :Negdt
MAG_SUSC.10E-3_SI_UNITS   :Mag Susc
INDUCTION.MS/M           :Induction
IND_RES.OHM-M            :Ind Res
#------------------------------------------------------------
~PARAMETER INFORMATION
BIT_FROM1.               :BIT FROM1
BIT_FROM2.               :BIT FROM2
BIT_FROM3.               :BIT FROM3
BIT_FROM4.               :BIT FROM4
BIT_FROM5.               :BIT FROM5
BIT_FROM6.               :BIT FROM6
BIT_TO1.                 :BIT TO1
BIT_TO2.                 :BIT TO2
BIT_TO3.                 :BIT TO3
BIT_TO4.                 :BIT TO4
BIT_TO5.                 :BIT TO5
BIT_TO6.                 :BIT TO6
BIT1.                    :BIT1
BIT2.                    :BIT2
BIT3.                    :BIT3
BIT4.                    :BIT4
BIT5.                    :BIT5
BIT6.                    :BIT6
BTM_LOGGED_INTERVAL.     :BTM LOGGED INTERVAL
CASING_FROM1.            :CASING FROM1
CASING_FROM2.            :CASING FROM2
CASING_FROM3.            :CASING FROM3
CASING_FROM4.            :CASING FROM4
CASING_FROM5.            :CASING FROM5
CASING_FROM6.            :CASING FROM6
CASING_SIZE1.            :CASING SIZE1
CASING_SIZE2.            :CASING SIZE2
CASING_SIZE3.            :CASING SIZE3
CASING_SIZE4.            :CASING SIZE4
CASING_SIZE5.            :CASING SIZE5
CASING_SIZE6.            :CASING SIZE6
CASING_TO1.              :CASING TO1
CASING_TO2.              :CASING TO2
CASING_TO3.              :CASING TO3
CASING_TO4.              :CASING TO4
CASING_TO5.              :CASING TO5
CASING_TO6.              :CASING TO6
CO.                      :CO
CTY.                     :CTY
D_F_.                    :D.F.
DENSITY.                 :DENSITY
DEPTH-DRILLER.           :DEPTH-DRILLER
DEPTH-LOGGER.            :DEPTH-LOGGER
DRILLING_MEAS__FROM.     :DRILLING MEAS. FROM
ELEVATION.               :ELEVATION
FIELD.                   :FIELD
FILING_No.               :FILING No
G_L_.                    :G.L.
K_B_.                    :K.B.
LEVEL.                   :LEVEL
LOG_MEAS__FROM.          :LOG MEAS. FROM
MAX__REC__TEMP_.         :MAX. REC. TEMP.
OPERATING_RIG_TIME.      :OPERATING RIG TIME
OTHER_SERVICES.          :OTHER SERVICES
PERMANENT_DATUM.         :PERMANENT DATUM
RECORDED_BY.             :RECORDED BY
RGE.                     :RGE
RUN_No.                  :RUN No
RUN1.                    :RUN1
RUN2.                    :RUN2
RUN3.                    :RUN3
RUN4.                    :RUN4
RUN5.                    :RUN5
RUN6.                    :RUN6
SALINITY.                :SALINITY
SEC.                     :SEC
STE.                     :STE
TITLE.                   :TITLE
TOP_LOGGED_INTERVAL.     :TOP LOGGED INTERVAL
TWP.                     :TWP
TYPE_FLUID_IN_HOLE.      :TYPE FLUID IN HOLE
TYPE_LOG.                :TYPE LOG
WELL_ID.                 :WELL ID
WGT1.                    :WGT1
WGT2.                    :WGT2
WGT3.                    :WGT3
WGT4.                    :WGT4
WGT5.                    :WGT5
WGT6.                    :WGT6
WITNESSED_BY.            :WITNESSED BY
#------------------------------------------------------------
~OTHER
#------------------------------------------------------------
~A
# ...
   168.188
     5.20000    0.580012     65.6015     72.6015    0.568564
    0.571459    0.761742     3.05900     367.962
   168.238
     5.20000    0.569988     66.1993     71.3985    0.561807
    0.562064    0.668233     2.77854     296.373
   168.288
     5.20000    0.580021     70.4038     72.6026    0.573979
    0.571805    0.500004     3.15110     345.220
   168.338
     5.21501    0.569973     69.7962     71.3967    0.561999
    0.562187    0.423373     3.05886     367.962
   168.387
     5.24001    0.580012     68.8007     72.6015    0.570903
    0.571809    0.428975     2.77854     367.962
   168.438
     5.25000    0.569988     65.7983     71.3985    0.559513
    0.562193    0.468245     2.71767     458.594
   168.488
     5.26501    0.580012     66.6015     72.6015    0.570788
    0.571514    0.415897     2.36316     296.373
   168.538
     5.27500    0.569979     64.7970     71.3974    0.560405
    0.561830    0.415897     2.96863     367.962
   168.588
     5.21495    0.580027     63.2011     73.2038    0.572031
    0.576491    0.426188     2.94063     367.962
   168.637
     5.17500    0.569988     59.7983     71.7983    0.561837
    0.564887    0.478617     2.71767     367.962
   168.688
     5.12998    0.580012     60.0012     72.6015    0.568204
    0.570502    0.512583     2.71767     367.962
   168.738
     5.08499    0.569988     59.5990     71.3985    0.562657
    0.236121    0.467306     2.71767     367.962
   168.788
     5.07500    0.580021     60.4017     72.6026    0.569595
    0.353440    -99999.0     2.71767     296.373
   168.838
     5.07500    0.600000     62.0000     75.6005    0.588836
    0.592805    0.458886     3.15117     367.962
   168.887
     5.07500    0.600000     62.0000     75.3998    0.591208
    0.591645    0.433652     2.94083     367.962
   168.938
     5.07500    0.600000     62.6002     75.6002    0.590944
    0.592911    0.457027     2.71767     367.962
   168.988
     5.09001     40.7263     4350.54     5095.24     40.7177
     40.7181    0.428995     2.71767     367.962
   169.038
     5.11501     27.3114     2917.15     3417.23     27.2991
     27.3045    0.488811     2.71767     367.962
   169.088
     5.12500    -99999.0    -99999.0    -99999.0    -99999.0
    -99999.0    0.518715     2.71767     296.373
   169.137
     5.12500    0.600000     63.0000     76.0000    0.594690
    0.595624    0.533661     3.15097     367.962
   169.188
     5.12500    0.569988     59.3985     71.7983    0.557278
    0.562502    0.599097     2.94083     296.373
   169.238
     5.12500    0.580012     60.6015     72.6015    0.569634
    0.569649    0.631823     3.15097     367.962
   169.288
     5.15502    0.600000     62.3996     75.6004    0.593532
    0.593606    0.662650     2.94070     296.373
   169.338
     5.15999    0.569973     59.5978     71.7962    0.560862
    0.563879    0.611241     3.15117     367.962
   169.387
     5.15000    0.580012     61.6015     72.6015    0.567489
    0.572285    0.580399     2.94083     296.373
   169.438
     5.07497    0.600000     64.0000     75.0000    0.588416
    0.593114    0.611253     3.15097     367.962
   169.488
     5.02500    0.569988     61.5990     70.7983    0.564835
    0.558701    0.570123     2.94083     296.373
   169.538
     4.99498    0.580021     63.6026     72.8034    0.572157
    0.573770    0.570123     3.15110     367.962
   169.588
     4.99001    0.600000     66.6005     75.3995    0.588853
    0.594631    0.600997     2.94063     296.373
   169.637
     5.00000    0.600000     66.3998     75.0000    0.590841
    0.591189    0.714074     3.15097     296.373
   169.688
     5.00000    0.600000     65.3998     75.0000    0.589020
    0.590249    0.683219     3.37413     367.962
   169.738
     5.00000    0.600000     65.6002     75.0000    0.590305
    0.590000    0.734640     2.94083     276.791
   169.788
     5.01501    0.600000     65.3996     75.0000    0.590728
    0.590622    0.755176     3.30871     296.373
   169.838
     5.00999    0.600000     65.0000     75.6005    0.593613
    0.595741    0.672941     3.45520     296.373
   169.887
     5.00000    0.600000     65.0000     75.3998    0.590879
    0.594141    0.662665     3.37413     367.962
   169.938
     5.01501    0.600000     66.8007     75.0000    0.592334
    0.590950    0.611253     2.94083     296.373
   169.988
     5.02500    0.600000     67.3998     75.0000    0.590321
    0.590687    0.549541     3.15097     367.962
   170.038
     5.02500    0.600000     67.6004     75.0000    0.591580
    0.590042    0.477597     2.94070     296.373
   170.088
     5.05503    0.600000     68.6005     75.0000    0.593334
    0.590423    0.518715     3.15117     296.373
   170.137
     5.07500    0.600000     67.7995     75.6002    0.586771
    0.595044    0.518715     3.37413     367.962
   170.188
     5.05999    0.600000     67.0000     75.3998    0.589861
    0.592321    0.528993     2.94083     296.373
   170.238
     5.05000    0.600000     66.3998     75.6002    0.595058
    0.592867    0.580414     3.15097     296.373
   170.288
     5.01998    0.600000     65.3996     75.3996    0.591505
    0.590899    0.611241     3.37413     296.373
   170.338
     5.00000    0.600000     63.7989     75.6005    0.586417
    0.592494    0.580414     3.37413     296.373
   170.387
     4.98499    0.600000     63.6002     75.3998    0.591605
    0.590899    0.621532     3.37413     296.373
   170.438
     4.99001    0.600000     64.0000     75.6002    0.592280
    0.593073    0.627138     3.37413     296.373
   170.488
     5.00000    0.600000     64.0000     75.3998    0.588793
    0.592255    0.643960     3.37413     296.373
   170.538
     5.01501    0.600000     64.6004     75.6004    0.590575
    0.592884    0.621532     3.37413     296.373
   170.588
     5.02500    0.600000     65.6005     75.3995    0.593540
    0.589761    0.611241     3.37413     248.103
   170.637
     5.00999    0.600000     65.3998     75.6002    0.587424
    0.591143    0.559848     3.80742    -99999.0
   170.688
     5.01501    0.600000     65.6002     76.0000    0.590164
    0.595197    0.528993    -99999.0     296.373
   170.738
     5.02500    0.600000     66.0000     75.3998    0.593247
    0.589742    0.549541     3.37413     296.373
   170.788
     5.00999    0.569979     62.9979     71.9979    0.561372
    0.561601    0.477597     3.37413     296.373
   170.838
     5.00000    0.580027     64.0027     73.6033    0.571184
    0.574646    0.529006     3.37413     296.373
   170.887
     5.03001    0.600000     66.0000     76.0000    0.593001
    0.594033    0.570123     3.37413     248.103
   170.938
     5.06501    0.600000     65.3998     75.3998    0.591771
    0.589279    0.580402     3.80742     296.373
   170.988
     5.07500    0.600000     64.3998     75.6002    0.585516
    0.591481    0.631823     3.59728     248.103
   171.038
     5.01496    0.600000     64.6004     75.3996    0.592762
    0.591505    0.693523     3.80755     296.373
   171.088
     4.97500    0.600000     63.7989     75.6005    0.591904
    0.592801    0.796340     3.59708     248.103
   171.137
     4.97500    0.600000     63.6002     76.0000    0.590220
    0.594449    0.950504     3.80742     213.355
   171.188
     4.97500    0.600000     64.6002     75.3998    0.591963
    0.589976     1.24871     4.46387     248.103
   171.238
     4.97500    0.600000     65.0000     75.6002    0.587694
    0.590819     1.27955     4.25374     248.103
   171.288
     4.97500    0.600000     65.6004     76.0000    0.588567
    0.592543     1.25902     4.03058     213.355
   171.338
     4.97500    0.600000     66.6005     76.0000    0.592731
    0.592449     1.34125     4.46407     248.103
   171.387
     4.97500    0.600000     68.2005     76.0000    0.590013
    0.592583    -99999.0     4.25374     187.144
   171.438
     5.00501    0.600000     70.2005     76.0000    0.591369
    0.592193     1.32071     4.89717     248.103
   171.488
     5.02500    0.600000     75.2017     76.0000    0.594883
    0.591316     1.01222     4.47689     213.355
