#------------------------------------------------------------
~VERSION INFORMATION
VERS.               2.0  :CWLS LOG ASCII STANDARD - VERSION 2.0
WRAP.               YES  :MULTIPLE LINES PER DEPTH STEP
#------------------------------------------------------------
~WELL INFORMATION
STRT.M          4.03750  :FIRST INDEX VALUE
STOP.M          359.938  :LAST INDEX VALUE
STEP.M          0.00000  :STEP
NULL.            -99999  :NULL VALUE
COMP.                    :COMPANY
WELL.                    :WELL
FLD.                     :FLD
LOC.                     :LOCATION
SRVC.                    :
CTRY.                    :COUNTRY
STAT.                    :STATE
CNTY.                    :
DATE.                    :DATE
API.                     :API
#------------------------------------------------------------
~CURVE INFORMATION
DEPT.M                   :DEPTH
SPEED.MT/MIN             :Speed
TIME.SEC                 :Time
POSCOUNT.COUNT           :Poscount
NEGCOUNT.COUNT           :Negcount
POSDT.SEC                :Posdt
NEGDT.SEC                :Negdt
MAG_SUSC.10E-3_SI_UNITS   :Mag Susc
INDUCTION.MS/M           :Induction
IND_RES.OHM-M            :Ind Res
#------------------------------------------------------------
~PARAMETER INFORMATION
BIT_FROM1.               :BIT FROM1
BIT_FROM2.               :BIT FROM2
BIT_FROM3.               :BIT FROM3
BIT_FROM4.               :BIT FROM4
BIT_FROM5.               :BIT FROM5
BIT_FROM6.               :BIT FROM6
BIT_TO1.                 :BIT TO1
BIT_TO2.                 :BIT TO2
BIT_TO3.                 :BIT TO3
BIT_TO4.                 :BIT TO4
BIT_TO5.                 :BIT TO5
BIT_TO6.                 :BIT TO6
BIT1.                    :BIT1
BIT2.                    :BIT2
BIT3.                    :BIT3
BIT4.                    :BIT4
BIT5.                    :BIT5
BIT6.                    :BIT6
BTM_LOGGED_INTERVAL.     :BTM LOGGED INTERVAL
CASING_FROM1.            :CASING FROM1
CASING_FROM2.            :CASING FROM2
CASING_FROM3.            :CASING FROM3
CASING_FROM4.            :CASING FROM4
CASING_FROM5.            :CASING FROM5
CASING_FROM6.            :CASING FROM6
CASING_SIZE1.            :CASING SIZE1
CASING_SIZE2.            :CASING SIZE2
CASING_SIZE3.            :CASING SIZE3
CASING_SIZE4.            :CASING SIZE4
CASING_SIZE5.            :CASING SIZE5
CASING_SIZE6.            :CASING SIZE6
CASING_TO1.              :CASING TO1
CASING_TO2.              :CASING TO2
CASING_TO3.              :CASING TO3
CASING_TO4.              :CASING TO4
CASING_TO5.              :CASING TO5
CASING_TO6.              :CASING TO6
CO.                      :CO
CTY.                     :CTY
D_F_.                    :D.F.
DENSITY.                 :DENSITY
DEPTH-DRILLER.           :DEPTH-DRILLER
DEPTH-LOGGER.            :DEPTH-LOGGER
DRILLING_MEAS__FROM.     :DRILLING MEAS. FROM
ELEVATION.               :ELEVATION
FIELD.                   :FIELD
FILING_No.               :FILING No
G_L_.                    :G.L.
K_B_.                    :K.B.
LEVEL.                   :LEVEL
LOG_MEAS__FROM.          :LOG MEAS. FROM
MAX__REC__TEMP_.         :MAX. REC. TEMP.
OPERATING_RIG_TIME.      :OPERATING RIG TIME
OTHER_SERVICES.          :OTHER SERVICES
PERMANENT_DATUM.         :PERMANENT DATUM
RECORDED_BY.             :RECORDED BY
RGE.                     :RGE
RUN_No.                  :RUN No
RUN1.                    :RUN1
RUN2.                    :RUN2
RUN3.                    :RUN3
RUN4.                    :RUN4
RUN5.                    :RUN5
RUN6.                    :RUN6
SALINITY.                :SALINITY
SEC.                     :SEC
STE.                     :STE
TITLE.                   :TITLE
TOP_LOGGED_INTERVAL.     :TOP LOGGED INTERVAL
TWP.                     :TWP
TYPE_FLUID_IN_HOLE.      :TYPE FLUID IN HOLE
TYPE_LOG.                :TYPE LOG
WELL_ID.                 :WELL ID
WGT1.                    :WGT1
WGT2.                    :WGT2
WGT3.                    :WGT3
WGT4.                    :WGT4
WGT5.                    :WGT5
WGT6.                    :WGT6
WITNESSED_BY.            :WITNESSED BY
#------------------------------------------------------------
~OTHER
#------------------------------------------------------------
~A
# ...
   121.287
     5.18001    0.569986     61.7981     75.1978    0.559156
    0.562303    0.627141     2.71767     458.594
   121.338
     5.20000    0.580020     62.0020     76.2028    0.573435
    0.570505    0.643964     2.36308     367.962
   121.388
     5.18499    0.569980     60.3976     76.5984    0.558182
    0.564441    0.615923     2.53517     485.149
   121.438
     5.17500    0.580012     62.2017     79.2017    0.569488
    0.575099    0.609376     2.28438     458.594
   121.488
     5.19001    0.569988     61.9988     77.1980    0.561709
    0.561334    0.652358     2.14000     367.962
   121.537
     5.20000    0.580014     63.0014     77.6016    0.569319
    0.570165    0.586016     2.53512     367.962
   121.588
     5.20000    0.600000     65.6004     79.3996    0.592334
    0.591937    0.643964     2.71767     458.594
   121.638
     5.16998    0.569980     62.9980     74.7972    0.565043
    0.563718    0.615923     2.36308     367.962
   121.688
     5.15000    0.580012     64.0012     75.6015    0.570303
    0.571972    0.599097     2.53509     345.220
   121.738
     5.16501    0.569988     62.3985     74.3985    0.556752
    0.562290    0.621532     2.83585     485.149
   121.787
     5.19001    0.580014     64.2019     74.4011    0.574267
    0.571299    0.615923     2.34520     367.962
   121.838
     5.20000    0.600000     65.7992     76.0000    0.591016
    0.592183    0.599100     2.49462     345.220
   121.888
     5.18499    0.569980     62.5984     73.5984    0.560798
    0.564895    0.611249     2.83587     367.962
   121.938
     5.17500    0.580012     64.0012     75.6015    0.571583
    0.572646    0.580402     2.77854     367.962
   121.988
     5.14499    0.569988     62.3985     74.3985    0.557871
    0.563381    0.627145     2.71767     367.962
   122.037
     5.12500    0.580014     63.6016     75.0014    0.571240
    0.571316    0.643964     2.71767     458.594
   122.088
     5.10999    0.600000     66.0000     76.3996    0.593664
    0.589672    0.631815     2.36308     367.962
   122.138
     5.11501    0.569980     62.3976     71.7972    0.559825
    0.560660    0.668266     2.53517     367.962
   122.188
     5.12500    0.580012     63.6015     72.6015    0.571336
    0.571426    0.643967     2.71767     345.220
   122.238
     5.12500    0.600000     65.3998     75.0000    0.588211
    0.593251    0.631823     2.83585     367.962
   122.287
     5.12500    0.600000     65.6003     75.0000    0.591002
    0.595272    0.679485     2.77853     367.962
   122.338
     5.14001    0.569980     62.9980     70.7972    0.564134
    0.562061    0.688828     2.71767     458.594
   122.388
     5.13499    0.580020     64.0020     72.2028    0.570259
    0.573303    0.627141     2.36308     367.962
   122.438
     5.12500    0.600000     66.6002     74.3998    0.591436
    0.590730    0.643967     2.53509     345.220
   122.488
     5.14001    0.569988     63.3985     70.3985    0.562041
    0.558197    0.611241     2.83585     367.962
   122.537
     5.15000    0.580014     64.0014     72.2019    0.568567
    0.572716    0.586016     2.77853     345.220
   122.588
     5.15000    0.600000     66.6004     75.0000    0.590344
    0.594775    0.633681     2.83587     367.962
   122.638
     5.15000    0.569980     63.9980     70.7972    0.563701
    0.560525    0.570123     2.77851     367.962
   122.688
     5.19502    0.580012     64.4010     72.2017    0.568977
    0.571576    0.570123     2.71767     345.220
   122.738
     5.17998    0.569988     62.9988     71.3985    0.560703
    0.564909    0.574801     2.83585     367.962
   122.787
     5.15000    0.580014     64.0014     72.0014    0.573304
    0.569615    0.588817     2.77853     367.962
   122.838
     5.13499    0.600000     65.3996     74.6004    0.587093
    0.589988    0.580407     2.71767     345.220
   122.888
     5.12500    0.569980     62.5984     71.3976    0.562298
    0.564062    0.604705     2.83587     367.962
   122.938
     5.09499    0.580012     63.4010     72.6015    0.572032
    0.573703    0.543950     2.77854     367.962
   122.988
     5.10501    0.600000     65.0000     75.0000    0.589783
    0.592795    0.570123     2.71767     367.962
   123.037
     5.12500    0.600000     65.0000     75.0000    0.589357
    0.592875    0.574798     2.71767     345.220
   123.088
     5.12500    0.569980     61.9980     70.7972    0.561465
    0.559074    0.588817     2.83587     367.962
   123.138
     5.12500    0.580020     63.0020     72.2028    0.571632
    0.570151    0.563579     2.77851     367.962
   123.188
     5.14001    0.600000     65.6002     75.0000    0.592922
    0.592553    0.543950     2.71767     345.220
   123.238
     5.15000    0.569988     61.7983     71.3985    0.558784
    0.563724    0.574801     2.83585     367.962
   123.287
     5.15000    0.580014     62.6016     72.6016    0.568360
    0.573358    0.588817     2.77853     345.220
   123.338
     5.18002    0.600000     65.0000     75.0000    0.591608
    0.592556    0.580407     2.83587     367.962
   123.388
     5.20000    0.569980     61.9980     70.7972    0.561537
    0.558904    0.615923     2.77851     367.962
   123.438
     5.21501    0.580012     63.0012     72.2017    0.571219
    0.570155    0.599097     2.71767     345.220
   123.488
     5.22500    0.569988     61.3985     71.3985    0.559442
    0.563723    0.631823     2.83585     367.962
   123.537
     5.20999    0.580014     62.6016     72.6016    0.570952
    0.573004    0.668266     2.77853     296.373
   123.588
     5.15497    0.569980     61.9980     71.3976    0.561942
    0.563160    0.643964     3.15107     367.962
   123.638
     5.12500    0.580020     63.0020     72.6024    0.569062
    0.572881    0.621532     2.94073     345.220
   123.688
     5.14001    0.600000     65.6002     75.0000    0.592174
    0.591814    0.621532     2.83585     367.962
   123.738
     5.15000    0.569988     62.3985     71.3985    0.561091
    0.562762    0.615919     2.77854     367.962
   123.787
     5.13499    0.580014     63.6016     72.6016    0.568756
    0.572186    0.578533     2.71767     367.962
   123.838
     5.12500    0.600000     66.6004     75.0000    0.589872
    0.590890    0.508431     2.71767     345.220
   123.888
     5.12500    0.569980     63.3976     71.3976    0.561950
    0.562015    0.470111     2.83587     367.962
   123.938
     5.12500    0.580012     64.0012     72.6015    0.570586
    0.571765    0.478523     2.77854     345.220
   123.988
     5.12500    0.600000     66.0000     75.0000    0.590810
    0.590950    0.470113     2.83585     367.962
   124.037
     5.12500    0.600000     66.0000     75.0000    0.592358
    0.590950    0.478522     2.77853     296.373
   124.088
     5.12500    0.569980     62.3976     71.3976    0.564310
    0.562182    0.467306     3.15107     345.220
   124.138
     5.14001    0.580020     62.4016     72.6024    0.572882
    0.571803    0.458892     3.05893     367.962
   124.188
     5.15000    0.600000     63.3998     75.0000    0.588717
    0.590950    0.433654     2.77854     345.220
   124.238
     5.15000    0.569988     59.9988     71.3985    0.558038
    0.562498    0.457015     2.83585     367.962
   124.287
     5.19502    0.580014     61.0014     72.6016    0.568154
    0.572918    0.415897     2.77853     296.373
   124.338
     5.22500    0.569980     59.9980     71.3976    0.560036
    0.562797    0.417767     3.15107     458.594
   124.388
     5.16496    0.580020     61.0020     72.6024    0.570847
    0.571807    0.649607     2.58614     213.355
   124.438
     5.12500    0.600000     63.0000     75.0000    0.592102
    0.590937     1.43382     3.83497     296.373
   124.488
     5.10999    0.569988     59.3985     71.3985    0.558793
    0.561802    0.837317     3.82044     458.594
   124.537
     5.10000    0.580014     60.6016     72.6016    0.571491
    0.570576    0.271955     2.58626     296.373
   124.588
     5.10000    0.600000     62.3996     75.6004    0.592571
    0.594257    0.395346     2.96857     367.962
