#------------------------------------------------------------
~VERSION INFORMATION
VERS.               2.0  :CWLS LOG ASCII STANDARD - VERSION 2.0
WRAP.               YES  :MULTIPLE LINES PER DEPTH STEP
#------------------------------------------------------------
~WELL INFORMATION
STRT.M         0.554600  :FIRST INDEX VALUE
STOP.M          359.955  :LAST INDEX VALUE
STEP.M          0.00000  :STEP
NULL.            -99999  :NULL VALUE
COMP.                    :COMPANY
WELL.                    :WELL
FLD.                     :FLD
LOC.                     :LOCATION
SRVC.                    :
CTRY.                    :COUNTRY
STAT.                    :STATE
CNTY.                    :
DATE.                    :DATE
API.                     :API
#------------------------------------------------------------
~CURVE INFORMATION
DEPT.M                   :DEPTH
A1.                      :A1
CHI2.                    :Chi2
K.%                      :K
U.PPM                    :U
TH.PPM                   :Th
K-ERROR.%                :K-Error
U-ERROR.PPM              :U-Error
TH-ERROR.PPM             :Th-Error
TIME.SEC                 :Time
COUNTS.                  :Counts
STACK_TIME.SEC           :Stack Time
STACK_COUNTS.            :Stack counts
EHT.V                    :EHT
TCPU.'C                  :TCPU
GR.API                   :GR
SPEED.M/MIN              :Speed
TOOLPOWERVOLTAGE.V       :ToolPowerVoltage
TOOLPOWERCURRENT.MA      :ToolPowerCurrent
#------------------------------------------------------------
~PARAMETER INFORMATION
#------------------------------------------------------------
~OTHER
#------------------------------------------------------------
~A
# ...
   119.555
    0.568000    0.790842     2.66264     0.00000     1.53739
     1.40250     0.00000     7.26795     1.41400     146.000
     65.5790     6689.00     1197.89     12.2055     69.3362
     2.07500     123.000     22.7027
   119.605
    0.568000    0.351121     1.39216     0.00000     4.50451
     1.38582     0.00000     7.18149     1.43100     143.000
     65.6040     6730.00     1197.95     12.2055     67.1047
     2.10000     123.000     19.4595
   119.655
    0.568000    0.365769     1.19815     1.12219     8.92690
     1.43631     5.40501     13.4446     1.42300     162.000
     65.6100     6769.00     1197.95     12.2055     76.4481
     2.10000     124.000     19.4595
   119.705
    0.568000    0.425558     1.14364     3.95938     1.91489
     1.44330     5.43120     13.5086     1.41600     140.000
     65.6140     6776.00     1198.11     12.2055     66.3928
     2.10000     124.000     19.4595
   119.755
    0.568000    0.418669    0.300429    0.951202     10.3770
     1.43510     5.40037     13.4319     1.42400     124.000
     65.6290     6819.00     1197.95     12.2055     58.4747
     2.07500     125.000     22.7027
   119.805
    0.568000    0.317884     1.64014     1.39311     1.58584
     1.44022     5.41963     13.4798     1.41900     136.000
     65.6370     6871.00     1197.89     12.2055     64.3595
     2.10000     126.000     25.9459
   119.855
    0.568000    0.317813    0.892643    0.379595     10.1555
     1.45459     5.47370     13.6143     1.40500     138.000
     65.6510     6928.00     1197.95     12.2055     65.9567
     2.10000     126.000     25.9459
   119.905
    0.568000    0.280167     1.01030     0.00000     9.73077
     1.40748     0.00000     7.29376     1.40900     146.000
     65.6750     6961.00     1198.11     12.2055     69.5822
     2.07500     126.000     25.9459
   119.955
    0.568000    0.316606    0.436740     4.15814     6.49962
     1.44634     5.44403     13.5464     1.41300     120.000
     65.6950     6992.00     1197.89     12.2055     57.0290
     2.12500     126.000     25.9459
   120.005
    0.568000    0.409824     2.02574     0.00000     9.86344
     1.38492     0.00000     7.19756     1.43200     151.000
     65.6990     7062.00     1198.11     12.2055     70.8093
     2.10000     126.000     25.9459
   120.055
    0.568000    0.382625     1.00282     0.00000     8.52460
     1.38586     0.00000     7.18169     1.43100     151.000
     65.6810     7085.00     1198.11     12.2055     70.8588
     2.12500     126.000     27.0270
   120.105
    0.568000    0.623396     2.44946    0.768123     0.00000
     1.38173     2.87907     0.00000     1.43500     119.000
     65.6700     7109.00     1197.89     12.2055     55.6867
     2.10000     126.000     31.3514
   120.155
    0.568000    0.340465     2.12829     1.46687     0.00000
     1.39735     2.91162     0.00000     1.41900     126.000
     65.6680     7182.00     1197.89     12.2055     59.6272
     2.10000     126.000     31.3514
   120.205
    0.568000    0.409534     1.24294     0.00000     5.15905
     1.37988     0.00000     7.15069     1.43700     111.000
     65.6880     7215.00     1198.11     12.2055     51.8708
     2.10000     126.000     31.3514
   120.255
    0.568000    0.279952     1.82256     3.22276   0.0109420
     1.42409     5.35891     13.3288     1.43500     122.000
     65.6870     7247.00     1198.11     12.2055     57.0906
     2.15000     125.000     31.3514
   120.305
    0.568000    0.374041     1.71630     0.00000     6.99253
     1.39155     0.00000     7.21121     1.42500     122.000
     65.6870     7231.00     1198.11     12.2055     57.4912
     2.12500     123.000     21.6216
   120.355
    0.568000    0.368448    0.658207     0.00000     6.97932
     1.38754     0.00000     7.19041     1.42900     98.0000
     65.6990     7240.00     1198.11     12.2055     46.0522
     2.12500     123.000     22.7027
   120.405
    0.568000    0.347524    0.588233     0.00000     6.62513
     1.39349     0.00000     7.22122     1.42300     117.000
     65.7070     7247.00     1198.11     12.2055     55.2125
     2.10000     124.000     24.8649
   120.455
    0.568000    0.965182     1.58440     1.02515     0.00000
     1.39330     2.90317     0.00000     1.42300     101.000
     65.7180     7232.00     1198.11     12.2055     47.6621
     2.07500     123.000     22.7027
   120.505
    0.568000    0.438118     1.17616     0.00000     5.22586
     1.38759     0.00000     7.19067     1.42900     108.000
     65.7270     7225.00     1197.95     12.2055     50.7514
     2.10000     123.000     19.4595
   120.555
    0.568000    0.453996     2.98369    0.536634     0.00000
     1.38954     2.89534     0.00000     1.42700     131.000
     65.7290     7214.00     1198.11     12.2055     61.6458
     2.10000     124.000     19.4595
   120.605
    0.568000    0.663408     1.83472     0.00000     1.62002
     1.40038     0.00000     7.25694     1.41600     117.000
     65.7350     7174.00     1198.11     12.2055     55.4854
     2.07500     124.000     20.5405
   120.655
    0.568000    0.307816     2.14428     0.00000     0.00000
    0.733180     0.00000     0.00000     1.40100     117.000
     65.7530     7146.00     1198.06     12.2055     56.0795
     2.10000     125.000     23.7838
   120.705
    0.568000    0.407750     1.22246     2.03567     8.40332
     1.45057     5.46017     13.5942     1.40900     157.000
     65.7760     7118.00     1198.06     12.2055     74.8247
     2.10000     126.000     25.9459
   120.755
    0.568000    0.274289     1.52851     1.95626     6.67589
     1.45061     5.45950     13.5861     1.40900     165.000
     65.7810     7027.00     1197.95     12.2055     78.6374
     2.10000     126.000     27.0270
   120.805
    0.568000    0.376297    0.577202     5.17563    0.492427
     1.42419     5.35931     13.3298     1.43500     143.000
     65.7920     6933.00     1198.11     12.2055     66.9176
     2.10000     126.000     28.1081
   120.855
    0.568000    0.320757     2.35733    0.980751     1.14736
     1.42232     5.35227     13.3123     1.43700     166.000
     65.7710     6850.00     1198.11     12.2055     77.5725
     2.10000     126.000     28.1081
   120.905
    0.568000    0.567035     2.44514    0.392208     4.82164
     1.42423     5.35955     13.3312     1.43500     151.000
     65.7530     6771.00     1198.11     12.2055     70.6613
     2.10000     126.000     29.1892
   120.955
    0.568000    0.452304     1.23314    0.969322     3.03191
     1.42030     5.34466     13.2933     1.43900     157.000
     65.7510     6700.00     1197.89     12.2055     73.2648
     2.10000     126.000     31.3514
   121.005
    0.568000    0.343897     1.69910     3.27596     0.00000
     1.38386     2.88350     0.00000     1.43300     160.000
     65.7540     6631.00     1197.89     12.2055     74.9774
     2.12500     125.000     29.1892
   121.055
    0.568000    0.993681     3.84285     0.00000    0.904195
     1.38016     0.00000     7.16149     1.43700     170.000
     65.7550     6561.00     1198.11     12.2055     79.4417
     2.12500     123.000     22.7027
   121.105
    0.568000    0.317474     2.10281     2.23581     0.00000
     1.38284     2.88138     0.00000     1.43400     149.000
     65.7480     6482.00     1197.89     12.2055     69.7740
     2.12500     123.000     19.4595
   121.155
    0.568000    0.302393    0.489596     0.00000     17.6448
     1.37777     0.00000     7.20518     1.44000     142.000
     65.7490     6414.00     1198.06     12.2055     66.2189
     2.12500     124.000     19.4595
   121.205
    0.568000    0.525202     2.94682     0.00000     1.35604
     1.38495     0.00000     7.17697     1.43200     163.000
     65.7420     6373.00     1197.89     12.2055     76.4365
     2.10000     124.000     19.4595
   121.255
    0.568000    0.643226     2.29243     0.00000     2.26823
     1.38112     0.00000     7.15712     1.43600     169.000
     65.7490     6308.00     1197.89     12.2055     79.0294
     2.07500     123.000     19.4595
