#------------------------------------------------------------
~VERSION INFORMATION
VERS.               2.0  :CWLS LOG ASCII STANDARD - VERSION 2.0
WRAP.               YES  :MULTIPLE LINES PER DEPTH STEP
#------------------------------------------------------------
~WELL INFORMATION
STRT.M         0.554600  :FIRST INDEX VALUE
STOP.M          359.955  :LAST INDEX VALUE
STEP.M          0.00000  :STEP
NULL.            -99999  :NULL VALUE
COMP.                    :COMPANY
WELL.                    :WELL
FLD.                     :FLD
LOC.                     :LOCATION
SRVC.                    :
CTRY.                    :COUNTRY
STAT.                    :STATE
CNTY.                    :
DATE.                    :DATE
API.                     :API
#------------------------------------------------------------
~CURVE INFORMATION
DEPT.M                   :DEPTH
A1.                      :A1
CHI2.                    :Chi2
K.%                      :K
U.PPM                    :U
TH.PPM                   :Th
K-ERROR.%                :K-Error
U-ERROR.PPM              :U-Error
TH-ERROR.PPM             :Th-Error
TIME.SEC                 :Time
COUNTS.                  :Counts
STACK_TIME.SEC           :Stack Time
STACK_COUNTS.            :Stack counts
EHT.V                    :EHT
TCPU.'C                  :TCPU
GR.API                   :GR
SPEED.M/MIN              :Speed
TOOLPOWERVOLTAGE.V       :ToolPowerVoltage
TOOLPOWERCURRENT.MA      :ToolPowerCurrent
#------------------------------------------------------------
~PARAMETER INFORMATION
#------------------------------------------------------------
~OTHER
#------------------------------------------------------------
~A
# ...
   25.0546
    0.568000    0.377884    0.231902     0.00000     7.48341
     1.34952     0.00000     6.99339     1.46900     49.0000
     67.2170     2948.00     1197.79     12.7500     22.3991
     2.10000     124.000     20.5405
   25.1046
    0.568000    0.679549     0.00000     1.37667     0.00000
     0.00000     1.45562     0.00000     1.47000     46.0000
     67.2150     2968.00     1197.79     12.7500     21.0134
     2.10000     126.000     27.0270
   25.1546
    0.568000    0.287666     0.00000     3.28423     4.98228
     0.00000     5.07497     12.6215     1.47000     55.0000
     67.2080     2981.00     1197.79     12.7500     25.1247
     2.07499     125.998     31.3439
   25.2046
    0.568000    0.352206    0.366815     0.00000     3.74756
     1.35321     0.00000     7.01251     1.46500     50.0000
     67.1980     2985.00     1197.95     12.7500     22.9186
     2.05000     123.000     18.3784
   25.2546
    0.568000    0.274606     0.00000     3.00057     0.00000
     0.00000     1.45962     0.00000     1.46600     53.0000
     67.1920     2989.00     1197.79     12.7500     24.2772
     2.02500     123.000     19.4595
   25.3046
    0.568000     3.80304    0.330222     1.00296     0.00000
     1.35044     2.81387     0.00000     1.46800     72.0000
     67.1910     3003.00     1197.95     12.7500     32.9354
     2.02500     124.000     20.5405
   25.3546
    0.568000    0.291456     1.18502     0.00000     2.79829
     1.35326     0.00000     7.01275     1.46500     60.0000
     67.1780     2990.00     1197.79     12.7500     27.5024
     2.05000     125.000     23.7838
   25.4046
    0.568000    0.387260    0.860580   0.0719471     3.49446
     1.39945     5.26619     13.0982     1.46000     71.0000
     67.1640     3002.00     1197.79     12.7500     32.6559
     2.02501     126.000     24.8667
   25.4546
    0.568000    0.299161    0.567374     0.00000     4.16065
     1.36161     0.00000     7.05604     1.45600     57.0000
     67.1620     3008.00     1197.79     12.7500     26.2887
     2.05000     126.000     28.1081
   25.5046
    0.568000    0.369955    0.841001    0.241581     3.91586
     1.41103     5.30979     13.2066     1.44800     68.0000
     67.1450     3023.00     1197.79     12.7500     31.5353
     2.02500     126.000     31.3514
   25.5546
    0.568000    0.253576    0.516362     2.73738     0.00000
     1.37393     2.86281     0.00000     1.44300     90.0000
     67.1500     3023.00     1197.79     12.7500     41.8825
     2.02500     124.000     24.8649
   25.6046
    0.568000     5.44621     2.00659   0.0386415     0.00000
     1.35604     2.82554     0.00000     1.46200     84.0000
     67.1710     3002.00     1197.95     12.7500     38.5823
     2.05000     124.000     24.8649
   25.6546
    0.568000    0.257875     1.55103     0.00000     2.96969
     1.34787     0.00000     6.98483     1.47100     89.0000
     67.1730     2982.00     1197.95     12.7500     40.6288
     2.04999     123.999     24.8618
   25.7046
    0.568000    0.359846     1.04995     1.89018     0.00000
     1.34406     2.80058     0.00000     1.47500     79.0000
     67.1630     2970.00     1197.79     12.7500     35.9659
     2.02500     123.000     19.4595
   25.7546
    0.568000    0.301605     1.86032     1.37526     0.00000
     1.34134     2.79491     0.00000     1.47800     81.0000
     67.1390     2964.00     1197.95     12.7500     36.8016
     2.05000     124.000     19.4595
   25.8046
    0.568000     8720.28     1.87402     0.00000     0.00000
    0.697243     0.00000     0.00000     1.47300     81.0000
     67.1070     2952.00     1197.95     12.7500     36.9265
     2.05000     124.000     19.4595
   25.8546
    0.568000    0.299807     1.57088     0.00000     0.00000
    0.695821     0.00000     0.00000     1.47600     79.0000
     67.0850     2925.00     1197.79     12.7500     35.9416
     2.05000     124.000     19.4595
   25.9046
    0.568000    0.298377    0.586656     0.00000     4.75663
     1.34319     0.00000     6.96057     1.47600     64.0000
     67.0710     2918.00     1197.79     12.7500     29.1172
     2.07500     125.001     22.7058
   25.9546
    0.568000    0.544275    0.396080     2.19153     0.00000
     1.35228     2.81770     0.00000     1.46600     71.0000
     67.0620     2929.00     1197.95     12.7500     32.5223
     2.07500     126.000     28.1081
   26.0046
    0.568000    0.337876    0.959818    0.504874     0.00000
     1.35138     2.81583     0.00000     1.46700     76.0000
     67.0600     2905.00     1197.95     12.7500     34.7888
     2.02500     126.000     27.0270
   26.0546
    0.568000    0.327307    0.271048    0.389243     5.65673
     1.39749     5.25884     13.0799     1.46200     63.0000
     67.0630     2880.00     1197.95     12.7500     28.9367
     2.05000     126.000     29.1892
   26.1046
    0.568000    0.229920     0.00000    0.914569    0.728664
     0.00000     5.11306     12.7163     1.45900     45.0000
     67.0640     2865.00     1197.95     12.7500     20.7116
     2.05000     126.000     31.3514
   26.1546
    0.568000    0.317380    0.980444     0.00000     1.58136
     1.35694     0.00000     7.03184     1.46100     55.0000
     67.0710     2865.00     1197.79     12.7500     25.2795
     2.02500     125.000     30.2697
   26.2046
    0.568000     54.3358    0.683594     0.00000     0.00000
    0.703388     0.00000     0.00000     1.46000     54.0000
     67.0730     2858.00     1197.79     12.7500     24.8369
     2.02500     125.000     29.1892
   26.2546
    0.568000    0.288858    0.224515     0.00000     3.24751
     1.36061     0.00000     7.05085     1.45700     43.0000
     67.0650     2853.00     1197.95     12.7500     19.8182
     2.05000     123.000     22.7027
   26.3046
    0.568000    0.419823    0.122313    0.987627    0.646141
     1.40125     5.27298     13.1150     1.45800     47.0000
     67.0670     2873.00     1197.95     12.7500     21.6469
     2.02500     123.000     19.4595
   26.3546
    0.568000    0.297552     1.10639     0.00000     0.00000
    0.711644     0.00000     0.00000     1.44300     41.0000
     67.0590     2875.00     1197.95     12.7500     19.0798
     2.05000     126.000     24.8649
   26.4046
    0.568000    0.330976    0.515584    0.626083     2.99776
     1.42272     5.35378     13.3160     1.43600     47.0000
     67.0590     2885.00     1197.79     12.7500     21.9786
     2.05000     126.000     29.1892
   26.4546
    0.568000    0.277416    0.213908    0.425767     1.74953
     1.40996     5.30574     13.1965     1.44900     47.0000
     67.0700     2894.00     1197.95     12.7500     21.7814
     2.05000     126.000     29.1892
   26.5046
    0.568000    0.342897    0.462811    0.918734     0.00000
     1.35590     2.82526     0.00000     1.46200     55.0000
     67.0610     2932.00     1197.79     12.7500     25.2622
     2.07500     126.000     29.1892
   26.5546
    0.568000    0.317676     1.08799     0.00000     1.81632
     1.34769     0.00000     6.98390     1.47100     50.0000
     67.0350     2945.00     1197.95     12.7500     22.8252
     2.02500     126.000     31.3514
   26.6046
    0.568000    0.267338     1.12192     1.54205    0.827559
     1.37956     5.19135     12.9120     1.48100     62.0000
     66.9980     2967.00     1197.79     12.7500     28.1121
     2.05000     126.000     29.1892
   26.6546
    0.568000    0.365557    0.362488     0.00000     6.69419
     1.34323     0.00000     6.96081     1.47600     74.0000
     66.9470     2988.00     1197.79     12.7500     33.6668
     2.05001     125.000     31.3501
   26.7046
    0.568000     29.8740    0.897362     0.00000     0.00000
    0.699573     0.00000     0.00000     1.46800     62.0000
     66.9120     3000.00     1197.95     12.7500     28.3610
     2.07500     125.000     29.1892
   26.7546
    0.568000    0.331639     1.10793    0.366297     1.52757
     1.39273     5.24092     13.0353     1.46700     63.0000
     66.8940     3013.00     1197.95     12.7500     28.8381
     2.07500     124.000     25.9459
