#------------------------------------------------------------
~VERSION INFORMATION
VERS.               2.0  :CWLS LOG ASCII STANDARD - VERSION 2.0
WRAP.               YES  :MULTIPLE LINES PER DEPTH STEP
#------------------------------------------------------------
~WELL INFORMATION
STRT.M         0.554600  :FIRST INDEX VALUE
STOP.M          359.955  :LAST INDEX VALUE
STEP.M          0.00000  :STEP
NULL.            -99999  :NULL VALUE
COMP.                    :COMPANY
WELL.                    :WELL
FLD.                     :FLD
LOC.                     :LOCATION
SRVC.                    :
CTRY.                    :COUNTRY
STAT.                    :STATE
CNTY.                    :
DATE.                    :DATE
API.                     :API
#------------------------------------------------------------
~CURVE INFORMATION
DEPT.M                   :DEPTH
A1.                      :A1
CHI2.                    :Chi2
K.%                      :K
U.PPM                    :U
TH.PPM                   :Th
K-ERROR.%                :K-Error
U-ERROR.PPM              :U-Error
TH-ERROR.PPM             :Th-Error
TIME.SEC                 :Time
COUNTS.                  :Counts
STACK_TIME.SEC           :Stack Time
STACK_COUNTS.            :Stack counts
EHT.V                    :EHT
TCPU.'C                  :TCPU
GR.API                   :GR
SPEED.M/MIN              :Speed
TOOLPOWERVOLTAGE.V       :ToolPowerVoltage
TOOLPOWERCURRENT.MA      :ToolPowerCurrent
#------------------------------------------------------------
~PARAMETER INFORMATION
#------------------------------------------------------------
~OTHER
#------------------------------------------------------------
~A
# ...
   333.055
    0.550000    0.658879     2.21882     2.98065    0.643462
     1.28465     4.83688     12.0522     1.59100     180.000
     73.2690     7510.00     1197.84     13.0013     75.9729
     1.92500     124.000     29.1892
   333.105
    0.550000    0.370583     2.51644     1.75541     3.11367
     1.28149     4.82757     12.0493     1.59500     191.000
     73.2570     7476.00     1197.68     13.0013     80.4135
     1.90000     125.000     31.3514
   333.155
    0.550000    0.416528    0.531139     6.52968     2.31223
     1.28887     4.98621     12.2261     1.59900     190.000
     73.2620     7427.00     1197.84     13.0013     79.7924
     1.87500     124.000     24.8649
   333.205
    0.550000    0.311912    0.861333     1.21290     11.8280
     1.27542     4.80851     12.0215     1.60400     188.000
     73.2590     7379.00     1197.68     13.0013     78.7064
     1.87500     124.000     30.2703
   333.255
    0.550000    0.293969     1.53101     2.87061     0.00000
     1.23783     2.57924     0.00000     1.60200     170.000
     73.2510     7343.00     1197.68     13.0013     71.2595
     1.90000     124.000     22.7027
   333.305
    0.550000    0.405733     1.58112     4.22067     0.00000
     1.24685     2.59993     0.00000     1.59100     199.000
     73.2430     7312.00     1197.68     13.0013     83.9923
     1.87500     0.00000     0.00000
   333.355
    0.550000    0.355869     1.44107     0.00000     11.0182
     1.24278     0.00000     6.48558     1.59600     162.000
     73.2450     7263.00     1197.68     13.0013     68.1614
     1.92500     122.000     18.3784
   333.405
    0.550000    0.380239     1.39312     2.40410     4.50094
     1.27586     4.80234     11.9549     1.60200     191.000
     73.2370     7249.00     1197.84     13.0222     80.0621
     1.90000     122.000     18.3784
   333.455
    0.550000    0.346535    0.505232    0.409991     13.8003
     1.27668     4.80813     11.9905     1.60100     192.000
     73.2190     7187.00     1197.84     13.0013     80.5316
     1.87500     123.000     28.1081
   333.505
    0.550000    0.386625    0.875864     5.10504     0.00000
     1.25078     2.60803     0.00000     1.58600     178.000
     73.2110     7142.00     1197.84     13.0222     75.3656
     1.87500     125.000     27.0270
   333.555
    0.550000     1.92537     1.94796    0.175851     0.00000
     1.24951     2.60357     0.00000     1.58700     163.000
     73.2100     7142.00     1197.68     13.0013     68.9711
     1.85000     122.000     19.4595
   333.605
    0.550000    0.355867     1.21096     0.00000     13.6458
     1.25548     0.00000     6.59834     1.58100     179.000
     73.1940     7139.00     1197.84     13.0222     76.0287
     1.87500     124.000     30.2703
   333.655
    0.550000    0.631497     2.41910    0.984736     1.85926
     1.28878     4.84976     12.0626     1.58600     203.000
     73.1920     7123.00     1197.84     13.0222     85.9507
     1.87500     122.000     22.7027
   333.705
    0.550000    0.844839    0.353035     5.76467     0.00000
     1.25117     2.61025     0.00000     1.58600     186.000
     73.2080     7089.00     1197.84     13.0222     78.7528
     1.90000     124.000     31.3514
   333.755
    0.550000    0.498790     1.61614     0.00000     5.04639
     1.24964     0.00000     6.47581     1.58700     171.000
     73.2250     7063.00     1197.68     13.0222     72.3562
     1.85000     122.000     19.4595
   333.805
    0.550000    0.319504    0.848910     1.67766     10.0649
     1.27947     4.82064     12.0351     1.59800     168.000
     73.2310     7069.00     1197.84     13.0222     70.5974
     1.90000     125.000     31.3514
   333.855
    0.550000    0.294186     2.21564     0.00000     5.08446
     1.23639     0.00000     6.40819     1.60400     171.000
     73.2390     7043.00     1197.84     13.0222     71.5893
     1.85000     124.000     24.8649
   333.905
    0.550000    0.406085     2.43371     0.00000     4.20855
     1.24034     0.00000     6.42876     1.59900     191.000
     73.2370     7018.00     1197.68     13.0222     80.2124
     1.87500     123.000     24.8649
   333.955
    0.550000    0.353309    0.574498     4.21084     5.85123
     1.27522     4.84222     11.9979     1.60800     174.000
     73.2500     6982.00     1197.84     13.0222     72.6640
     1.90000     125.000     29.1892
   334.005
    0.550000    0.309570    0.361602     2.86181     7.58015
     1.27897     4.81350     11.9781     1.59800     170.000
     73.2450     6978.00     1197.68     13.0222     71.4379
     1.90000     123.000     28.1081
   334.055
    0.550000    0.316174     1.01619     2.97127     1.42883
     1.28130     4.82159     11.9923     1.59500     152.000
     73.2450     6953.00     1197.68     13.0222     63.9940
     1.90000     125.000     25.9459
   334.105
    0.550000    0.542302     1.11802     1.09200     3.75424
     1.27411     4.79455     11.9251     1.60400     154.000
     73.2410     6971.00     1197.84     13.0222     64.4722
     1.87500     124.000     22.7027
   334.155
    0.550000    0.353654     1.07016     1.88568     10.3776
     1.27849     4.83061     12.0654     1.60200     191.000
     73.2370     6981.00     1197.84     13.0222     80.0621
     1.90000     124.000     31.3514
   334.205
    0.550000     1.00311     1.20883     3.47017     0.00000
     1.24011     2.58398     0.00000     1.59900     158.000
     73.2180     6954.00     1197.84     13.0222     66.3537
     1.85000     125.000     28.1081
   334.255
    0.550000    0.459365    0.494992     1.56997     5.98531
     1.28209     4.82459     11.9998     1.59400     150.000
     73.2040     6969.00     1197.68     13.0222     63.1916
     1.87500     123.000     27.0270
   334.305
    0.550000    0.447722     1.55291     0.00000     6.87460
     1.26227     0.00000     6.54122     1.57100     143.000
     73.1920     6975.00     1197.68     13.0222     61.1246
     1.87500     125.000     31.3514
   334.355
    0.550000    0.463754     1.96361     0.00000     3.88245
     1.25826     0.00000     6.52046     1.57600     143.000
     73.1900     7014.00     1197.84     13.0222     60.9307
     1.85000     123.000     25.9459
   334.405
    0.550000    0.775646     1.39929     3.89097     0.00000
     1.25422     2.61343     0.00000     1.58100     152.000
     73.1860     7032.00     1197.68     13.0222     64.5607
     1.90000     125.000     29.1892
   334.455
    0.550000    0.976051     1.58376     1.06179     0.00000
     1.26378     2.63331     0.00000     1.56900     145.000
     73.1810     7016.00     1197.68     13.0222     62.0585
     1.87500     123.000     19.4595
   334.505
    0.550000    0.283159     1.45860   0.0665060     8.08953
     1.27242     4.78825     11.9100     1.60600     128.000
     73.2050     7045.00     1197.84     13.0222     53.5206
     1.85000     125.000     31.3514
   334.555
    0.550000    0.300634     1.52005     0.00000     8.17590
     1.24252     0.00000     6.43971     1.59600     152.000
     73.1910     7095.00     1197.84     13.0222     63.9539
     1.87500     124.000     22.7027
   334.605
    0.550000    0.415696    0.459142     2.29963     7.27108
     1.28775     4.84586     12.0527     1.58700     149.000
     73.1940     7126.00     1197.68     13.0222     63.0472
     1.87500     124.000     30.2703
   334.655
    0.550000    0.318200     1.74110     0.00000     6.97434
     1.25192     0.00000     6.48761     1.58400     148.000
     73.2000     7162.00     1197.68     13.0222     62.7427
     1.90000     125.000     27.0270
   334.705
    0.550000    0.378053     1.02456     0.00000     9.22856
     1.24646     0.00000     6.45930     1.59100     160.000
     73.2080     7191.00     1197.84     13.0222     67.5315
     1.90000     125.000     31.3514
   334.755
    0.550000    0.301280     1.74646     1.70066     0.00000
     1.25417     2.61328     0.00000     1.58100     141.000
     73.1900     7213.00     1197.68     13.0222     59.8885
     1.90000     125.000     31.3514
