#------------------------------------------------------------
~VERSION INFORMATION
VERS.               2.0  :CWLS LOG ASCII STANDARD - VERSION 2.0
WRAP.               YES  :MULTIPLE LINES PER DEPTH STEP
#------------------------------------------------------------
~WELL INFORMATION
STRT.M         0.554600  :FIRST INDEX VALUE
STOP.M          359.955  :LAST INDEX VALUE
STEP.M          0.00000  :STEP
NULL.            -99999  :NULL VALUE
COMP.                    :COMPANY
WELL.                    :WELL
FLD.                     :FLD
LOC.                     :LOCATION
SRVC.                    :
CTRY.                    :COUNTRY
STAT.                    :STATE
CNTY.                    :
DATE.                    :DATE
API.                     :API
#------------------------------------------------------------
~CURVE INFORMATION
DEPT.M                   :DEPTH
A1.                      :A1
CHI2.                    :Chi2
K.%                      :K
U.PPM                    :U
TH.PPM                   :Th
K-ERROR.%                :K-Error
U-ERROR.PPM              :U-Error
TH-ERROR.PPM             :Th-Error
TIME.SEC                 :Time
COUNTS.                  :Counts
STACK_TIME.SEC           :Stack Time
STACK_COUNTS.            :Stack counts
EHT.V                    :EHT
TCPU.'C                  :TCPU
GR.API                   :GR
SPEED.M/MIN              :Speed
TOOLPOWERVOLTAGE.V       :ToolPowerVoltage
TOOLPOWERCURRENT.MA      :ToolPowerCurrent
#------------------------------------------------------------
~PARAMETER INFORMATION
#------------------------------------------------------------
~OTHER
#------------------------------------------------------------
~A
# ...
   166.805
    0.568000    0.422987    0.428213     2.55016     0.00000
     1.33683     2.78551     0.00000     1.48300     83.0000
     113.876     7268.00     1197.95     12.1636     37.5832
     2.05000     125.000     22.7027
   166.855
    0.568000    0.295498     1.23541     0.00000     0.00000
    0.693923     0.00000     0.00000     1.48000     72.0000
     113.890     7288.00     1197.89     12.1636     32.6683
     2.05000     125.000     25.9459
   166.905
    0.568000    0.543346    0.407811     2.57003     0.00000
     1.33959     2.79126     0.00000     1.48000     94.0000
     113.913     7319.00     1198.11     12.1636     42.6503
     2.07500     126.000     29.1892
   166.955
    0.568000    0.468959    0.901743     0.00000     4.34236
     1.33879     0.00000     6.93779     1.48100     95.0000
     113.934     7340.00     1197.89     12.1636     43.0750
     2.05000     123.000     22.7027
   167.005
    0.568000    0.279372    0.800833     1.34973     0.00000
     1.36913     2.85283     0.00000     1.44800     80.0000
     113.957     7373.00     1197.95     12.1636     37.1003
     2.05000     123.000     22.7027
   167.055
    0.568000    0.448888     1.12146     0.00000     5.75367
     1.37021     0.00000     7.10062     1.44700     85.0000
     114.007     7391.00     1198.11     12.1636     39.4463
     2.02500     123.000     19.4595
   167.105
    0.568000    0.314218   0.0737769     2.58197     3.15454
     1.42495     5.36217     13.3369     1.43400     96.0000
     114.053     7416.00     1198.06     12.1636     44.9550
     2.00000     125.000     21.6216
   167.155
    0.568000    0.478551     1.36017     0.00000     4.39997
     1.36364     0.00000     7.06655     1.45400     90.0000
     114.111     7436.00     1197.95     12.1636     41.5656
     2.02500     125.000     25.9459
   167.205
    0.568000    0.304361    0.337902     2.08195     2.74674
     1.39953     5.26650     13.0989     1.46000     88.0000
     114.146     7445.00     1197.89     12.1636     40.4749
     2.02500     126.000     29.1892
   167.255
    0.568000    0.299536     1.57976     0.00000     2.98958
     1.32631     0.00000     6.87308     1.49500     107.000
     114.191     7434.00     1197.89     12.1636     48.0617
     2.02500     125.000     30.2703
   167.305
    0.568000    0.494330    0.545964    0.528510     5.70185
     1.44616     5.44196     13.5353     1.41300     100.000
     114.192     7414.00     1197.89     12.1636     47.5241
     2.02500     124.000     25.9459
   167.355
    0.568000    0.558465     1.03364    0.320071     1.49003
     1.43089     5.38452     13.3924     1.42800     86.0000
     114.276     7401.00     1197.95     12.1636     40.4414
     2.00000     123.000     23.7838
   167.405
    0.568000    0.332126    0.441067     2.36658     2.59809
     1.41023     5.30677     13.1991     1.44900     103.000
     114.334     7398.00     1197.89     12.1636     47.7337
     2.05000     0.00000     0.00000
   167.455
    0.568000     1.60039     1.56672     1.95949     0.00000
     1.33255     2.77659     0.00000     1.48800     131.000
     114.362     7384.00     1197.95     12.1636     59.1187
     2.07500     0.00000     0.00000
   167.505
    0.568000    0.436281    0.728161     3.49864     0.00000
     1.31397     2.73788     0.00000     1.50900     125.000
     114.352     7348.00     1198.06     12.1636     55.6259
     2.07500     0.00000     0.00000
   167.555
    0.568000    0.314856     1.55696    0.827682     7.12350
     1.35695     5.10640     12.7019     1.50600     128.000
     114.336     7324.00     1198.11     12.1636     57.0744
     2.07500     125.000     24.8649
   167.605
    0.568000    0.356727    0.917624     0.00000     3.21630
     1.32275     0.00000     6.85466     1.49900     104.000
     114.333     7305.00     1197.95     12.1636     46.5895
     2.05000     126.000     28.1081
   167.655
    0.568000    0.978120     2.35095     0.00000    0.270279
     1.32988     0.00000     6.89159     1.49100     110.000
     114.342     7299.00     1197.89     12.1636     49.5418
     1.97500     126.000     28.1081
   167.705
    0.568000    0.414462     0.00000     4.29170     2.16679
     0.00000     5.06544     12.5978     1.47300     102.000
     114.359     7319.00     1197.95     12.1636     46.5001
     2.10000     124.000     25.9459
   167.755
    0.568000    0.501151     1.56000    0.533838     2.27731
     1.36966     5.15408     12.8193     1.49200     121.000
     114.389     7320.00     1197.95     12.1636     54.4594
     2.10000     124.000     27.0270
   167.805
    0.568000     39681.1     1.57064     0.00000     0.00000
    0.691644     0.00000     0.00000     1.48500     97.0000
     114.405     7307.00     1198.11     12.1636     43.8633
     2.07500     123.000     23.7838
   167.855
    0.568000    0.496718    0.729489     0.00000     6.30612
     1.32804     0.00000     6.88206     1.49300     97.0000
     114.422     7325.00     1197.89     12.1636     43.6283
     2.00000     124.000     19.4595
   167.905
    0.568000    0.322491     1.13588     0.00000     3.65777
     1.33069     0.00000     6.89581     1.49000     92.0000
     114.424     7334.00     1198.11     12.1636     41.4627
     1.97500     125.000     22.7027
   167.955
    0.568000    0.403336    0.912632    0.840856     1.96531
   0.0929879    0.335819    0.759218     47.3170     2801.00
     114.433     7346.00     1198.11     12.1636     39.7514
     1.97500     126.000     28.1081
   168.005
    0.568000     2.34986     1.58967    0.224381     0.00000
     1.34960     2.81212     0.00000     1.46900     89.0000
     68.6120     4673.00     1198.11     12.1636     40.6841
     2.02500     125.000     31.3514
   168.055
    0.568000     2.25515    0.817002     1.98379     0.00000
     1.35608     2.82562     0.00000     1.46200     92.0000
     68.6350     4746.00     1197.95     12.1636     42.2568
     2.02500     124.000     28.1081
   168.105
    0.568000    0.308931   0.0427600     2.52142     3.56017
     1.39851     5.26268     13.0894     1.46100     76.0000
     68.6630     4783.00     1197.95     12.1636     34.9317
     2.02500     123.000     22.7027
   168.155
    0.568000    0.867853     2.01731     0.00000     0.00000
    0.704924     0.00000     0.00000     1.45700     90.0000
     68.6940     4845.00     1197.89     12.1636     41.4801
     2.00000     123.000     19.4595
   168.205
    0.568000    0.335843    0.742955     0.00000     7.32327
     1.34245     0.00000     6.95675     1.47700     102.000
     68.7120     4881.00     1198.11     12.1636     46.3742
     2.02500     123.000     19.4595
   168.255
    0.568000    0.468416     0.00000     3.66335     2.05076
     0.00000     4.99090     12.4125     1.49500     104.000
     68.7050     4896.00     1197.95     12.1636     46.7142
     2.00000     125.000     22.7027
   168.305
    0.568000    0.354706    0.404011    0.176857     9.16361
     1.36592     5.14004     12.7844     1.49600     106.000
     68.6810     4913.00     1197.95     12.1636     47.5807
     2.00000     125.000     25.9459
   168.355
    0.568000     72.9296     1.96604     0.00000     0.00000
    0.686089     0.00000     0.00000     1.49700     93.0000
     68.6790     4912.00     1197.95     12.1636     41.7174
     2.00000     126.000     30.2703
   168.405
    0.568000    0.356190    0.861441    0.345968     5.56190
     1.36315     5.12959     12.7584     1.49900     97.0000
     68.6840     4912.00     1197.95     12.1636     43.4537
     2.05000     126.000     27.0270
   168.455
    0.568000    0.258090     1.42521     1.85296     1.63983
     1.36140     5.12303     12.7421     1.50100     113.000
     68.6760     4905.00     1198.11     12.1636     50.5538
     2.02500     126.000     28.1081
   168.505
    0.568000    0.344746    0.461551     0.00000     11.0793
     1.32535     0.00000     6.86814     1.49600     92.0000
     68.6660     4896.00     1197.95     12.1636     41.2964
     2.05000     124.000     29.1892
