#------------------------------------------------------------
~VERSION INFORMATION
VERS.               2.0  :CWLS LOG ASCII STANDARD - VERSION 2.0
WRAP.               YES  :MULTIPLE LINES PER DEPTH STEP
#------------------------------------------------------------
~WELL INFORMATION
STRT.M          4.03750  :FIRST INDEX VALUE
STOP.M          359.938  :LAST INDEX VALUE
STEP.M          0.00000  :STEP
NULL.            -99999  :NULL VALUE
COMP.                    :COMPANY
WELL.                    :WELL
FLD.                     :FLD
LOC.                     :LOCATION
SRVC.                    :
CTRY.                    :COUNTRY
STAT.                    :STATE
CNTY.                    :
DATE.                    :DATE
API.                     :API
#------------------------------------------------------------
~CURVE INFORMATION
DEPT.M                   :DEPTH
SPEED.MT/MIN             :Speed
TIME.SEC                 :Time
POSCOUNT.COUNT           :Poscount
NEGCOUNT.COUNT           :Negcount
POSDT.SEC                :Posdt
NEGDT.SEC                :Negdt
MAG_SUSC.10E-3_SI_UNITS   :Mag Susc
INDUCTION.MS/M           :Induction
IND_RES.OHM-M            :Ind Res
#------------------------------------------------------------
~PARAMETER INFORMATION
BIT_FROM1.               :BIT FROM1
BIT_FROM2.               :BIT FROM2
BIT_FROM3.               :BIT FROM3
BIT_FROM4.               :BIT FROM4
BIT_FROM5.               :BIT FROM5
BIT_FROM6.               :BIT FROM6
BIT_TO1.                 :BIT TO1
BIT_TO2.                 :BIT TO2
BIT_TO3.                 :BIT TO3
BIT_TO4.                 :BIT TO4
BIT_TO5.                 :BIT TO5
BIT_TO6.                 :BIT TO6
BIT1.                    :BIT1
BIT2.                    :BIT2
BIT3.                    :BIT3
BIT4.                    :BIT4
BIT5.                    :BIT5
BIT6.                    :BIT6
BTM_LOGGED_INTERVAL.     :BTM LOGGED INTERVAL
CASING_FROM1.            :CASING FROM1
CASING_FROM2.            :CASING FROM2
CASING_FROM3.            :CASING FROM3
CASING_FROM4.            :CASING FROM4
CASING_FROM5.            :CASING FROM5
CASING_FROM6.            :CASING FROM6
CASING_SIZE1.            :CASING SIZE1
CASING_SIZE2.            :CASING SIZE2
CASING_SIZE3.            :CASING SIZE3
CASING_SIZE4.            :CASING SIZE4
CASING_SIZE5.            :CASING SIZE5
CASING_SIZE6.            :CASING SIZE6
CASING_TO1.              :CASING TO1
CASING_TO2.              :CASING TO2
CASING_TO3.              :CASING TO3
CASING_TO4.              :CASING TO4
CASING_TO5.              :CASING TO5
CASING_TO6.              :CASING TO6
CO.                      :CO
CTY.                     :CTY
D_F_.                    :D.F.
DENSITY.                 :DENSITY
DEPTH-DRILLER.           :DEPTH-DRILLER
DEPTH-LOGGER.            :DEPTH-LOGGER
DRILLING_MEAS__FROM.     :DRILLING MEAS. FROM
ELEVATION.               :ELEVATION
FIELD.                   :FIELD
FILING_No.               :FILING No
G_L_.                    :G.L.
K_B_.                    :K.B.
LEVEL.                   :LEVEL
LOG_MEAS__FROM.          :LOG MEAS. FROM
MAX__REC__TEMP_.         :MAX. REC. TEMP.
OPERATING_RIG_TIME.      :OPERATING RIG TIME
OTHER_SERVICES.          :OTHER SERVICES
PERMANENT_DATUM.         :PERMANENT DATUM
RECORDED_BY.             :RECORDED BY
RGE.                     :RGE
RUN_No.                  :RUN No
RUN1.                    :RUN1
RUN2.                    :RUN2
RUN3.                    :RUN3
RUN4.                    :RUN4
RUN5.                    :RUN5
RUN6.                    :RUN6
SALINITY.                :SALINITY
SEC.                     :SEC
STE.                     :STE
TITLE.                   :TITLE
TOP_LOGGED_INTERVAL.     :TOP LOGGED INTERVAL
TWP.                     :TWP
TYPE_FLUID_IN_HOLE.      :TYPE FLUID IN HOLE
TYPE_LOG.                :TYPE LOG
WELL_ID.                 :WELL ID
WGT1.                    :WGT1
WGT2.                    :WGT2
WGT3.                    :WGT3
WGT4.                    :WGT4
WGT5.                    :WGT5
WGT6.                    :WGT6
WITNESSED_BY.            :WITNESSED BY
#------------------------------------------------------------
~OTHER
#------------------------------------------------------------
~A
# ...
   50.9375
     4.11501    0.719982     75.9982     89.3978    0.707945
    0.712106    0.592738     2.43634     430.329
   50.9875
     4.17003    0.730018     78.2025     90.6021    0.719913
    0.721465    0.545751     2.36205     410.452
   51.0375
     4.20000    0.719985     77.9986     89.3983    0.712385
    0.712124    0.495218     2.39809     430.329
   51.0875
     4.16999    0.730014     78.4011     90.6016    0.718692
    0.722850    0.518715     2.36205     410.452
   51.1375
     4.15000    0.719975     78.1985     89.3970    0.708951
    0.713046    0.512839     2.39811     430.329
   51.1875
     4.15000    0.700000     77.0000     87.0000    0.692267
    0.692573    0.486987     2.36205     533.713
   51.2375
     4.10497    0.730018     80.0018     90.6021    0.721073
    0.721500    0.488743     2.02663     430.329
   51.2875
     4.09001    0.750000     81.3997     93.0000    0.743105
    0.741456    0.538695     2.17079     410.452
   51.3375
     4.10000    0.719986     76.7981     89.3984    0.710090
    0.712132    0.563372     2.39809     351.005
   51.3875
     4.10000    0.730025     77.6030     90.6030    0.719093
    0.721678    0.586281     2.70881     410.452
   51.4375
     4.13002    0.750000     80.0000     93.0000    0.741999
    0.741566    0.625647     2.57657     430.329
   51.4875
     4.13499    0.719982     76.3979     89.3979    0.712348
    0.712321    0.655599     2.36205     410.452
   51.5375
     4.12500    0.730015     77.0014     90.6017    0.721326
    0.721500    0.700841     2.39809     430.329
   51.5875
     4.12500    0.719986     76.5989     89.3984    0.712154
    0.711771    0.656772     2.36205     410.452
   51.6375
     4.15503    0.730025     78.6030     90.6030    0.719317
    0.721488    0.633871     2.39811     430.329
   51.6875
     4.17500    0.719982     77.9982     89.3978    0.708621
    0.711728    0.670877     2.36205     410.452
   51.7375
     4.17500    0.700000     76.6003     87.0000    0.691621
    0.692389    0.617422     2.39810     410.452
   51.7875
     4.20501    0.730015     80.6017     90.6017    0.720601
    0.721396    0.605085     2.43634     410.452
   51.8375
     4.20999    0.719986     80.5989     89.3984    0.711552
    0.711801    0.633887     2.43634     430.329
   51.8875
     4.18499    0.700000     78.3995     87.0000    0.691824
    0.692573    0.670883     2.36203     410.452
   51.9375
     4.17500    0.700000     77.3996     87.0000    0.688560
    0.692479    0.600956     2.39809     430.329
   51.9875
     4.14498    0.730018     81.2025     90.6021    0.721470
    0.721878    0.539264     2.36205     430.329
   52.0375
     4.15501    0.719985     79.7980     89.3983    0.710715
    0.713153    0.617416     2.32380     410.452
   52.0875
     4.17500    0.730014     80.0014     90.6016    0.718480
    0.723349    0.605087     2.39809     430.329
   52.1375
     4.15999    0.719975     78.9975     89.3970    0.711341
    0.713621    0.600967     2.36203     410.452
   52.1875
     4.13499    0.730018     81.2026     90.6022    0.724774
    0.722814    0.530472     2.39809     555.975
   52.2375
     4.12500    0.719982     79.7975     88.7975    0.713312
    0.707561    0.582164     2.01534     430.329
   52.2875
     4.12500    0.730015     78.8009     90.2020    0.717374
    0.719060    0.596264     2.14529     410.452
   52.3375
     4.12500    0.719986     78.1992     89.3984    0.712367
    0.712190    0.565701     2.39809     555.975
   52.3875
     4.14001    0.730025     80.0025     91.2035    0.718887
    0.726133    0.512839     2.01525     410.452
   52.4375
     4.15000    0.719982     78.9982     89.7974    0.710145
    0.714301    0.480520     2.21962     555.975
   52.4875
     4.15000    0.730018     78.8011     90.6021    0.720213
    0.721021    0.418853     2.01534     533.713
   52.5375
     4.13499    0.719985     77.5988     89.3983    0.713414
    0.711695    0.321312     1.84816     410.452
   52.5875
     4.14001    0.730014     79.6016     90.6016    0.723638
    0.721372    0.548946     2.24509     226.017
   52.6375
     4.15000    0.719975     78.3970     89.3970    0.709711
    0.710933     1.78193     3.74915     144.140
   52.6875
     4.19503    0.730018     78.4015     90.6022    0.717047
    0.720776     3.80076     6.08361     153.254
   52.7375
     4.20999    0.719982     76.3979     89.3979    0.709242
    0.712175     4.31668     6.66531     242.462
   52.7875
     4.20000    0.700000     73.3997     87.0000    0.693576
    0.693093     3.14137     4.94041     296.373
   52.8375
     4.20000    0.700000     71.1992     87.0000    0.690827
    0.692614     2.91066     3.62913     333.443
   52.8875
     4.15496    0.730025     73.6030     90.6030    0.719242
    0.721411     3.28362     3.12643     256.457
   52.9375
     4.10999    0.719982     86.2062     89.3978    0.712028
    0.711726     3.11779     3.59334     182.656
   52.9875
     4.10000    0.730018     130.222     90.6021    0.723738
    0.721756     2.09334     4.93939     156.862
   53.0375
     4.11501    0.750000     169.407     93.0000    0.744133
    0.741078     1.86537     6.06903     202.036
   53.0875
     4.10999    0.719986     153.188     89.3984    0.716078
    0.712247     2.03624     5.43411     333.443
   53.1375
     4.10000    0.730025     136.000     90.6030    0.724670
    0.722892     1.83477     3.66157     202.036
   53.1875
     4.10000    0.719982     136.600     89.3978    0.713266
    0.713605     1.74664     4.28672     190.487
   53.2375
     4.11501    0.730018     144.204     90.0018    0.725492
    0.718813     1.69673     5.14773     256.457
   53.2875
     4.12500    0.750000     131.592     92.6003    0.742705
    0.740236     1.49981     4.35832     242.462
   53.3375
     4.12500    0.719986     110.396     89.3984    0.715525
    0.714569     1.02384     4.04786     256.457
   53.3875
     4.12500    0.730025     112.407     90.0025    0.725203
    0.719856    0.565716     3.97574     333.443
   53.4375
     4.14001    0.719982     110.195     88.9982    0.713972
    0.713201    0.539291     3.30496     333.443
   53.4875
     4.15000    0.730018     108.002     90.0018    0.722970
    0.723693    0.674960     2.99901     296.373
   53.5375
     4.15000    0.719985     105.198     88.3983    0.710532
    0.711346    0.861808     3.24662    -99999.0
   53.5875
     4.18001    0.700000     100.199     86.6003    0.694950
    0.691801    0.698422    -99999.0     410.452
   53.6375
     4.16997    0.730025     96.5980     93.0050    0.721502
    0.722731    0.485814     2.43634     351.005
   53.6875
     4.13499    0.719982     83.5930     95.7993    0.709870
    0.713014    0.521654     2.70874     533.713
   53.7375
     4.12500    0.730018     78.4014     98.6021    0.723503
    0.722090    0.530467     2.20509     430.329
   53.7875
     4.12500    0.719985     78.1991     94.3968    0.711713
    0.711710    0.521655     2.17079     296.373
   53.8375
     4.10999    0.730014     84.2033     93.0014    0.721260
    0.723256    0.530461     3.01713     410.452
   53.8875
     4.10000    0.719975     83.5955     90.7965    0.710866
    0.710325    0.504025     2.75487     430.329
   53.9375
     4.10000    0.730018     79.3996     92.8029    0.717020
    0.719030    0.443510     2.36205     410.452
   53.9875
     4.13002    0.750000     79.6003     97.8011    0.741543
    0.741708    0.447029     2.39810     430.329
   54.0375
     4.13499    0.719985     76.9986     95.9986    0.714516
    0.713024    0.486986     2.36206     430.329
   54.0875
     4.12500    0.730014     78.0014     96.4011    0.719669
    0.725385    0.462291     2.32380     410.452
   54.1375
     4.12500    0.719975     76.9975     91.9950    0.710412
    0.713960    0.401209     2.39811     430.329
   54.1875
     4.10999    0.730018     78.0018     94.0037    0.722161
    0.720958    0.408264     2.36205     410.452
   54.2375
     4.13002    0.719982     75.7975     94.3979    0.709046
    0.710033    0.436461     2.39810     410.452
