#------------------------------------------------------------
~VERSION INFORMATION
VERS.               2.0  :CWLS LOG ASCII STANDARD - VERSION 2.0
WRAP.               YES  :MULTIPLE LINES PER DEPTH STEP
#------------------------------------------------------------
~WELL INFORMATION
STRT.M         0.554600  :FIRST INDEX VALUE
STOP.M          359.955  :LAST INDEX VALUE
STEP.M          0.00000  :STEP
NULL.            -99999  :NULL VALUE
COMP.                    :COMPANY
WELL.                    :WELL
FLD.                     :FLD
LOC.                     :LOCATION
SRVC.                    :
CTRY.                    :COUNTRY
STAT.                    :STATE
CNTY.                    :
DATE.                    :DATE
API.                     :API
#------------------------------------------------------------
~CURVE INFORMATION
DEPT.M                   :DEPTH
A1.                      :A1
CHI2.                    :Chi2
K.%                      :K
U.PPM                    :U
TH.PPM                   :Th
K-ERROR.%                :K-Error
U-ERROR.PPM              :U-Error
TH-ERROR.PPM             :Th-Error
TIME.SEC                 :Time
COUNTS.                  :Counts
STACK_TIME.SEC           :Stack Time
STACK_COUNTS.            :Stack counts
EHT.V                    :EHT
TCPU.'C                  :TCPU
GR.API                   :GR
SPEED.M/MIN              :Speed
TOOLPOWERVOLTAGE.V       :ToolPowerVoltage
TOOLPOWERCURRENT.MA      :ToolPowerCurrent
#------------------------------------------------------------
~PARAMETER INFORMATION
#------------------------------------------------------------
~OTHER
#------------------------------------------------------------
~A
# ...
   285.805
    0.569000    0.436997     3.02691     2.08487     10.4329
     1.35119     5.24415     12.9755     1.52900     296.000
     70.5620     9935.00     1197.79     12.6662     129.999
     1.97500     123.000     25.9459
   285.855
    0.569000    0.483753     3.04340    0.952494     15.9091
     1.35937     5.34478     13.1762     1.52700     327.000
     70.5550     9933.00     1197.79     12.6662     143.802
     1.95000     123.000     19.4595
   285.905
    0.569000    0.399312     2.91152     2.11840     10.9478
     1.35732     5.28433     13.0607     1.52400     325.000
     70.5500     9884.00     1197.79     12.6662     143.204
     1.95000     125.000     31.3514
   285.955
    0.569000    0.412813     2.83290    0.323929     16.1621
     1.35461     5.24268     13.0369     1.52600     322.000
     70.5460     9831.00     1197.79     12.6662     141.696
     1.95000     123.000     22.7027
   286.005
    0.569000    0.360767     1.70834     7.26381     8.65518
     1.36893     5.56477     13.3470     1.52700     328.000
     70.5470     9762.00     1197.79     12.6662     144.242
     1.95000     125.000     27.0270
   286.055
    0.569000     1.10858    0.898363     10.6977   0.0729284
     1.36087     5.56919     13.2452     1.53700     295.000
     70.5520     9691.00     1197.95     12.6662     128.886
     1.97500     125.000     31.3514
   286.105
    0.569000    0.349002     3.95303     2.91657     11.6108
     1.35333     5.45549     13.2201     1.54200     324.000
     70.5510     9620.00     1197.79     12.6662     141.097
     1.95000     124.000     20.5405
   286.155
    0.569000    0.932278     2.20787     6.71371     0.00000
     1.31163     2.89442     0.00000     1.54200     321.000
     70.5430     9562.00     1197.79     12.6662     139.790
     1.97500     125.000     27.0270
   286.205
    0.569000    0.391018     2.56959    0.781486     8.69729
     1.32702     5.01477     12.5776     1.54400     269.000
     70.5340     9439.00     1197.79     12.6662     116.993
     1.97500     123.000     23.7838
   286.255
    0.569000    0.353147     2.14210     0.00000     17.8163
     1.28413     0.00000     6.99190    -99999.0    -99999.0
    -99999.0    -99999.0    -99999.0    -99999.0    -99999.0
     1.95000     124.000     20.5405
   286.305
    0.569000    0.353147     2.14210     0.00000     17.8163
     1.28413     0.00000     6.99190     1.55200     256.000
     70.5370     9267.00     1197.95     12.6662     110.766
     1.97500     123.000     23.7838
   286.355
    0.569000    0.370262     1.02400     2.39937     8.22748
     1.33658     5.03553     12.5605     1.53000     230.000
     70.5240     9160.00     1197.79     12.6662     100.947
     1.95000     123.000     19.4595
   286.405
    0.569000     2.31819     1.88784     3.13425     0.00000
     1.29794     2.70451     0.00000     1.52800     198.000
     70.5280     9064.00     1197.79     12.6662     87.0158
     1.95000     124.000     29.1892
   286.455
    0.569000    0.366313    0.894970     0.00000     10.5162
     1.29534     0.00000     6.71259     1.53100     161.000
     70.5300     8999.00     1197.79     12.6662     70.6166
     1.95000     123.000     19.4595
   286.505
    0.569000    0.542359     0.00000     0.00000     15.9300
     0.00000     0.00000     3.47815     1.53300     162.000
     70.5250     8974.00     1197.79     12.6662     70.9626
     1.95000     125.000     28.1081
   286.555
    0.569000    0.407753    0.688637     2.84364     5.48557
     1.34356     5.05587     12.5750     1.52100     127.000
     70.5270     8956.00     1197.79     12.6662     56.0700
     1.92500     124.000     29.1892
   286.605
    0.569000    0.490936    0.581809     2.39869     5.73639
     1.33133     5.00986     12.4606     1.53500     134.000
     70.5380     8940.00     1197.79     12.6662     58.6209
     1.95000     124.000     28.1081
   286.655
    0.569000    0.337066    0.429366     1.70832     8.03789
     1.35067     5.08263     12.6416     1.51300     128.000
     70.5340     8943.00     1197.95     12.6871     56.8103
     1.92500     123.000     19.4595
   286.705
    0.569000    0.733463     1.64692     2.29099     0.00000
     1.30119     2.71124     0.00000     1.52400     161.000
     70.5440     8933.00     1197.79     12.6662     70.9410
     1.92500     124.000     21.6216
   286.755
    0.569000     4.46740     1.49906     2.28818     0.00000
     1.29357     2.69538     0.00000     1.53300     168.000
     70.5540     8868.00     1197.95     12.6871     73.5908
     1.97500     123.000     19.4595
   286.805
    0.569000    0.365056    0.614746     0.00000     12.6089
     1.28278     0.00000     6.64818     1.54600     165.000
     70.5610     8821.00     1197.79     12.6662     71.6689
     1.95000     123.000     19.4595
   286.855
    0.569000    0.423033     0.00000     3.93480     8.85212
     0.00000     4.85074     12.0654     1.54800     181.000
     70.5610     8756.00     1197.79     12.6662     78.5171
     1.97500     123.000     22.7027
   286.905
    0.569000    0.294063    0.430942     8.02174     2.73279
     1.33429     5.26026     12.7653     1.55200     202.000
     70.5530     8682.00     1197.95     12.6662     87.4009
     1.95000     123.000     22.7027
   286.955
    0.569000    0.613357     1.70207     0.00000     3.77902
     1.28781     0.00000     6.67360     1.54000     173.000
     70.5460     8592.00     1197.79     12.6871     75.4365
     1.95000     124.000     22.7027
   287.005
    0.569000    0.381643     0.00000     2.12715     12.1755
     0.00000     4.83889     12.0514     1.54300     192.000
     70.5530     8508.00     1197.79     12.6871     83.5587
     1.95000     125.000     31.3514
   287.055
    0.569000    0.381446     1.03808     0.00000     17.7456
     1.29587     0.00000     6.98097     1.53600     184.000
     70.5540     8454.00     1197.95     12.6662     80.4420
     2.00000     124.000     21.6216
   287.105
    0.569000    0.335924     1.28401     0.00000     12.2108
     1.29549     0.00000     6.74172     1.53100     180.000
     70.5570     8409.00     1197.95     12.6662     78.9503
     1.95000     125.000     29.1892
   287.155
    0.569000    0.481599     1.52687     0.00000     10.4992
     1.29547     0.00000     6.73083     1.53100     188.000
     70.5670     8407.00     1197.79     12.6871     82.4592
     1.95000     122.000     19.4595
   287.205
    0.569000    0.303222     1.07409     4.58016     1.31693
     1.32648     4.99338     12.4228     1.54100     187.000
     70.5770     8423.00     1197.79     12.6871     81.4883
     1.92500     123.000     20.5405
   287.255
    0.569000    0.684027     2.95160     0.00000     2.08509
     1.29454     0.00000     6.70845     1.53200     172.000
     70.5750     8449.00     1197.79     12.6871     75.3921
     1.92500     124.000     30.2703
   287.305
    0.569000    0.417328     1.56653    0.757184     3.89960
     1.33580     5.02670     12.5025     1.53000     162.000
     70.5840     8516.00     1197.95     12.6871     71.1017
     1.92500     123.000     21.6216
   287.355
    0.569000    0.421646     1.30531     0.00000     7.83305
     1.30222     0.00000     6.74825     1.52300     178.000
     70.5930     8604.00     1197.79     12.6871     78.4832
     1.95000     125.000     28.1081
   287.405
    0.569000    0.362484    0.338869     1.15962     5.88181
     1.33837     5.03636     12.5265     1.52700     149.000
     70.6010     8669.00     1197.95     12.6871     65.5245
     1.95000     124.000     29.1892
   287.455
    0.569000    0.255014     1.94105     1.95457    0.664036
     1.34451     5.05947     12.5840     1.52000     143.000
     70.6040     8747.00     1197.95     12.6871     63.1755
     1.95000     124.000     22.7027
   287.505
    0.569000    0.444504     2.25687    0.678365    0.546777
     1.33833     5.03621     12.5261     1.52700     140.000
     70.6170     8823.00     1197.79     12.6871     61.5666
     1.97500     125.000     29.1892
