#------------------------------------------------------------
~VERSION INFORMATION
VERS.               2.0  :CWLS LOG ASCII STANDARD - VERSION 2.0
WRAP.               YES  :MULTIPLE LINES PER DEPTH STEP
#------------------------------------------------------------
~WELL INFORMATION
STRT.M         0.554600  :FIRST INDEX VALUE
STOP.M          359.955  :LAST INDEX VALUE
STEP.M          0.00000  :STEP
NULL.            -99999  :NULL VALUE
COMP.                    :COMPANY
WELL.                    :WELL
FLD.                     :FLD
LOC.                     :LOCATION
SRVC.                    :
CTRY.                    :COUNTRY
STAT.                    :STATE
CNTY.                    :
DATE.                    :DATE
API.                     :API
#------------------------------------------------------------
~CURVE INFORMATION
DEPT.M                   :DEPTH
A1.                      :A1
CHI2.                    :Chi2
K.%                      :K
U.PPM                    :U
TH.PPM                   :Th
K-ERROR.%                :K-Error
U-ERROR.PPM              :U-Error
TH-ERROR.PPM             :Th-Error
TIME.SEC                 :Time
COUNTS.                  :Counts
STACK_TIME.SEC           :Stack Time
STACK_COUNTS.            :Stack counts
EHT.V                    :EHT
TCPU.'C                  :TCPU
GR.API                   :GR
SPEED.M/MIN              :Speed
TOOLPOWERVOLTAGE.V       :ToolPowerVoltage
TOOLPOWERCURRENT.MA      :ToolPowerCurrent
#------------------------------------------------------------
~PARAMETER INFORMATION
#------------------------------------------------------------
~OTHER
#------------------------------------------------------------
~A
# ...
   95.0546
    0.570000    0.407915     1.57477     0.00000     11.1745
     1.28379     0.00000     6.68685     1.54500     183.000
     66.5270     8934.00     1198.06     12.3102     79.5388
     1.92500     124.000     19.4595
   95.1046
    0.570000     2.64825    0.832300     7.00671     0.00000
     1.29909     2.80175     0.00000     1.54700     216.000
     66.3600     8909.00     1197.89     12.3311     93.7605
     1.92500     125.000     21.6216
   95.1546
    0.570000    0.446017     1.83906     4.04069     0.00000
     1.28137     2.67153     0.00000     1.54800     196.000
     66.1890     8888.00     1198.06     12.3311     85.0240
     1.92500     126.000     30.2703
   95.2046
    0.570000    0.423000     1.58586     6.25866     3.26631
     1.33672     5.28521     12.8495     1.55100     233.000
     66.0140     8872.00     1198.06     12.3311     100.879
     1.90000     125.000     30.2703
   95.2546
    0.570000    0.558215     1.95044     0.00000     4.02469
     1.27061     0.00000     6.58447     1.56100     206.000
     65.8350     8840.00     1198.06     12.3102     88.6177
     1.92500     124.000     28.1081
   95.3046
    0.570000    0.348793     1.21785     2.44408     10.4180
     1.33711     5.08742     12.6709     1.53600     217.000
     65.6460     8813.00     1198.06     12.3102     94.8691
     1.92500     124.000     25.9459
   95.3546
    0.570000    0.353097     1.87800     0.00000     10.3664
     1.30493     0.00000     6.80025     1.52000     183.000
     65.4880     8756.00     1197.89     12.3102     80.8470
     1.92500     124.000     19.4595
   95.4046
    0.570000    0.396523     2.14657     0.00000     10.5804
     1.29008     0.00000     6.75926     1.53800     179.000
     65.3420     8742.00     1198.06     12.3102     78.1543
     1.92500     125.000     23.7838
   95.4546
    0.570000    0.563236     1.25695     2.96931     2.03406
     1.30109     4.89605     12.1775     1.57100     201.000
     65.1660     8732.00     1197.89     12.3102     85.9164
     1.95000     125.000     23.7838
   95.5046
    0.570000    0.423960     1.53616     0.00000     11.5582
     1.27328     0.00000     6.64403     1.55800     206.000
     64.9530     8718.00     1198.06     12.3311     88.7884
     1.92500     125.000     24.8649
   95.5546
    0.570000     3.04076     2.86600     4.03285     0.00000
     1.28147     2.74740     0.00000     1.56200     231.000
     64.7440     8703.00     1197.89     12.3102     99.3087
     1.92500     125.000     23.7838
   95.6046
    0.570000    0.381282     2.01798     2.97063     5.32265
     1.31323     4.99510     12.4366     1.56300     200.000
     64.5410     8649.00     1197.89     12.3102     85.9266
     1.92500     126.000     24.8649
   95.6546
    0.570000    0.479339     2.60604     2.73219     2.60338
     1.33560     5.04010     12.5912     1.53200     204.000
     64.3550     8600.00     1197.89     12.3102     89.4186
     1.92500     125.000     24.8649
   95.7046
    0.570000    0.330562     2.18103     0.00000     15.1115
     1.29273     0.00000     7.06098     1.54200     213.000
     64.2130     8598.00     1198.06     12.3102     92.7580
     1.95000     126.000     24.8649
   95.7546
    0.570000    0.358713     2.85485     3.84604     2.27784
     1.33948     5.16955     12.7727     1.53800     201.000
     64.0520     8587.00     1197.89     12.3102     87.7599
     1.95000     126.000     29.1892
   95.8046
    0.570000    0.344522     1.58157     5.46292     0.00000
     1.30209     2.75893     0.00000     1.53300     239.000
     63.9030     8565.00     1197.89     12.3102     104.692
     1.95000     125.000     30.2703
   95.8546
    0.570000    0.326258     1.67000     0.00000     15.3328
     1.29560     0.00000     6.96631     1.53600     208.000
     63.7740     8484.00     1198.06     12.3102     90.9345
     1.92500     126.000     31.3514
   95.9046
    0.570000    0.470723     2.65086     0.00000     4.51350
     1.29718     0.00000     6.72617     1.52900     197.000
     63.6440     8466.00     1198.06     12.3102     86.5197
     1.92500     126.000     32.4324
   95.9546
    0.570000     1.35260     2.12107     2.15148    0.436707
     1.34820     5.07336     12.6185     1.51600     175.000
     63.5220     8438.00     1198.06     12.3102     77.5167
     1.92500     126.000     31.3514
   96.0046
    0.570000    0.528628     1.72055     1.65337     8.37601
     1.47598     5.55822     13.8569     1.38500     203.000
     63.4120     8432.00     1197.89     12.3102     98.4244
     1.90000     125.000     31.3514
   96.0546
    0.570000    0.291439     2.88427     0.00000     0.00000
    0.754929     0.00000     0.00000     1.36100     186.000
     63.4310     8397.00     1197.89     12.3102     91.7722
     1.95000     124.000     27.0270
   96.1046
    0.570000     1.09170    0.989024     5.39486     0.00000
     1.46262     3.04762     0.00000     1.35600     185.000
     63.4710     8387.00     1198.06     12.3102     91.6154
     1.95000     123.000     22.7027
   96.1546
    0.570000     914.012     3.71827     0.00000     0.00000
    0.763913     0.00000     0.00000     1.34500     185.000
     63.5090     8385.00     1197.89     12.3102     92.3647
     1.95000     123.000     20.5405
   96.2046
    0.570000    0.376523     1.77703     2.07903     3.01602
     1.47801     5.56184     13.8335     1.38300     189.000
     63.5510     8379.00     1198.06     12.3102     91.7690
     1.95000     123.000     20.5405
   96.2546
    0.570000    0.761174     2.02231     1.38805    0.464061
     1.47908     5.56585     13.8435     1.38200     188.000
     63.5530     8371.00     1198.06     12.3102     91.3495
     1.95000     125.000     22.7027
   96.3046
    0.570000    0.353770     1.30751     2.74907     9.28071
     1.47282     5.55953     13.8781     1.39000     190.000
     63.5570     8346.00     1198.06     12.3102     91.7900
     1.95000     125.000     22.7027
   96.3546
    0.570000    0.363491     2.19747     0.00000     2.87064
     1.42788     0.00000     7.39945     1.38900     169.000
     63.5450     8312.00     1197.89     12.3102     81.7035
     1.97500     126.000     30.2703
   96.4046
    0.570000     2.21870     3.58628     1.07156     0.00000
     1.43519     2.99116     0.00000     1.38200     185.000
     63.5190     8324.00     1197.89     12.3102     89.8918
     2.20000     126.000     29.1892
   96.4546
    0.570000    0.364744     3.02352     0.00000     7.46564
     1.42923     0.00000     7.45853     1.38800     195.000
     63.5220     8310.00     1197.89     12.3102     94.3412
     2.22500     126.000     31.3514
   96.5046
    0.570000    0.463108     2.84393     0.00000     5.51730
     1.43733     0.00000     7.45334     1.38000     194.000
     63.5370     8282.00     1197.89     12.3102     94.4015
     2.22500     125.000     30.2703
   96.5546
    0.570000    0.387307    0.655467     0.00000     15.5871
     1.43316     0.00000     7.43834     1.38400     191.000
     63.5530     8281.00     1197.89     12.3102     92.6731
     2.22500     125.000     30.2703
   96.6046
    0.570000    0.876309     1.08816     6.05674     1.22562
     1.48388     5.63081     13.9229     1.38100     188.000
     63.5680     8260.00     1197.89     12.3102     91.4156
     2.15000     126.000     31.3514
   96.6546
    0.570000    0.437577    0.464266     2.46939     13.4109
     1.48793     5.61542     14.0065     1.37600     205.000
     63.5760     8258.00     1197.89     12.3102     100.044
     2.17500     126.000     31.3514
   96.7046
    0.570000    0.365976     1.78550     1.52859     4.74833
     1.49311     5.61866     13.9748     1.36900     184.000
     63.5850     8213.00     1197.89     12.3102     90.2549
     2.15000     125.000     30.2703
   96.7546
    0.570000    0.420338     2.90918     0.00000     3.73318
     1.43828     0.00000     7.45333     1.37900     176.000
     63.6000     8224.00     1197.89     12.3102     85.7047
     2.15000     125.000     30.2703
