#------------------------------------------------------------
~VERSION INFORMATION
VERS.               2.0  :CWLS LOG ASCII STANDARD - VERSION 2.0
WRAP.               YES  :MULTIPLE LINES PER DEPTH STEP
#------------------------------------------------------------
~WELL INFORMATION
STRT.M         0.554600  :FIRST INDEX VALUE
STOP.M          359.955  :LAST INDEX VALUE
STEP.M          0.00000  :STEP
NULL.            -99999  :NULL VALUE
COMP.                    :COMPANY
WELL.                    :WELL
FLD.                     :FLD
LOC.                     :LOCATION
SRVC.                    :
CTRY.                    :COUNTRY
STAT.                    :STATE
CNTY.                    :
DATE.                    :DATE
API.                     :API
#------------------------------------------------------------
~CURVE INFORMATION
DEPT.M                   :DEPTH
A1.                      :A1
CHI2.                    :Chi2
K.%                      :K
U.PPM                    :U
TH.PPM                   :Th
K-ERROR.%                :K-Error
U-ERROR.PPM              :U-Error
TH-ERROR.PPM             :Th-Error
TIME.SEC                 :Time
COUNTS.                  :Counts
STACK_TIME.SEC           :Stack Time
STACK_COUNTS.            :Stack counts
EHT.V                    :EHT
TCPU.'C                  :TCPU
GR.API                   :GR
SPEED.M/MIN              :Speed
TOOLPOWERVOLTAGE.V       :ToolPowerVoltage
TOOLPOWERCURRENT.MA      :ToolPowerCurrent
#------------------------------------------------------------
~PARAMETER INFORMATION
#------------------------------------------------------------
~OTHER
#------------------------------------------------------------
~A
# ...
   238.555
    0.569000    0.361607     1.74715     0.00000     8.88534
     1.35821     0.00000     7.04052     1.46000     129.000
     68.0210     5181.00     1198.06     12.3730     59.3326
     2.02500     124.000     27.0270
   238.605
    0.569000    0.317985    0.793295    0.736125     8.55132
     1.39775     5.25980     13.0822     1.46200     116.000
     68.0280     5148.00     1198.00     12.3730     53.2803
     2.05000     123.000     19.4595
   238.655
    0.569000    0.351218    0.359324     3.18619     4.79612
     1.39109     5.23474     13.0199     1.46900     117.000
     68.0510     5130.00     1197.84     12.3730     53.4836
     2.05000     124.000     19.4595
   238.705
    0.569000    0.297750    0.579460    0.546268     9.62524
     1.38634     5.21687     12.9755     1.47400     111.000
     68.0780     5135.00     1197.89     12.3730     50.5687
     2.05000     0.00000     0.00000
   238.755
    0.569000     1.41602     1.52912    0.146717     0.00000
     1.34147     2.79518     0.00000     1.47800     109.000
     68.1080     5152.00     1198.00     12.3730     49.5232
     2.02500     124.000     27.0270
   238.805
    0.569000     1.79731     2.49864    0.275050     0.00000
     1.34515     2.80285     0.00000     1.47400     118.000
     68.1300     5137.00     1198.00     12.3730     53.7577
     2.05000     123.000     19.4595
   238.855
    0.569000    0.439954     1.41282     0.00000     2.02028
     1.34523     0.00000     6.97115     1.47400     112.000
     68.1520     5132.00     1198.06     12.3730     51.0243
     2.02500     124.000     20.5405
   238.905
    0.569000    0.673539     1.65737     0.00000     3.68398
     1.33261     0.00000     6.90577     1.48800     122.000
     68.1810     5137.00     1197.84     12.3730     55.0571
     2.05000     126.000     30.2703
   238.955
    0.569000    0.319512    0.923390    0.550386     2.86701
     1.38629     5.21668     12.9750     1.47400     100.000
     68.1840     5101.00     1198.00     12.3730     45.5574
     2.02500     123.000     25.9459
   239.005
    0.569000    0.462316     1.01078   0.0371177     3.15784
     1.39484     5.24886     13.0550     1.46500     107.000
     68.2000     5112.00     1198.06     12.3730     49.0459
     2.05000     123.000     19.4595
   239.055
    0.569000     4.71152     2.13789    0.275886     0.00000
     1.35333     2.81990     0.00000     1.46500     100.000
     68.2220     5111.00     1198.00     12.3730     45.8373
     2.05000     124.000     21.6216
   239.105
    0.569000    0.341675    0.685013     4.38302     0.00000
     1.34794     2.80866     0.00000     1.47100     127.000
     68.2490     5127.00     1197.84     12.3730     57.9759
     2.02500     125.000     25.9459
   239.155
    0.569000    0.332041    0.590056     0.00000     9.00212
     1.35535     0.00000     7.02361     1.46300     113.000
     68.2680     5099.00     1197.84     12.3730     51.8669
     2.05000     124.000     30.2703
   239.205
    0.569000    0.362380    0.996454     1.10521     5.62650
     1.39678     5.25616     13.0732     1.46300     114.000
     68.2980     5078.00     1197.84     12.3730     52.3259
     2.00000     124.000     30.2703
   239.255
    0.569000    0.263405   0.0668667     0.00000     17.5844
     1.36764     0.00000     7.10252     1.45000     137.000
     68.3220     5087.00     1198.06     12.3730     63.4467
     2.02500     124.000     19.4595
   239.305
    0.569000    0.276226    0.954231     2.33456     6.85426
     1.41126     5.31071     13.2095     1.44800     114.000
     68.3600     5053.00     1197.84     12.3730     52.8680
     2.00000     124.000     20.5405
   239.355
    0.569000    0.404779    0.596317     5.32508     0.00000
     1.36088     2.83562     0.00000     1.45700     123.000
     68.4010     5062.00     1198.00     12.3730     56.6894
     2.05000     125.000     31.3514
   239.405
    0.569000    0.626323     2.02772     0.00000     3.11800
     1.36005     0.00000     7.04793     1.45800     122.000
     68.4050     5048.00     1198.06     12.3730     56.1900
     2.05000     123.000     23.7838
   239.455
    0.569000    0.357151     1.26148    0.549217     7.05722
     1.37796     5.18534     12.8971     1.48300     119.000
     68.4250     5044.00     1197.84     12.3730     53.8843
     2.02500     124.000     20.5405
   239.505
    0.569000    0.298996    0.687190     0.00000     8.75735
     1.32542     0.00000     6.86848     1.49600     107.000
     68.4310     5038.00     1198.06     12.3940     48.0296
     2.05000     125.000     24.8649
   239.555
    0.569000    0.321287     1.50052     2.39221     3.13882
     1.36049     5.11960     12.7335     1.50200     112.000
     68.4310     5028.00     1197.84     12.3730     50.0731
     2.05000     124.000     27.0270
   239.605
    0.569000    0.356127    0.722019    0.706353     10.8210
     1.37343     5.16829     12.8547     1.48800     141.000
     68.4200     5016.00     1198.06     12.3730     63.6316
     2.05000     123.000     22.7027
   239.655
    0.569000    0.295307     1.32120     2.15357    0.280024
     1.37333     5.16791     12.8537     1.48800     119.000
     68.4300     4993.00     1197.84     12.3940     53.7032
     2.05000     123.000     19.4595
   239.705
    0.569000    0.480765    0.427359     2.85982     1.18922
     1.37327     5.16768     12.8531     1.48800     106.000
     68.4440     4971.00     1197.84     12.3730     47.8365
     2.05000     124.000     21.6216
   239.755
    0.569000    0.697672     1.15736    0.378718    0.455257
     1.37886     5.18872     12.9055     1.48200     112.000
     68.4460     4974.00     1197.84     12.3730     50.7488
     2.07500     126.000     30.2703
   239.805
    0.569000    0.371380   0.0461187     4.60194     0.00000
     1.33419     2.78000     0.00000     1.48600     96.0000
     68.4550     4975.00     1198.00     12.3730     43.3819
     2.05000     124.000     30.2703
   239.855
    0.569000    0.520041     1.52170     1.36721    0.756803
     1.37882     5.18856     12.9051     1.48200     103.000
     68.4600     4990.00     1198.06     12.3940     46.6708
     2.02500     123.000     22.7027
   239.905
    0.569000    0.413434    0.972220     0.00000     7.43845
     1.32642     0.00000     6.87365     1.49500     132.000
     68.4520     4983.00     1198.06     12.3730     59.2910
     2.00000     124.000     22.7027
   239.955
    0.569000    0.452355    0.847421     1.64687     3.35162
     1.37979     5.19222     12.9142     1.48100     112.000
     68.4440     4942.00     1197.84     12.3940     50.7831
     2.00000     126.000     29.1892
   240.005
    0.569000    0.310015     1.50790     2.38625    0.542816
     1.38262     5.20285     12.9406     1.47800     117.000
     68.4390     4934.00     1197.84     12.3940     53.1579
     2.02500     123.000     24.8649
   240.055
    0.569000    0.418598     1.17406    0.359700     3.12232
     1.38535     5.21314     12.9662     1.47500     100.000
     68.4340     4923.00     1197.84     12.3940     45.5265
     2.00000     123.000     22.7027
   240.105
    0.569000    0.839732    0.706966     3.38401     0.00000
     1.35058     2.81417     0.00000     1.46800     103.000
     68.4360     4932.00     1197.84     12.3730     47.1159
     2.02500     125.000     24.8649
   240.155
    0.569000    0.431638     1.02664     0.00000     4.57467
     1.34152     0.00000     6.95193     1.47800     97.0000
     68.4400     4943.00     1197.84     12.3940     44.0711
     2.02500     126.000     30.2703
   240.205
    0.569000    0.442222     2.28967     0.00000     2.34391
     1.33082     0.00000     6.89645     1.49000     120.000
     68.4330     4935.00     1197.84     12.3940     54.0818
     2.02500     124.000     28.1081
   240.255
    0.569000    0.363180    0.162215     1.38028     8.02208
     1.36417     5.13345     12.7680     1.49800     122.000
     68.4320     4928.00     1198.00     12.3940     54.6896
     2.02500     124.000     20.5405
