#------------------------------------------------------------
~VERSION INFORMATION
VERS.               2.0  :CWLS LOG ASCII STANDARD - VERSION 2.0
WRAP.               YES  :MULTIPLE LINES PER DEPTH STEP
#------------------------------------------------------------
~WELL INFORMATION
STRT.M          4.03750  :FIRST INDEX VALUE
STOP.M          359.938  :LAST INDEX VALUE
STEP.M          0.00000  :STEP
NULL.            -99999  :NULL VALUE
COMP.                    :COMPANY
WELL.                    :WELL
FLD.                     :FLD
LOC.                     :LOCATION
SRVC.                    :
CTRY.                    :COUNTRY
STAT.                    :STATE
CNTY.                    :
DATE.                    :DATE
API.                     :API
#------------------------------------------------------------
~CURVE INFORMATION
DEPT.M                   :DEPTH
SPEED.MT/MIN             :Speed
TIME.SEC                 :Time
POSCOUNT.COUNT           :Poscount
NEGCOUNT.COUNT           :Negcount
POSDT.SEC                :Posdt
NEGDT.SEC                :Negdt
MAG_SUSC.10E-3_SI_UNITS   :Mag Susc
INDUCTION.MS/M           :Induction
IND_RES.OHM-M            :Ind Res
#------------------------------------------------------------
~PARAMETER INFORMATION
BIT_FROM1.               :BIT FROM1
BIT_FROM2.               :BIT FROM2
BIT_FROM3.               :BIT FROM3
BIT_FROM4.               :BIT FROM4
BIT_FROM5.               :BIT FROM5
BIT_FROM6.               :BIT FROM6
BIT_TO1.                 :BIT TO1
BIT_TO2.                 :BIT TO2
BIT_TO3.                 :BIT TO3
BIT_TO4.                 :BIT TO4
BIT_TO5.                 :BIT TO5
BIT_TO6.                 :BIT TO6
BIT1.                    :BIT1
BIT2.                    :BIT2
BIT3.                    :BIT3
BIT4.                    :BIT4
BIT5.                    :BIT5
BIT6.                    :BIT6
BTM_LOGGED_INTERVAL.     :BTM LOGGED INTERVAL
CASING_FROM1.            :CASING FROM1
CASING_FROM2.            :CASING FROM2
CASING_FROM3.            :CASING FROM3
CASING_FROM4.            :CASING FROM4
CASING_FROM5.            :CASING FROM5
CASING_FROM6.            :CASING FROM6
CASING_SIZE1.            :CASING SIZE1
CASING_SIZE2.            :CASING SIZE2
CASING_SIZE3.            :CASING SIZE3
CASING_SIZE4.            :CASING SIZE4
CASING_SIZE5.            :CASING SIZE5
CASING_SIZE6.            :CASING SIZE6
CASING_TO1.              :CASING TO1
CASING_TO2.              :CASING TO2
CASING_TO3.              :CASING TO3
CASING_TO4.              :CASING TO4
CASING_TO5.              :CASING TO5
CASING_TO6.              :CASING TO6
CO.                      :CO
CTY.                     :CTY
D_F_.                    :D.F.
DENSITY.                 :DENSITY
DEPTH-DRILLER.           :DEPTH-DRILLER
DEPTH-LOGGER.            :DEPTH-LOGGER
DRILLING_MEAS__FROM.     :DRILLING MEAS. FROM
ELEVATION.               :ELEVATION
FIELD.                   :FIELD
FILING_No.               :FILING No
G_L_.                    :G.L.
K_B_.                    :K.B.
LEVEL.                   :LEVEL
LOG_MEAS__FROM.          :LOG MEAS. FROM
MAX__REC__TEMP_.         :MAX. REC. TEMP.
OPERATING_RIG_TIME.      :OPERATING RIG TIME
OTHER_SERVICES.          :OTHER SERVICES
PERMANENT_DATUM.         :PERMANENT DATUM
RECORDED_BY.             :RECORDED BY
RGE.                     :RGE
RUN_No.                  :RUN No
RUN1.                    :RUN1
RUN2.                    :RUN2
RUN3.                    :RUN3
RUN4.                    :RUN4
RUN5.                    :RUN5
RUN6.                    :RUN6
SALINITY.                :SALINITY
SEC.                     :SEC
STE.                     :STE
TITLE.                   :TITLE
TOP_LOGGED_INTERVAL.     :TOP LOGGED INTERVAL
TWP.                     :TWP
TYPE_FLUID_IN_HOLE.      :TYPE FLUID IN HOLE
TYPE_LOG.                :TYPE LOG
WELL_ID.                 :WELL ID
WGT1.                    :WGT1
WGT2.                    :WGT2
WGT3.                    :WGT3
WGT4.                    :WGT4
WGT5.                    :WGT5
WGT6.                    :WGT6
WITNESSED_BY.            :WITNESSED BY
#------------------------------------------------------------
~OTHER
#------------------------------------------------------------
~A
# ...
   332.337
     3.06500    0.980006     97.8004     119.001    0.967585
    0.967952    0.219572    -2.79652    -464.277
   332.388
     3.07500    0.969982     95.9982     119.199    0.957782
    0.962125    0.209172    -2.37228    -754.896
   332.438
     3.09000    0.980006     97.0006     122.201    0.972674
    0.972602    0.184505    -1.60665     1336.33
   332.488
     3.08498    0.969963     95.9963     121.996    0.962502
    0.960640    0.194901   0.0446625     321.384
   332.538
     3.07500    0.980018     96.4015     124.203    0.969420
    0.972412    0.210476     2.30842     188.362
   332.587
     3.09000    0.969994     94.3993     123.399    0.957040
    0.964362    0.188403     4.56171     141.839
   332.638
     3.06998    0.980018     95.0018     124.602    0.969495
    0.973289    0.184506     6.45848     121.786
   332.688
     3.09501    0.969994     93.9994     122.799    0.960522
    0.958997    0.188400     7.81638     115.932
   332.738
     3.12500    0.950000     91.3993     120.601    0.938062
    0.941987    0.184506     8.48501     128.262
   332.788
     3.09498    0.980018     94.0018     124.602    0.967993
    0.975518    0.188400     8.07833     141.839
   332.837
     3.07500    0.969994     93.5995     122.199    0.963569
    0.960072    0.184502     7.30403     182.656
   332.888
     3.07500    0.980018     94.4015     123.203    0.971714
    0.973493    0.194901     6.01019     245.995
   332.938
     3.06000    0.969994     92.9994     121.199    0.956880
    0.964071    0.210476     4.54448     367.962
   332.988
     3.06502    0.980037     94.0037     121.004    0.968385
    0.972158    0.189699     3.17505     415.503
   333.038
     3.07500    0.969982     92.9982     117.597    0.957791
    0.958023    0.188400     2.51240     633.906
   333.087
     3.06000    0.980006     94.0006     117.001    0.968933
    0.969900    0.189687     1.85949     875.510
   333.138
     3.06501    0.969982     92.9982     114.197    0.960195
    0.962968    0.215674     1.29013     859.904
   333.188
     3.07500    0.980006     94.0006     112.800    0.968942
    0.970525    0.210476     1.15587     875.510
   333.238
     3.07500    0.969963     93.5971     109.795    0.963709
    0.961901    0.194901     1.14923     859.904
   333.288
     3.07500    0.980018     94.4015     109.401    0.972979
    0.971925    0.210476     1.15588     859.904
   333.337
     3.09000     1.00000     96.0000     111.000    0.989673
    0.991569    0.188403     1.16292     651.015
   333.388
     3.10000    0.969982     92.9982     108.599    0.957284
    0.962983    0.190682     1.40925     633.906
   333.438
     3.11500    0.950000     91.6001     108.200    0.939645
    0.938334    0.219570     1.56342     651.015
   333.488
     3.10998    0.950000     92.0000     112.004    0.942318
    0.937954    0.210473     1.55014     518.153
   333.538
     3.08499    0.980018     94.4015     121.204    0.966251
    0.971624    0.195872     1.79608     633.906
   333.587
     3.09000    0.969994     93.5995     125.400    0.961157
    0.962827    0.213090     1.69736     518.153
   333.638
     3.06998    0.980018     94.4015     131.604    0.971402
    0.972519    0.184506     1.81017     501.977
   333.688
     3.05000    0.969994     92.9994     133.600    0.955928
    0.963052    0.194897     1.97098     501.977
   333.738
     3.05000    0.980037     94.6044     136.806    0.970806
    0.975174    0.209172     1.99212     518.153
   333.788
     3.06501    0.969982     93.9982     134.597    0.962843
    0.963015    0.184505     1.95107     501.977
   333.837
     3.07500    0.980006     94.4005     134.001    0.967376
    0.974333    0.194885     1.97098     518.153
   333.888
     3.07500     1.00000     96.6004     133.599    0.989861
    0.994117    0.216649     1.95107     501.977
   333.938
     3.06000    0.969994     93.3993     125.999    0.957737
    0.961670    0.213072     1.97098     501.977
   333.988
     3.06502    0.980037     94.0037     123.802    0.967697
    0.968586    0.189707     1.99212     430.329
   334.038
     3.07500    0.969982     93.5985     120.797    0.963728
    0.963459    0.216649     2.21109     633.906
   334.087
     3.10501    0.950000     91.3999     116.800    0.940004
    0.944666    0.219572     1.83129     518.153
   334.138
     3.09498    0.980018     94.0018     119.002    0.965679
    0.971198    0.210473     1.81017     501.977
   334.188
     3.10501    0.969994     93.5995     117.399    0.958739
    0.961743    0.195872     1.97098     518.153
   334.238
     3.10998    0.980037     95.0037     118.604    0.972866
    0.972569    0.213067     1.95104     430.329
   334.288
     3.10000    0.969982     93.3978     117.398    0.956513
    0.961666    0.190678     2.18995     501.977
   334.337
     3.08500    0.950000     91.6001     115.000    0.939563
    0.940006    0.219572     2.10491     518.153
   334.388
     3.09001    0.980018     95.0018     119.203    0.972898
    0.972155    0.209172     1.95107     501.977
   334.438
     3.08500    0.969994     93.9994     118.399    0.960724
    0.962716    0.184505     1.97098     651.015
   334.488
     3.04496    0.980037     94.4029     119.604    0.967410
    0.970341    0.194901     1.69087     633.906
   334.538
     3.05502     1.00000     96.6004     122.600    0.990535
    0.993046    0.216649     1.56343     651.015
   334.587
     3.07500    0.969994     93.3993     118.799    0.957799
    0.960307    0.226054     1.55016     859.904
   334.638
     3.07500    0.980018     94.6022     120.203    0.969248
    0.970486    0.241641     1.28973     633.906
   334.688
     3.09000    0.969994     93.9994     119.399    0.964041
    0.963368    0.222822     1.43654     859.904
   334.738
     3.08498    0.950000     91.3993     117.000    0.939234
    0.942709    0.244238     1.30365     651.015
   334.788
     3.09001    0.980018     94.0018     120.602    0.965960
    0.970976    0.222822     1.40925     633.906
   334.837
     3.10000    0.969994     93.5995     119.399    0.958888
    0.961023    0.250741     1.56342     651.015
   334.888
     3.08499    0.980018     95.0018     120.602    0.968363
    0.970799    0.254969     1.55015     633.906
   334.938
     3.10501    0.969994     94.5995     119.399    0.963234
    0.960963    0.276062     1.56342     518.153
   334.988
     3.09496    0.950000     92.3993     117.000    0.940952
    0.941363    0.263743     1.81031     518.153
   335.038
     3.07500    0.980018     95.6022     121.203    0.970841
    0.975559    0.313080     1.92993     501.977
   335.087
     3.07500    0.969994     94.3993     119.199    0.958167
    0.960539    0.313080     1.97098     430.329
   335.138
     3.09001    0.980018     95.6022     120.203    0.967915
    0.970498    0.319257     2.21109     415.503
   335.188
     3.06999    0.969994     94.9994     119.399    0.957639
    0.963531    0.331255     2.37853     367.962
   335.238
     3.03498    0.980037     96.6044     120.604    0.972763
    0.970625    0.287113     2.61213     415.503
   335.288
     3.05502     1.00000     98.3996     123.600    0.988858
    0.993408    0.313080     2.51240     321.384
   335.337
     3.07500    0.969994     96.1996     119.799    0.958526
    0.963144    0.319562     2.87187     309.031
   335.388
     3.07500    0.980018     98.0018     120.602    0.971564
    0.970724    0.345549     3.19366     273.933
   335.438
     3.07500    0.969994     96.9994     119.399    0.959404
    0.962519    0.351397     3.50954     285.273
   335.488
     3.07500    0.980037     98.6044     120.004    0.973173
    0.969691    0.368919     3.55467     309.031
   335.538
     3.09001    0.969982     96.7974     118.398    0.958384
    0.959807    0.345224     3.32751     367.962
   335.587
     3.11500    0.980006     97.6007     119.601    0.969950
    0.973682    0.344249     2.89391     651.015
   335.638
     3.12500    0.969982     96.9982     117.797    0.963023
    0.961680    0.376106     1.93762     1336.33
