#------------------------------------------------------------
~VERSION INFORMATION
VERS.               2.0  :CWLS LOG ASCII STANDARD - VERSION 2.0
WRAP.               YES  :MULTIPLE LINES PER DEPTH STEP
#------------------------------------------------------------
~WELL INFORMATION
STRT.M          4.03750  :FIRST INDEX VALUE
STOP.M          359.938  :LAST INDEX VALUE
STEP.M          0.00000  :STEP
NULL.            -99999  :NULL VALUE
COMP.                    :COMPANY
WELL.                    :WELL
FLD.                     :FLD
LOC.                     :LOCATION
SRVC.                    :
CTRY.                    :COUNTRY
STAT.                    :STATE
CNTY.                    :
DATE.                    :DATE
API.                     :API
#------------------------------------------------------------
~CURVE INFORMATION
DEPT.M                   :DEPTH
SPEED.MT/MIN             :Speed
TIME.SEC                 :Time
POSCOUNT.COUNT           :Poscount
NEGCOUNT.COUNT           :Negcount
POSDT.SEC                :Posdt
NEGDT.SEC                :Negdt
MAG_SUSC.10E-3_SI_UNITS   :Mag Susc
INDUCTION.MS/M           :Induction
IND_RES.OHM-M            :Ind Res
#------------------------------------------------------------
~PARAMETER INFORMATION
BIT_FROM1.               :BIT FROM1
BIT_FROM2.               :BIT FROM2
BIT_FROM3.               :BIT FROM3
BIT_FROM4.               :BIT FROM4
BIT_FROM5.               :BIT FROM5
BIT_FROM6.               :BIT FROM6
BIT_TO1.                 :BIT TO1
BIT_TO2.                 :BIT TO2
BIT_TO3.                 :BIT TO3
BIT_TO4.                 :BIT TO4
BIT_TO5.                 :BIT TO5
BIT_TO6.                 :BIT TO6
BIT1.                    :BIT1
BIT2.                    :BIT2
BIT3.                    :BIT3
BIT4.                    :BIT4
BIT5.                    :BIT5
BIT6.                    :BIT6
BTM_LOGGED_INTERVAL.     :BTM LOGGED INTERVAL
CASING_FROM1.            :CASING FROM1
CASING_FROM2.            :CASING FROM2
CASING_FROM3.            :CASING FROM3
CASING_FROM4.            :CASING FROM4
CASING_FROM5.            :CASING FROM5
CASING_FROM6.            :CASING FROM6
CASING_SIZE1.            :CASING SIZE1
CASING_SIZE2.            :CASING SIZE2
CASING_SIZE3.            :CASING SIZE3
CASING_SIZE4.            :CASING SIZE4
CASING_SIZE5.            :CASING SIZE5
CASING_SIZE6.            :CASING SIZE6
CASING_TO1.              :CASING TO1
CASING_TO2.              :CASING TO2
CASING_TO3.              :CASING TO3
CASING_TO4.              :CASING TO4
CASING_TO5.              :CASING TO5
CASING_TO6.              :CASING TO6
CO.                      :CO
CTY.                     :CTY
D_F_.                    :D.F.
DENSITY.                 :DENSITY
DEPTH-DRILLER.           :DEPTH-DRILLER
DEPTH-LOGGER.            :DEPTH-LOGGER
DRILLING_MEAS__FROM.     :DRILLING MEAS. FROM
ELEVATION.               :ELEVATION
FIELD.                   :FIELD
FILING_No.               :FILING No
G_L_.                    :G.L.
K_B_.                    :K.B.
LEVEL.                   :LEVEL
LOG_MEAS__FROM.          :LOG MEAS. FROM
MAX__REC__TEMP_.         :MAX. REC. TEMP.
OPERATING_RIG_TIME.      :OPERATING RIG TIME
OTHER_SERVICES.          :OTHER SERVICES
PERMANENT_DATUM.         :PERMANENT DATUM
RECORDED_BY.             :RECORDED BY
RGE.                     :RGE
RUN_No.                  :RUN No
RUN1.                    :RUN1
RUN2.                    :RUN2
RUN3.                    :RUN3
RUN4.                    :RUN4
RUN5.                    :RUN5
RUN6.                    :RUN6
SALINITY.                :SALINITY
SEC.                     :SEC
STE.                     :STE
TITLE.                   :TITLE
TOP_LOGGED_INTERVAL.     :TOP LOGGED INTERVAL
TWP.                     :TWP
TYPE_FLUID_IN_HOLE.      :TYPE FLUID IN HOLE
TYPE_LOG.                :TYPE LOG
WELL_ID.                 :WELL ID
WGT1.                    :WGT1
WGT2.                    :WGT2
WGT3.                    :WGT3
WGT4.                    :WGT4
WGT5.                    :WGT5
WGT6.                    :WGT6
WITNESSED_BY.            :WITNESSED BY
#------------------------------------------------------------
~OTHER
#------------------------------------------------------------
~A
# ...
   355.788
     2.45999     1.21998     119.998     733.354     1.20575
     1.21848    0.241111     6.79527     115.932
   355.837
     2.46500     1.20000     118.600     678.199     1.18759
     1.19792    0.257156     8.17929     108.039
   355.888
     2.47500     1.23002     121.401     709.821     1.22096
     1.22797    0.243581     9.04177     100.617
   355.938
     2.46000     1.21999     119.999     748.003     1.21377
     1.21859    0.261671     9.70649     101.152
   355.988
     2.45000     1.23004     120.403     820.476     1.21955
     1.22868    0.261671     9.90395     104.054
   356.038
     2.46501     1.21998     119.599     889.617     1.20961
     1.21840    0.257145     9.70411     107.733
   356.087
     2.47500     1.20000     117.400     1072.43     1.19217
     1.19886    0.243567     9.39380     111.682
   356.138
     2.47500     1.20000     117.600     1526.61     1.19006
     1.19935    0.257142     9.06551     115.932
   356.188
     2.46000     1.23001     120.400     1416.93     1.21472
     1.22890    0.243578     8.73735     125.482
   356.238
     2.46502     1.21996     119.597     779.498     1.20660
     1.21766    0.257142     8.19211     135.771
   356.288
     2.47500     1.20000     118.000     372.118     1.19277
     1.19580    0.248722     7.57059     143.172
   356.337
     2.46000     1.20000     118.000     224.788     1.19368
     1.19555    0.287376     7.11408     155.762
   356.388
     2.43499     1.23002     120.401     160.184     1.21661
     1.22281    0.277699     6.61192     166.669
   356.438
     2.45501     1.21999     119.600     127.997     1.20908
     1.20898    0.248722     6.14280     176.314
   356.488
     2.45998     1.23004     120.403     119.201     1.21923
     1.21770    0.282229     5.78312     176.314
   356.538
     2.46501     1.21998     119.599     121.201     1.21142
     1.21032    0.267021     5.67171     172.715
   356.587
     2.46000     1.23001     120.400     131.602     1.21879
     1.22287    0.283067     5.74969     166.669
   356.638
     2.45000     1.21998     120.199     141.002     1.21008
     1.21269    0.262083     5.92854     172.715
   356.688
     2.46500     1.20000     119.000     147.801     1.19398
     1.18898    0.263316     5.86130     176.314
   356.738
     2.45998     1.23004     120.802     160.011     1.21576
     1.22311    0.261671     5.71182     176.314
   356.788
     2.46501     1.21998     120.199     164.799     1.21041
     1.21370    0.266815     5.67171     187.144
   356.837
     2.46000     1.20000     118.400     166.400     1.19108
     1.19261    0.287581     5.45509     206.416
   356.888
     2.45000     1.23002     121.602     173.403     1.21961
     1.22194    0.283051     5.01413     229.421
   356.938
     2.45000     1.21999     120.399     173.999     1.20997
     1.21462    0.262083     4.52399     256.457
   356.988
     2.48004     1.23004     121.004     176.205     1.21958
     1.22472    0.263316     4.05527     296.373
   357.038
     2.48499     1.21998     119.998     174.197     1.20994
     1.21206    0.267021     3.55260     296.373
   357.087
     2.47500     1.20000     118.000     170.400     1.18988
     1.19062    0.288199     3.37413     338.524
   357.138
     2.47500     1.20000     118.600     169.400     1.19160
     1.19111    0.277081     3.09677    -99999.0
   357.188
     2.46000     1.23001     122.001     172.601     1.22092
     1.22435    0.241111    -99999.0     367.962
   357.238
     2.46502     1.21996     120.396     169.593     1.20765
     1.21433    0.257142     2.71767     378.946
   357.288
     2.42997     1.23002     121.002     169.002     1.21936
     1.22281    0.243578     2.66567     418.507
   357.337
     2.44501     1.21999     119.999     166.199     1.20754
     1.21384    0.257156     2.47427     367.962
   357.388
     2.45999     1.23002     121.602     166.002     1.21958
     1.22369    0.238434     2.60613     418.507
   357.438
     2.46500     1.21999     120.999     163.199     1.21381
     1.21209    0.241111     2.50106     378.946
   357.488
     2.47500     1.20000     117.799     159.399     1.18758
     1.18996    0.261671     2.55423     367.962
   357.538
     2.45999     1.20000     117.600     159.000     1.19010
     1.19020    0.267021     2.69090     418.507
   357.587
     2.46500     1.23001     120.400     163.201     1.21969
     1.22200    0.288199     2.50106     378.946
   357.638
     2.45999     1.21998     119.599     162.398     1.21212
     1.21522    0.287582     2.55413     418.507
   357.688
     2.46500     1.23001     120.400     163.601     1.21975
     1.22361    0.283054     2.47427     485.149
   357.738
     2.47500     1.21996     118.996     161.795     1.20579
     1.21069    0.266818     2.17264     430.329
   357.788
     2.49001     1.20000     117.600     159.000     1.18980
     1.19292    0.282643     2.23457     485.149
   357.837
     2.48500     1.20000     118.000     158.400     1.18944
     1.19395    0.263728     2.15051     485.149
   357.888
     2.45999     1.23002     121.602     161.002     1.21946
     1.22246    -99999.0     2.06122     485.149
   357.938
     2.45000     1.21999     120.999     158.199     1.21113
     1.21215    0.262083     2.06122     497.833
   357.988
     2.45000     1.23004     122.004     158.004     1.22343
     1.22247    0.268463     2.02653     485.149
   358.038
     2.45000     1.21998     120.398     155.197     1.20844
     1.21021    0.282232     2.04338     497.833
   358.087
     2.46500     1.20000     118.600     152.000     1.19012
     1.19320    0.261671     2.02657     577.035
   358.138
     2.45999     1.23002     121.401     155.002     1.22187
     1.22300    0.257142     1.82670     485.149
   358.188
     2.46500    -99999.0    -99999.0    -99999.0    -99999.0
    -99999.0    0.238434     1.94961     577.035
   358.238
     2.47500     1.20000     118.000     150.000     1.18823
     1.19255    0.256556     1.84441     485.149
   358.288
     2.47500     1.23002     121.002     153.602     1.21506
     1.22294    0.343517     1.94968     497.833
   358.337
     2.46000     1.21999     120.600     151.799     1.21265
     1.21024    0.357711     2.02657     485.149
   358.388
     2.45000     1.20000     118.400     149.600     1.19352
     1.19310    0.333637     2.04338     485.149
   358.438
     2.46500     1.20000     118.000     149.400     1.18909
     1.19153    0.318018     2.06122     485.149
   358.488
     2.49002     1.23004     120.403     153.205     1.21726
     1.22205    0.348256     2.06122     510.144
   358.538
     2.46998     1.21998     118.998     152.398     1.20628
     1.21529    0.354185     1.99455     510.144
   358.587
     2.45000     1.20000     119.400     149.400     1.18894
     1.19137    0.210263     1.96023     510.144
   358.638
     2.45000     1.23002     124.602     153.203     1.22048
     1.22281    0.216027     1.96023     533.713
   358.688
     2.46500     1.21999     123.399     151.799     1.21348
     1.21328    0.238434     1.90310     639.703
   358.738
     2.45998     1.20000     120.399     148.399     1.19229
     1.18833    0.231643     1.66860     555.975
   358.788
     2.46501     1.23002     123.602     152.203     1.21569
     1.22174    0.213552     1.71864     551.622
   358.837
     2.47500     1.21999     124.200     150.799     1.21108
     1.21264    0.205131     1.80801     583.805
   358.888
     2.45999     1.20000     118.797     148.000     1.19184
     1.19219    0.189705     1.74686     559.114
   358.938
     2.43500     1.20000     116.000     148.000     1.18863
     1.19313    0.215407     1.76282    -99999.0
   358.988
     2.44002     1.23004     119.604     151.604     1.22332
     1.22242    0.236585    -99999.0    -99999.0
   359.038
     2.45000     1.21998     118.998     150.398     1.21098
     1.21307    0.233290    -99999.0    -99999.0
   359.087
     2.45000     1.23001     119.400     151.601     1.21514
     1.22297    0.215394    -99999.0    -99999.0
