#------------------------------------------------------------
~VERSION INFORMATION
VERS.               2.0  :CWLS LOG ASCII STANDARD - VERSION 2.0
WRAP.               YES  :MULTIPLE LINES PER DEPTH STEP
#------------------------------------------------------------
~WELL INFORMATION
STRT.M          4.03750  :FIRST INDEX VALUE
STOP.M          359.938  :LAST INDEX VALUE
STEP.M          0.00000  :STEP
NULL.            -99999  :NULL VALUE
COMP.                    :COMPANY
WELL.                    :WELL
FLD.                     :FLD
LOC.                     :LOCATION
SRVC.                    :
CTRY.                    :COUNTRY
STAT.                    :STATE
CNTY.                    :
DATE.                    :DATE
API.                     :API
#------------------------------------------------------------
~CURVE INFORMATION
DEPT.M                   :DEPTH
SPEED.MT/MIN             :Speed
TIME.SEC                 :Time
POSCOUNT.COUNT           :Poscount
NEGCOUNT.COUNT           :Negcount
POSDT.SEC                :Posdt
NEGDT.SEC                :Negdt
MAG_SUSC.10E-3_SI_UNITS   :Mag Susc
INDUCTION.MS/M           :Induction
IND_RES.OHM-M            :Ind Res
#------------------------------------------------------------
~PARAMETER INFORMATION
BIT_FROM1.               :BIT FROM1
BIT_FROM2.               :BIT FROM2
BIT_FROM3.               :BIT FROM3
BIT_FROM4.               :BIT FROM4
BIT_FROM5.               :BIT FROM5
BIT_FROM6.               :BIT FROM6
BIT_TO1.                 :BIT TO1
BIT_TO2.                 :BIT TO2
BIT_TO3.                 :BIT TO3
BIT_TO4.                 :BIT TO4
BIT_TO5.                 :BIT TO5
BIT_TO6.                 :BIT TO6
BIT1.                    :BIT1
BIT2.                    :BIT2
BIT3.                    :BIT3
BIT4.                    :BIT4
BIT5.                    :BIT5
BIT6.                    :BIT6
BTM_LOGGED_INTERVAL.     :BTM LOGGED INTERVAL
CASING_FROM1.            :CASING FROM1
CASING_FROM2.            :CASING FROM2
CASING_FROM3.            :CASING FROM3
CASING_FROM4.            :CASING FROM4
CASING_FROM5.            :CASING FROM5
CASING_FROM6.            :CASING FROM6
CASING_SIZE1.            :CASING SIZE1
CASING_SIZE2.            :CASING SIZE2
CASING_SIZE3.            :CASING SIZE3
CASING_SIZE4.            :CASING SIZE4
CASING_SIZE5.            :CASING SIZE5
CASING_SIZE6.            :CASING SIZE6
CASING_TO1.              :CASING TO1
CASING_TO2.              :CASING TO2
CASING_TO3.              :CASING TO3
CASING_TO4.              :CASING TO4
CASING_TO5.              :CASING TO5
CASING_TO6.              :CASING TO6
CO.                      :CO
CTY.                     :CTY
D_F_.                    :D.F.
DENSITY.                 :DENSITY
DEPTH-DRILLER.           :DEPTH-DRILLER
DEPTH-LOGGER.            :DEPTH-LOGGER
DRILLING_MEAS__FROM.     :DRILLING MEAS. FROM
ELEVATION.               :ELEVATION
FIELD.                   :FIELD
FILING_No.               :FILING No
G_L_.                    :G.L.
K_B_.                    :K.B.
LEVEL.                   :LEVEL
LOG_MEAS__FROM.          :LOG MEAS. FROM
MAX__REC__TEMP_.         :MAX. REC. TEMP.
OPERATING_RIG_TIME.      :OPERATING RIG TIME
OTHER_SERVICES.          :OTHER SERVICES
PERMANENT_DATUM.         :PERMANENT DATUM
RECORDED_BY.             :RECORDED BY
RGE.                     :RGE
RUN_No.                  :RUN No
RUN1.                    :RUN1
RUN2.                    :RUN2
RUN3.                    :RUN3
RUN4.                    :RUN4
RUN5.                    :RUN5
RUN6.                    :RUN6
SALINITY.                :SALINITY
SEC.                     :SEC
STE.                     :STE
TITLE.                   :TITLE
TOP_LOGGED_INTERVAL.     :TOP LOGGED INTERVAL
TWP.                     :TWP
TYPE_FLUID_IN_HOLE.      :TYPE FLUID IN HOLE
TYPE_LOG.                :TYPE LOG
WELL_ID.                 :WELL ID
WGT1.                    :WGT1
WGT2.                    :WGT2
WGT3.                    :WGT3
WGT4.                    :WGT4
WGT5.                    :WGT5
WGT6.                    :WGT6
WITNESSED_BY.            :WITNESSED BY
#------------------------------------------------------------
~OTHER
#------------------------------------------------------------
~A
# ...
   27.4875
     4.20000    0.730019     79.6023     91.2027    0.724785
    0.724606    0.625643     2.06485     430.329
   27.5375
     4.21501    0.719987     78.3985     89.7982    0.708819
    0.713075    0.637980     2.17078     410.452
   27.5875
     4.24001    0.700000     77.2005     87.0000    0.691457
    0.690772    0.633885     2.39808     430.329
   27.6375
     4.25000    0.700000     77.3995     87.0000    0.693098
    0.691452    0.662070     2.36203     430.329
   27.6875
     4.20497    0.730018     81.8029     90.6022    0.719386
    0.721051    0.582171     2.32380     410.541
   27.7375
     4.15999    0.719981     80.1969     89.3977    0.707586
    0.711708    0.605079     2.39810     555.975
   27.7875
     4.15000    0.700000     77.0000     87.0000    0.689328
    0.692457    0.621532     2.01543     410.452
   27.8375
     4.15000    0.730012     80.6014     90.6014    0.721837
    0.720922    0.642120     2.21956     430.329
   27.8875
     4.15000    0.719975     79.3970     89.3970    0.710735
    0.710595    0.747852     2.36203     430.329
   27.9375
     4.13499    0.730018     81.2026     91.2026    0.721601
    0.726116    0.826570     2.32380     410.464
   27.9875
     4.18504    0.719981     79.1969     89.1969    0.714720
    0.711466    0.771936     2.39810     430.329
   28.0375
     4.22500    0.730013     79.6015     90.2018    0.723581
    0.719858    0.791323     2.36206     410.452
   28.0875
     4.17998    0.719988     78.9988     89.3986    0.711614
    0.713004    0.780770     2.39808     430.314
   28.1375
     4.13499    0.700000     77.0000     87.0000    0.687351
    0.693903    0.841855     2.36203     410.452
   28.1875
     4.12500    0.730018     81.8029     90.6022    0.717995
    0.722302    0.826570     2.39809     430.317
   28.2375
     4.14001    0.719981     83.1988     89.3977    0.712139
    0.711839    0.745510     2.36204     410.452
   28.2875
     4.13499    0.730013     84.4010     90.6015    0.720934
    0.722001    0.660893     2.39808     533.713
   28.3375
     4.17002    0.719988     82.9988     89.3986    0.712645
    0.712921    0.675036     2.06494     430.314
   28.3875
     4.20000    0.730025     84.0025     90.6030    0.720921
    0.721227    0.787213     2.17091     410.452
   28.4375
     4.20000    0.719982     83.5985     89.3978    0.709946
    0.712081    0.671449     2.39809     430.392
   28.4875
     4.16998    0.700000     82.0000     86.3996    0.690310
    0.689252    0.512842     2.36204     533.713
   28.5375
     4.15000    0.730013     84.4010     90.2018    0.723773
    0.719798    0.495217     2.02669     555.975
   28.5875
     4.11999    0.719988     81.1981     89.3986    0.711524
    0.712719    0.543420     1.82415     555.869
   28.6375
     4.10000    0.730025     81.0025     90.6030    0.722480
    0.722899    0.611542     1.79864     410.452
   28.6875
     4.11501    0.750000     85.4015     93.0000    0.743361
    0.742596    0.486987     2.21962     555.898
   28.7375
     4.12500    0.719981     82.1969     89.3977    0.710495
    0.713492    0.497554     2.01532     430.329
   28.7875
     4.10999    0.730013     79.6003     90.0013    0.718192
    0.719561    0.573940     2.14527     533.713
   28.8375
     4.10000    0.719988     76.3986     88.9988    0.712433
    0.712056    0.581018     2.02668     430.404
   28.8875
     4.11501    0.730025     77.6030     90.6030    0.722588
    0.722690    0.660896     2.17091     533.713
   28.9375
     4.12500    0.750000     81.8011     93.0000    0.738818
    0.740598    0.637980     2.02664     430.392
   28.9875
     4.12500    0.719981     77.5965     89.3977    0.708062
    0.711861    0.603915     2.17086     533.713
   29.0375
     4.14001    0.730013     77.0013     90.6015    0.718286
    0.721800    0.555155     2.02669     410.452
   29.0875
     4.15000    0.719988     77.1993     89.3986    0.713165
    0.712600    0.655625     2.24507     430.404
   29.1375
     4.15000    0.730025     79.0025     90.6030    0.719828
    0.722172    0.696147     2.36203     533.713
   29.1875
     4.16501    0.719982     79.1989     89.3978    0.711251
    0.711814    0.629162     2.02664     410.541
   29.2375
     4.19001    0.730019     81.0019     90.6023    0.722192
    0.721652    0.582165     2.24515     555.975
   29.2875
     4.20000    0.719987     79.3985     89.3985    0.711711
    0.713424    0.617430     2.01543     430.329
   29.3375
     4.16999    0.700000     75.7995     86.3998    0.688818
    0.690966    0.679693     2.14528     410.557
   29.3875
     4.11997    0.730025     79.8040     90.2035    0.719094
    0.720598    0.652670     2.39811     555.975
   29.4375
     4.10000    0.719982     80.5985     89.3978    0.710386
    0.712803    0.600969     2.01536     410.464
   29.4875
     4.10000    0.730019     81.4016     90.6023    0.721667
    0.725129    0.605079     2.21966     430.329
   29.5375
     4.10000    0.719987     78.7982     88.7982    0.711464
    0.712663    0.625647     2.36206     555.975
   29.5875
     4.10000    0.730012     79.6014     89.6014    0.722115
    0.720444    0.646801     1.97716     410.466
   29.6375
     4.10000    0.750000     83.2010     92.0000    0.740872
    0.739878    0.669122     2.21973     430.329
   29.6875
     4.10000    0.719982     80.3978     88.9982    0.712824
    0.713853    0.662059     2.36205     533.638
   29.7375
     4.11501    0.730019     80.4016     90.0019    0.722066
    0.719927    0.577467     2.02661     410.452
   29.7875
     4.12500    0.750000     82.0000     92.6003    0.741446
    0.741942    0.582171     2.24505     430.329
   29.8375
     4.12500    0.719988     78.9988     88.7983    0.711097
    0.713199    0.631556     2.36206     533.624
   29.8875
     4.12500    0.730025     80.6030     90.2035    0.720024
    0.722773    0.736099     2.02656     410.452
   29.9375
     4.14001    0.719982     79.9982     88.7974    0.708571
    0.709481    0.660893     2.24512     430.317
   29.9875
     4.16501    0.730019     81.6023     90.2027    0.723786
    0.722235    0.658538     2.36204     410.452
   30.0375
     4.17500    0.719987     79.1980     88.7982    0.712895
    0.711743    0.730228     2.39808     533.713
   30.0875
     4.20501    0.700000     76.0000     86.6002    0.690817
    0.692680    0.747844     2.06494     430.314
   30.1375
     4.19497    0.730025     79.6030     90.6030    0.717820
    0.723717    0.694971     2.17091     410.452
   30.1875
     4.17500    0.719982     80.7993     88.7974    0.710362
    0.709635    0.582171     2.39809     430.392
   30.2375
     4.11496    0.700000     78.7992     86.6004    0.691625
    0.692540    0.617411     2.36204     533.713
   30.2875
     4.10501    0.730013     81.0013     90.0013    0.720968
    0.721095    0.679695     2.02669     430.329
   30.3375
     4.10999    0.750000     84.2005     92.6002    0.742452
    0.742047    0.636185     2.17079     533.638
   30.3875
     4.10000    0.719975     81.9975     89.3970    0.711086
    0.714894    0.530466     2.02656     430.329
   30.4375
     4.11501    0.730018     83.0018     90.0018    0.722146
    0.718800    0.577467     2.17083     410.464
   30.4875
     4.12500    0.719981     79.5965     88.9981    0.708889
    0.710934    0.598608     2.39810     430.329
   30.5375
     4.12500    0.730013     79.6015     90.6015    0.717777
    0.725236    0.679695     2.36206     410.452
   30.5875
     4.12500    0.750000     83.2005     92.3998    0.742405
    0.739726    0.665597     2.39808     430.314
   30.6375
     4.14001    0.719975     80.3970     88.9975    0.713742
    0.710872    0.652670     2.36203     410.452
   30.6875
     4.15000    0.730018     79.2007     90.6022    0.717564
    0.723532    0.605084     2.39809     410.452
   30.7375
     4.15000    0.719981     77.5984     88.7973    0.712988
    0.710579    0.630341     2.43634     430.329
   30.7875
     4.16501    0.700000     76.0000     86.6003    0.690651
    0.693694    0.660893     2.36206     410.452
