#------------------------------------------------------------
~VERSION INFORMATION
VERS.               2.0  :CWLS LOG ASCII STANDARD - VERSION 2.0
WRAP.               YES  :MULTIPLE LINES PER DEPTH STEP
#------------------------------------------------------------
~WELL INFORMATION
STRT.M          4.03750  :FIRST INDEX VALUE
STOP.M          359.938  :LAST INDEX VALUE
STEP.M          0.00000  :STEP
NULL.            -99999  :NULL VALUE
COMP.                    :COMPANY
WELL.                    :WELL
FLD.                     :FLD
LOC.                     :LOCATION
SRVC.                    :
CTRY.                    :COUNTRY
STAT.                    :STATE
CNTY.                    :
DATE.                    :DATE
API.                     :API
#------------------------------------------------------------
~CURVE INFORMATION
DEPT.M                   :DEPTH
SPEED.MT/MIN             :Speed
TIME.SEC                 :Time
POSCOUNT.COUNT           :Poscount
NEGCOUNT.COUNT           :Negcount
POSDT.SEC                :Posdt
NEGDT.SEC                :Negdt
MAG_SUSC.10E-3_SI_UNITS   :Mag Susc
INDUCTION.MS/M           :Induction
IND_RES.OHM-M            :Ind Res
#------------------------------------------------------------
~PARAMETER INFORMATION
BIT_FROM1.               :BIT FROM1
BIT_FROM2.               :BIT FROM2
BIT_FROM3.               :BIT FROM3
BIT_FROM4.               :BIT FROM4
BIT_FROM5.               :BIT FROM5
BIT_FROM6.               :BIT FROM6
BIT_TO1.                 :BIT TO1
BIT_TO2.                 :BIT TO2
BIT_TO3.                 :BIT TO3
BIT_TO4.                 :BIT TO4
BIT_TO5.                 :BIT TO5
BIT_TO6.                 :BIT TO6
BIT1.                    :BIT1
BIT2.                    :BIT2
BIT3.                    :BIT3
BIT4.                    :BIT4
BIT5.                    :BIT5
BIT6.                    :BIT6
BTM_LOGGED_INTERVAL.     :BTM LOGGED INTERVAL
CASING_FROM1.            :CASING FROM1
CASING_FROM2.            :CASING FROM2
CASING_FROM3.            :CASING FROM3
CASING_FROM4.            :CASING FROM4
CASING_FROM5.            :CASING FROM5
CASING_FROM6.            :CASING FROM6
CASING_SIZE1.            :CASING SIZE1
CASING_SIZE2.            :CASING SIZE2
CASING_SIZE3.            :CASING SIZE3
CASING_SIZE4.            :CASING SIZE4
CASING_SIZE5.            :CASING SIZE5
CASING_SIZE6.            :CASING SIZE6
CASING_TO1.              :CASING TO1
CASING_TO2.              :CASING TO2
CASING_TO3.              :CASING TO3
CASING_TO4.              :CASING TO4
CASING_TO5.              :CASING TO5
CASING_TO6.              :CASING TO6
CO.                      :CO
CTY.                     :CTY
D_F_.                    :D.F.
DENSITY.                 :DENSITY
DEPTH-DRILLER.           :DEPTH-DRILLER
DEPTH-LOGGER.            :DEPTH-LOGGER
DRILLING_MEAS__FROM.     :DRILLING MEAS. FROM
ELEVATION.               :ELEVATION
FIELD.                   :FIELD
FILING_No.               :FILING No
G_L_.                    :G.L.
K_B_.                    :K.B.
LEVEL.                   :LEVEL
LOG_MEAS__FROM.          :LOG MEAS. FROM
MAX__REC__TEMP_.         :MAX. REC. TEMP.
OPERATING_RIG_TIME.      :OPERATING RIG TIME
OTHER_SERVICES.          :OTHER SERVICES
PERMANENT_DATUM.         :PERMANENT DATUM
RECORDED_BY.             :RECORDED BY
RGE.                     :RGE
RUN_No.                  :RUN No
RUN1.                    :RUN1
RUN2.                    :RUN2
RUN3.                    :RUN3
RUN4.                    :RUN4
RUN5.                    :RUN5
RUN6.                    :RUN6
SALINITY.                :SALINITY
SEC.                     :SEC
STE.                     :STE
TITLE.                   :TITLE
TOP_LOGGED_INTERVAL.     :TOP LOGGED INTERVAL
TWP.                     :TWP
TYPE_FLUID_IN_HOLE.      :TYPE FLUID IN HOLE
TYPE_LOG.                :TYPE LOG
WELL_ID.                 :WELL ID
WGT1.                    :WGT1
WGT2.                    :WGT2
WGT3.                    :WGT3
WGT4.                    :WGT4
WGT5.                    :WGT5
WGT6.                    :WGT6
WITNESSED_BY.            :WITNESSED BY
#------------------------------------------------------------
~OTHER
#------------------------------------------------------------
~A
# ...
   308.888
     4.04001    0.750000     78.3996     92.0000    0.742020
    0.741196    0.362442     1.79864     533.713
   308.938
     4.05000    0.719994     74.3993     88.3993    0.707263
    0.712462    0.387103     1.84815     555.975
   308.988
     4.05000    0.730037     75.6044     89.6044    0.719799
    0.722680    0.345971     1.82411     785.249
   309.038
     4.05000    0.750000     77.3996     92.0000    0.739402
    0.741429    0.329541     1.45195     555.975
   309.087
     4.01999    0.750000     77.0000     92.0000    0.739434
    0.740768    0.419965     1.62006     430.329
   309.138
     4.00000    0.750000     76.3996     92.0000    0.738554
    0.740652    0.518715     2.14533     555.975
   309.188
     4.00000    0.750000     76.0000     92.0000    0.741696
    0.741084    0.494023     1.97722     785.249
   309.238
     3.98498    0.750000     76.6007     92.0000    0.744757
    0.740950    0.403569     1.45174     430.329
   309.288
     4.00502    0.750000     76.3996     92.0000    0.738862
    0.740612    0.444691     1.96686     785.249
   309.337
     3.99499    0.750000     75.3999     92.6001    0.735557
    0.745379    0.471137     1.63064     555.975
   309.388
     3.97500    0.750000     76.2007     92.3996    0.741396
    0.742656    0.435274     1.62017     533.713
   309.438
     4.00501    0.750000     78.8004     92.0000    0.741508
    0.739198    0.387103     1.84815     555.975
   309.488
     4.00998    0.750000     80.0000     92.0000    0.742272
    0.740135    0.362442     1.82411     785.249
   309.538
     4.03002    0.750000     78.1989     92.6004    0.740767
    0.744751    0.387103     1.45195     533.713
   309.587
     4.05000    0.750000     77.6001     92.3999    0.738571
    0.743170    0.345997     1.66957     555.975
   309.638
     4.05000    0.750000     78.6004     92.0000    0.742143
    0.740414    0.321315     1.82414     785.249
   309.688
     4.08001    0.719994     75.3993     88.3993    0.709692
    0.710285    0.362437     1.45206     555.975
   309.738
     4.08498    0.730037     75.4029     90.2051    0.719999
    0.724477    0.387098     1.62038     555.975
   309.788
     4.07500    0.750000     76.3996     92.3996    0.738202
    0.743269    0.345977     1.79864     555.975
   309.837
     4.04499    0.750000     76.6001     92.0000    0.739540
    0.741208    0.313080     1.79864     555.975
   309.888
     4.00999    0.750000     76.3996     92.0000    0.743574
    0.742152    0.321315     1.79864     555.975
   309.938
     4.00000    0.719994     72.3993     88.3993    0.708372
    0.712626    0.362437     1.79864     555.975
   309.988
     4.00000    0.730037     73.6044     89.6044    0.717952
    0.722233    0.387098     1.79864     555.975
   310.038
     4.01501    0.750000     76.6004     91.3996    0.743338
    0.737552    0.362437     1.79864     555.975
   310.087
     4.02500    0.750000     76.3999     91.6001    0.743729
    0.739425    0.414100     1.79864     762.781
   310.138
     4.02500    0.750000     75.3996     92.6004    0.740292
    0.746315    0.495221     1.47672     555.975
   310.188
     4.02500    0.750000     75.0000     92.3999    0.739557
    0.744415    0.526945     1.63282     555.975
   310.238
     4.04002    0.750000     75.6007     91.3993    0.739417
    0.737237    0.554547     1.79864     430.329
   310.288
     4.03499    0.750000     76.6004     92.2007    0.736025
    0.743709    0.530463     2.14533     555.975
   310.337
     4.02500    0.750000     76.3999     91.7998    0.738296
    0.740649    0.526925     1.97722     555.975
   310.388
     4.05502    0.750000     76.6004     91.6004    0.741883
    0.740429    0.551606     1.79864     555.975
   310.438
     4.09000    0.719994     75.1996     88.3993    0.713985
    0.713850    0.510484     1.79864     533.713
   310.488
     4.08498    0.730037     77.6044     89.6044    0.718172
    0.722933    0.469352     1.84820     785.249
   310.538
     4.07500    0.750000     80.6004     91.3996    0.739030
    0.739838    0.436461     1.47745     806.023
   310.587
     4.04499    0.719994     77.3993     87.9994    0.713454
    0.713319    0.428250     1.25182     785.249
   310.638
     4.02500    0.730018     78.0018     89.6022    0.719436
    0.724300    0.395334     1.26233     430.329
   310.688
     4.02500    0.750000     80.6001     91.3999    0.742791
    0.737747    0.403564     1.96664     785.249
   310.738
     4.02500    0.750000     80.3993     91.6007    0.741309
    0.739892    0.428225     1.63000     533.713
   310.788
     4.02500    0.750000     79.3996     92.0000    0.739570
    0.742940    0.396510     1.66970     555.975
   310.837
     4.02500    0.750000     78.3999     92.0000    0.739958
    0.742776    0.400036     1.82415     555.975
   310.888
     4.00999    0.750000     78.0000     92.0000    0.742378
    0.743177    0.387098     1.79864     785.249
   310.938
     4.00000    0.750000     77.3999     92.0000    0.739557
    0.742861    0.354207     1.45206     555.975
   310.988
     4.03004    0.750000     77.0000     92.0000    0.735543
    0.742238    0.354207     1.62038     555.975
   311.038
     4.01998    0.750000     77.6004     92.0000    0.742303
    0.742360    0.362437     1.79864     555.975
   311.087
     4.03001    0.750000     77.3999     92.0000    0.741466
    0.742543    0.395334     1.79864     555.975
   311.138
     4.05000    0.719982     73.9982     87.7974    0.709387
    0.708245    0.387687     1.79864     555.975
   311.188
     4.05000    0.730006     75.0006     89.2009    0.720072
    0.719719    0.373017     1.79864     533.713
   311.238
     4.08004    0.750000     76.3993     92.0000    0.738425
    0.741470    0.434917     1.84820     577.035
   311.288
     4.03996    0.750000     76.0000     92.6004    0.739807
    0.744330    0.422062     1.78080     555.975
   311.337
     4.00000    0.750000     76.0000     92.3999    0.741061
    0.742164    0.387124     1.77632     555.975
   311.388
     4.01501    0.750000     76.6004     92.0000    0.742441
    0.740946    0.354207     1.79864     555.975
   311.438
     4.01000    0.750000     77.0000     92.0000    0.742652
    0.742477    0.337158     1.79864     555.975
   311.488
     3.98498    0.719963     73.3956     88.3956    0.706110
    0.713408    0.269604     1.79864     785.249
   311.538
     3.97500    0.730018     75.2026     89.0018    0.721770
    0.720404    0.271953     1.45195     555.975
   311.587
     3.99000    0.780006     81.0006     94.6007    0.773535
    0.770954    0.263743     1.62006     555.975
   311.638
     4.00000    0.769982     79.3978     93.3978    0.758352
    0.761443    0.222591     1.79864     762.781
   311.688
     4.01500    0.750000     76.3999     92.2002    0.736255
    0.743791    0.197930     1.47682     555.975
   311.738
     4.02500    0.750000     76.0000     91.7985    0.741952
    0.740923    0.230826     1.63312     555.975
   311.788
     4.02500    0.719982     71.7974     87.9982    0.710676
    0.711225    0.230826     1.79864     555.975
   311.837
     4.02500    0.730006     72.0006     89.6007    0.718124
    0.723713    0.230826     1.79864     555.975
   311.888
     4.04001    0.750000     74.0000     92.0000    0.741766
    0.743675    0.238473     1.79864     555.975
   311.938
     4.05000    0.750000     73.3999     91.3999    0.740929
    0.738112    0.262402     1.79864     555.975
   311.988
     4.05000    0.750000     72.3993     91.6007    0.736239
    0.739272    0.243173     1.79864     555.975
   312.038
     4.03499    0.750000     72.6004     92.0000    0.740255
    0.742455    0.263723     1.79864     785.249
   312.087
     4.02500    0.750000     73.0000     92.0000    0.740108
    0.742403    0.239036     1.45206     555.975
   312.138
     4.00999    0.750000     73.0000     92.0000    0.737773
    0.742332    0.263718     1.62017     555.975
   312.188
     4.01500    0.750000     73.0000     92.0000    0.740743
    0.742429    0.230826     1.79864     555.975
