#------------------------------------------------------------
~VERSION INFORMATION
VERS.               2.0  :CWLS LOG ASCII STANDARD - VERSION 2.0
WRAP.               YES  :MULTIPLE LINES PER DEPTH STEP
#------------------------------------------------------------
~WELL INFORMATION
STRT.M         0.554600  :FIRST INDEX VALUE
STOP.M          359.955  :LAST INDEX VALUE
STEP.M          0.00000  :STEP
NULL.            -99999  :NULL VALUE
COMP.                    :COMPANY
WELL.                    :WELL
FLD.                     :FLD
LOC.                     :LOCATION
SRVC.                    :
CTRY.                    :COUNTRY
STAT.                    :STATE
CNTY.                    :
DATE.                    :DATE
API.                     :API
#------------------------------------------------------------
~CURVE INFORMATION
DEPT.M                   :DEPTH
A1.                      :A1
CHI2.                    :Chi2
K.%                      :K
U.PPM                    :U
TH.PPM                   :Th
K-ERROR.%                :K-Error
U-ERROR.PPM              :U-Error
TH-ERROR.PPM             :Th-Error
TIME.SEC                 :Time
COUNTS.                  :Counts
STACK_TIME.SEC           :Stack Time
STACK_COUNTS.            :Stack counts
EHT.V                    :EHT
TCPU.'C                  :TCPU
GR.API                   :GR
SPEED.M/MIN              :Speed
TOOLPOWERVOLTAGE.V       :ToolPowerVoltage
TOOLPOWERCURRENT.MA      :ToolPowerCurrent
#------------------------------------------------------------
~PARAMETER INFORMATION
#------------------------------------------------------------
~OTHER
#------------------------------------------------------------
~A
# ...
   72.3046
    0.567000    0.377543    0.186376    0.677781     0.00000
     1.31527     2.74060     0.00000     1.50700     24.0000
     70.1490     865.000     1197.84     12.4987     10.6943
     1.97500     125.000     23.7838
   72.3546
    0.567000    0.436048   0.0340973     0.00000     1.80085
     1.33125     0.00000     6.89872     1.48900     18.0000
     70.1740     857.000     1198.00     12.4987     8.11772
     1.97500     126.000     30.2703
   72.4046
    0.567000    0.138131     0.00000     0.00000    0.705450
     0.00000     0.00000     3.53551     1.50500     9.00000
     70.2050     860.000     1198.00     12.4987     4.01571
     1.97500     126.000     30.2703
   72.4546
    0.567000    0.341600   0.0529512    0.110958    0.234786
     1.33341     5.01770     12.4801     1.53200     14.0000
     70.2290     874.000     1197.84     12.4987     6.13657
     1.97500     126.000     31.3514
   72.5046
    0.567000    0.198336     0.00000     0.00000     1.99649
     0.00000     0.00000     3.47783     1.53000     17.0000
     70.2130     874.000     1198.00     12.4987     7.46129
     1.97500     125.000     31.3514
   72.5546
    0.567000    0.236118    0.230203     0.00000    0.925596
     1.29387     0.00000     6.70499     1.53200     14.0000
     70.1890     882.000     1198.00     12.4777     6.13657
     1.97500     124.000     27.0270
   72.6046
    0.567000    0.182740     0.00000     0.00000     2.72777
     0.00000     0.00000     3.47553     1.53100     15.0000
     70.1770     885.000     1197.84     12.4987     6.57919
     1.95000     124.000     24.8649
   72.6546
    0.567000    0.322829    0.224971     0.00000     0.00000
    0.671109     0.00000     0.00000     1.53000     12.0000
     70.1820     892.000     1198.00     12.4987     5.26679
     2.00000     124.000     24.8649
   72.7046
    0.567000    0.164332    0.221450     0.00000     0.00000
    0.671550     0.00000     0.00000     1.52900     13.0000
     70.1930     903.000     1198.00     12.4987     5.70942
     2.00000     123.000     19.4595
   72.7546
    0.567000    0.291446    0.257539     0.00000     0.00000
    0.672881     0.00000     0.00000     1.52600     18.0000
     70.1950     905.000     1197.84     12.4987     7.92090
     2.02500     123.000     19.4595
   72.8046
    0.567000    0.127638     0.00000    0.607795     0.00000
     0.00000     1.40853     0.00000     1.51900     18.0000
     70.2110     896.000     1197.84     12.4987     7.95740
     1.97500     123.000     18.3784
   72.8546
    0.567000    0.272423    0.611239     0.00000     0.00000
    0.677351     0.00000     0.00000     1.51600     32.0000
     70.2200     885.000     1198.00     12.4987     14.1745
     1.95000     124.000     19.4595
   72.9046
    0.567000    0.322377    0.169003     0.00000   0.0226727
     1.30408     0.00000     6.75793     1.52000     14.0000
     70.2360     867.000     1197.84     12.4987     6.18502
     1.97500     124.000     19.4595
   72.9546
    0.567000    0.204599     0.00000    0.637675    0.522498
     0.00000     4.93325     12.2691     1.51200     11.0000
     70.2470     864.000     1197.84     12.4777     4.88537
     1.95000     124.000     20.5405
   73.0046
    0.567000    0.168723     0.00000    0.239336     0.00000
     0.00000     1.40757     0.00000     1.52000     11.0000
     70.2600     868.000     1197.84     12.4777     4.85966
     1.97500     124.000     19.4595
   73.0546
    0.567000    0.419813   0.0442710     0.00000     0.00000
    0.673290     0.00000     0.00000     1.52500     3.00000
     70.2630     867.000     1198.00     12.4987     1.32102
     1.95000     124.000     20.5405
   73.1046
    0.567000     0.00000     0.00000     0.00000     0.00000
    0.680424     0.00000     0.00000     1.50900     1.00000
     70.2510     870.000     1197.84     12.4987    0.445007
     1.95000     124.000     20.5405
   73.1546
    0.567000    0.224628    0.245192     0.00000     0.00000
    0.684523     0.00000     0.00000     1.50000     8.00000
     70.2600     880.000     1198.00     12.4987     3.58142
     1.97500     125.000     23.7838
   73.2046
    0.567000    0.939213     0.00000    0.322957     0.00000
     0.00000     1.41786     0.00000     1.50900     19.0000
     70.2790     888.000     1198.00     12.4777     8.45514
     1.97500     125.000     24.8649
   73.2546
    0.567000    0.427257     0.00000    0.594620     0.00000
     0.00000     1.39751     0.00000     1.53100     24.0000
     70.2840     886.000     1197.84     12.4777     10.5267
     2.00000     125.000     23.7838
   73.3046
    0.567000    0.429476    0.355595     0.00000     0.00000
    0.668540     0.00000     0.00000     1.53600     36.0000
     70.2710     872.000     1197.84     12.4777     15.7387
     1.97500     125.000     23.7838
   73.3546
    0.567000    0.350023     0.00000     2.10693     0.00000
     0.00000     1.39578     0.00000     1.53300     44.0000
     70.2420     860.000     1197.84     12.4777     19.2738
     1.97500     126.000     29.1892
   73.4046
    0.567000    0.625052     0.00000     1.54153     0.00000
     0.00000     1.40677     0.00000     1.52100     38.0000
     70.2130     830.000     1198.00     12.4777     16.7769
     1.97500     126.000     31.3514
   73.4546
    0.567000    0.152764     0.00000    0.246904     0.00000
     0.00000     1.38755     0.00000     1.54200     25.0000
     70.2060     801.000     1198.00     12.4777     10.8871
     1.97500     125.000     31.3514
   73.5046
    0.567000    0.130808     0.00000     0.00000    0.736907
     0.00000     0.00000     3.48460     1.52700     12.0000
     70.1980     787.000     1197.84     12.4777     5.27714
     2.00000     124.000     23.7838
   73.5546
    0.567000    0.421118    0.178465     0.00000     0.00000
    0.673329     0.00000     0.00000     1.52500     21.0000
     70.2060     778.000     1197.84     12.4777     9.24711
     2.00000     124.000     27.0270
   73.6046
    0.567000    0.430870   0.0858053     0.00000     0.00000
    0.675078     0.00000     0.00000     1.52100     11.0000
     70.2100     763.000     1197.84     12.4777     4.85646
     1.97500     124.000     24.8649
   73.6546
    0.567000    0.156438     0.00000     0.00000     3.01361
     0.00000     0.00000     3.49861     1.52100     35.0000
     70.2280     762.000     1197.84     12.4777     15.4524
     1.95000     124.000     19.4595
   73.7046
    0.567000    0.448621    0.165471     0.00000     1.41082
     1.29900     0.00000     6.73158     1.52600     24.0000
     70.2360     732.000     1197.84     12.4777     10.5612
     1.95000     123.000     19.4595
   73.7546
    0.567000    0.227026     0.00000     1.70397     0.00000
     0.00000     1.40028     0.00000     1.52800     29.0000
     70.2260     711.000     1197.84     12.4777     12.7447
     1.95000     124.000     19.4595
   73.8046
    0.567000    0.503169     0.00000     1.46417     0.00000
     0.00000     1.40031     0.00000     1.52800     35.0000
     70.2280     691.000     1197.84     12.4777     15.3816
     1.97500     124.000     20.5405
   73.8546
    0.567000    0.296528     0.00000     1.42066     0.00000
     0.00000     1.40124     0.00000     1.52700     38.0000
     70.2370     661.000     1197.84     12.4777     16.7109
     1.95000     125.000     22.7027
   73.9046
    0.567000    0.502757     0.00000     1.21791     1.65906
     0.00000     4.87569     12.1259     1.53000     41.0000
     70.2310     627.000     1197.84     12.4777     17.9949
     1.97500     126.000     25.9459
   73.9546
    0.567000    0.423233     0.00000     0.00000     4.23266
     0.00000     0.00000     3.50097     1.52000     40.0000
     70.2220     590.000     1197.84     12.4777     17.6715
     1.97500     126.000     28.1081
   74.0046
    0.567000    0.303513    0.250886     0.00000     0.00000
    0.684096     0.00000     0.00000     1.50100     21.0000
     70.2260     560.000     1198.00     12.4777     9.39496
     1.97500     126.000     25.9459
