#------------------------------------------------------------
~VERSION INFORMATION
VERS.               2.0  :CWLS LOG ASCII STANDARD - VERSION 2.0
WRAP.               YES  :MULTIPLE LINES PER DEPTH STEP
#------------------------------------------------------------
~WELL INFORMATION
STRT.M         0.554600  :FIRST INDEX VALUE
STOP.M          359.955  :LAST INDEX VALUE
STEP.M          0.00000  :STEP
NULL.            -99999  :NULL VALUE
COMP.                    :COMPANY
WELL.                    :WELL
FLD.                     :FLD
LOC.                     :LOCATION
SRVC.                    :
CTRY.                    :COUNTRY
STAT.                    :STATE
CNTY.                    :
DATE.                    :DATE
API.                     :API
#------------------------------------------------------------
~CURVE INFORMATION
DEPT.M                   :DEPTH
A1.                      :A1
CHI2.                    :Chi2
K.%                      :K
U.PPM                    :U
TH.PPM                   :Th
K-ERROR.%                :K-Error
U-ERROR.PPM              :U-Error
TH-ERROR.PPM             :Th-Error
TIME.SEC                 :Time
COUNTS.                  :Counts
STACK_TIME.SEC           :Stack Time
STACK_COUNTS.            :Stack counts
EHT.V                    :EHT
TCPU.'C                  :TCPU
GR.API                   :GR
SPEED.M/MIN              :Speed
TOOLPOWERVOLTAGE.V       :ToolPowerVoltage
TOOLPOWERCURRENT.MA      :ToolPowerCurrent
#------------------------------------------------------------
~PARAMETER INFORMATION
#------------------------------------------------------------
~OTHER
#------------------------------------------------------------
~A
# ...
   191.305
    0.568000     0.00000     0.00000     0.00000     0.00000
     1.29551     0.00000     6.71347     1.53000     1.00000
     70.3220     112.000     1197.89     12.2055    0.438899
     1.97500     125.000     31.3514
   191.355
    0.568000     0.00000     0.00000     0.00000     0.00000
     1.30233     0.00000     6.74883     1.52200     4.00000
     70.3370     112.000     1198.06     12.2055     1.76483
     2.00000     124.000     27.0270
   191.405
    0.568000    0.385344   0.0123139     0.00000    0.191054
     1.29807     0.00000     6.72675     1.52700     5.00000
     70.3480     108.000     1198.06     12.2055     2.19881
     2.00000     124.000     27.0270
   191.455
    0.568000    0.324476    0.113281     0.00000     0.00000
    0.672848     0.00000     0.00000     1.52600     3.00000
     70.3620     104.000     1198.06     12.2055     1.32015
     1.97500     124.000     19.4595
   191.505
    0.568000     0.00000     0.00000     0.00000     0.00000
     0.00000     0.00000     3.48450     1.52700     3.00000
     70.3750     102.000     1197.95     12.2055     1.31928
     2.00000     124.000     20.5405
   191.555
    0.568000     0.00000     0.00000     0.00000     0.00000
     0.00000     0.00000     3.49135     1.52400     2.00000
     70.3830     102.000     1197.89     12.2055    0.881255
     1.95000     125.000     23.7838
   191.605
    0.568000     0.00000     0.00000     0.00000     0.00000
     0.00000     0.00000     3.47767     1.53000     3.00000
     70.3950     103.000     1198.06     12.2055     1.31670
     1.95000     126.000     28.1081
   191.655
    0.568000    0.127719     0.00000     0.00000    0.741128
     0.00000     0.00000     3.50977     1.51600     2.00000
     70.3990     102.000     1197.89     12.2055    0.885905
     1.97500     125.000     30.2703
   191.705
    0.568000     0.00000     0.00000     0.00000     0.00000
    0.675945     0.00000     0.00000     1.51900     1.00000
     70.4030     104.000     1197.89     12.2055    0.442078
     1.97500     124.000     24.8649
   191.755
    0.568000    0.483050   0.0777065     0.00000     0.00000
    0.678184     0.00000     0.00000     1.51400     4.00000
     70.4070     104.000     1197.89     12.2055     1.77415
     1.95000     123.000     20.5405
   191.805
    0.568000     0.00000     0.00000     0.00000     0.00000
     1.31180     0.00000     6.79791     1.51100     2.00000
     70.4100     103.000     1197.89     12.2055    0.888837
     1.95000     123.000     19.4595
   191.855
    0.568000     0.00000     0.00000     0.00000     0.00000
     1.30403     0.00000     6.75766     1.52000     2.00000
     70.4170     102.000     1198.06     12.2055    0.883574
     1.97500     125.000     25.9459
   191.905
    0.568000     0.00000     0.00000     0.00000     0.00000
     1.29213     0.00000     6.69599     1.53400     2.00000
     70.4290     104.000     1198.06     12.2055    0.875510
     1.97500     126.000     27.0270
   191.955
    0.568000    0.324121   0.0330705     0.00000    0.135108
     1.29213     0.00000     6.69599     1.53400     2.00000
     70.4160     109.000     1198.06     12.2055    0.875510
     1.97500     125.000     31.3514
   192.005
    0.568000     0.00000     0.00000     0.00000     0.00000
    0.671085     0.00000     0.00000     1.53000     1.00000
     70.4210     109.000     1197.89     12.2055    0.438899
     1.97500     125.000     31.3514
   192.055
    0.568000     0.00000     0.00000     0.00000     0.00000
    0.670209     0.00000     0.00000     1.53200     1.00000
     70.4330     109.000     1197.89     12.1845    0.438326
     1.97500     125.000     30.2703
   192.105
    0.568000     0.00000     0.00000     0.00000     0.00000
    0.671526     0.00000     0.00000     1.52900     2.00000
     70.4420     113.000     1197.95     12.2055    0.878373
     1.97500     123.000     21.6216
   192.155
    0.568000     0.00000     0.00000     0.00000     0.00000
    0.671087     0.00000     0.00000     1.53000     2.00000
     70.4480     113.000     1198.06     12.2055    0.877799
     1.97500     123.000     19.4595
   192.205
    0.568000    0.270575    0.141932     0.00000     0.00000
    0.669776     0.00000     0.00000     1.53300     3.00000
     70.4620     116.000     1197.89     12.2055     1.31412
     2.00000     124.000     19.4595
   192.255
    0.568000     0.00000     0.00000     0.00000     0.00000
     0.00000     0.00000     3.47540     1.53100     3.00000
     70.4730     117.000     1198.11     12.2055     1.31584
     1.95000     126.000     29.1892
   192.305
    0.568000     0.00000     0.00000     0.00000     0.00000
     0.00000     0.00000     3.48221     1.52800     2.00000
     70.4810     116.000     1198.11     12.2055    0.878948
     1.95000     124.000     29.1892
   192.355
    0.568000    0.129247     0.00000     0.00000    0.793643
     0.00000     0.00000     3.47994     1.52900     3.00000
     70.4960     116.000     1198.06     12.2055     1.31756
     1.95000     124.000     28.1081
   192.405
    0.568000     0.00000     0.00000     0.00000     0.00000
     0.00000     0.00000     3.49365     1.52300     3.00000
     70.5020     119.000     1197.89     12.2055     1.32275
     1.97500     123.000     22.7027
   192.455
    0.568000     0.00000     0.00000     0.00000     0.00000
     0.00000     0.00000     3.50515     1.51800     2.00000
     70.5120     122.000     1197.89     12.2055    0.884738
     1.95000     125.000     24.8649
   192.505
    0.568000   0.0546709     0.00000     0.00000   0.0854537
     0.00000     0.00000     3.49365     1.52300     3.00000
     70.5250     123.000     1198.06     12.2055     1.32275
     1.97500     126.000     30.2703
   192.555
    0.568000    0.730763   0.0255030     0.00000     0.00000
    0.672855     0.00000     0.00000     1.52600     6.00000
     70.5350     122.000     1198.06     12.2055     2.64030
     1.95000     124.000     25.9459
   192.605
    0.568000    0.347287   0.0370557    0.346954     0.00000
     1.30566     2.72056     0.00000     1.51800     4.00000
     70.5360     124.000     1198.06     12.2055     1.76948
     1.95000     123.000     19.4595
   192.655
    0.568000    0.204352    0.179540     0.00000     0.00000
    0.671970     0.00000     0.00000     1.52800     4.00000
     70.5460     123.000     1197.89     12.2055     1.75790
     1.95000     125.000     22.7027
   192.705
    0.568000    0.525697   0.0221931   0.0294272     0.00000
     1.28367     2.67474     0.00000     1.54400     4.00000
     70.5370     130.000     1198.06     12.2055     1.73968
     1.97500     125.000     24.8649
   192.755
    0.568000     0.00000     0.00000     0.00000     0.00000
     1.28617     2.67995     0.00000     1.54100     4.00000
     70.5160     130.000     1198.06     12.2055     1.74307
     1.95000     0.00000     0.00000
   192.805
    0.568000     0.00000     0.00000     0.00000     0.00000
     1.28284     2.67301     0.00000     1.54500     4.00000
     70.5160     134.000     1197.95     12.2055     1.73855
     1.97500     124.000     27.0270
   192.855
    0.568000     0.00000     0.00000     0.00000     0.00000
     1.28450     2.67647     0.00000     1.54300     3.00000
     70.5090     136.000     1198.06     12.2055     1.30560
     1.97500     123.000     21.6216
   192.905
    0.568000    0.237408   0.0139518    0.130262     0.00000
     1.28533     2.67819     0.00000     1.54200     2.00000
     70.5000     142.000     1197.89     12.2055    0.870968
     1.97500     124.000     21.6216
   192.955
    0.568000     2.07536     0.00000   0.0186925     0.00000
     0.00000     1.39287     0.00000     1.53600     3.00000
     70.5080     142.000     1198.06     12.2055     1.31155
     1.95000     125.000     24.8649
   193.005
    0.568000     0.00000     0.00000     0.00000     0.00000
    0.665435     0.00000     0.00000     1.54300     3.00000
     70.5140     141.000     1198.06     12.2055     1.30560
     1.97500     125.000     30.2703
