#------------------------------------------------------------
~VERSION INFORMATION
VERS.               2.0  :CWLS LOG ASCII STANDARD - VERSION 2.0
WRAP.               YES  :MULTIPLE LINES PER DEPTH STEP
#------------------------------------------------------------
~WELL INFORMATION
STRT.M          4.03750  :FIRST INDEX VALUE
STOP.M          359.938  :LAST INDEX VALUE
STEP.M          0.00000  :STEP
NULL.            -99999  :NULL VALUE
COMP.                    :COMPANY
WELL.                    :WELL
FLD.                     :FLD
LOC.                     :LOCATION
SRVC.                    :
CTRY.                    :COUNTRY
STAT.                    :STATE
CNTY.                    :
DATE.                    :DATE
API.                     :API
#------------------------------------------------------------
~CURVE INFORMATION
DEPT.M                   :DEPTH
SPEED.MT/MIN             :Speed
TIME.SEC                 :Time
POSCOUNT.COUNT           :Poscount
NEGCOUNT.COUNT           :Negcount
POSDT.SEC                :Posdt
NEGDT.SEC                :Negdt
MAG_SUSC.10E-3_SI_UNITS   :Mag Susc
INDUCTION.MS/M           :Induction
IND_RES.OHM-M            :Ind Res
#------------------------------------------------------------
~PARAMETER INFORMATION
BIT_FROM1.               :BIT FROM1
BIT_FROM2.               :BIT FROM2
BIT_FROM3.               :BIT FROM3
BIT_FROM4.               :BIT FROM4
BIT_FROM5.               :BIT FROM5
BIT_FROM6.               :BIT FROM6
BIT_TO1.                 :BIT TO1
BIT_TO2.                 :BIT TO2
BIT_TO3.                 :BIT TO3
BIT_TO4.                 :BIT TO4
BIT_TO5.                 :BIT TO5
BIT_TO6.                 :BIT TO6
BIT1.                    :BIT1
BIT2.                    :BIT2
BIT3.                    :BIT3
BIT4.                    :BIT4
BIT5.                    :BIT5
BIT6.                    :BIT6
BTM_LOGGED_INTERVAL.     :BTM LOGGED INTERVAL
CASING_FROM1.            :CASING FROM1
CASING_FROM2.            :CASING FROM2
CASING_FROM3.            :CASING FROM3
CASING_FROM4.            :CASING FROM4
CASING_FROM5.            :CASING FROM5
CASING_FROM6.            :CASING FROM6
CASING_SIZE1.            :CASING SIZE1
CASING_SIZE2.            :CASING SIZE2
CASING_SIZE3.            :CASING SIZE3
CASING_SIZE4.            :CASING SIZE4
CASING_SIZE5.            :CASING SIZE5
CASING_SIZE6.            :CASING SIZE6
CASING_TO1.              :CASING TO1
CASING_TO2.              :CASING TO2
CASING_TO3.              :CASING TO3
CASING_TO4.              :CASING TO4
CASING_TO5.              :CASING TO5
CASING_TO6.              :CASING TO6
CO.                      :CO
CTY.                     :CTY
D_F_.                    :D.F.
DENSITY.                 :DENSITY
DEPTH-DRILLER.           :DEPTH-DRILLER
DEPTH-LOGGER.            :DEPTH-LOGGER
DRILLING_MEAS__FROM.     :DRILLING MEAS. FROM
ELEVATION.               :ELEVATION
FIELD.                   :FIELD
FILING_No.               :FILING No
G_L_.                    :G.L.
K_B_.                    :K.B.
LEVEL.                   :LEVEL
LOG_MEAS__FROM.          :LOG MEAS. FROM
MAX__REC__TEMP_.         :MAX. REC. TEMP.
OPERATING_RIG_TIME.      :OPERATING RIG TIME
OTHER_SERVICES.          :OTHER SERVICES
PERMANENT_DATUM.         :PERMANENT DATUM
RECORDED_BY.             :RECORDED BY
RGE.                     :RGE
RUN_No.                  :RUN No
RUN1.                    :RUN1
RUN2.                    :RUN2
RUN3.                    :RUN3
RUN4.                    :RUN4
RUN5.                    :RUN5
RUN6.                    :RUN6
SALINITY.                :SALINITY
SEC.                     :SEC
STE.                     :STE
TITLE.                   :TITLE
TOP_LOGGED_INTERVAL.     :TOP LOGGED INTERVAL
TWP.                     :TWP
TYPE_FLUID_IN_HOLE.      :TYPE FLUID IN HOLE
TYPE_LOG.                :TYPE LOG
WELL_ID.                 :WELL ID
WGT1.                    :WGT1
WGT2.                    :WGT2
WGT3.                    :WGT3
WGT4.                    :WGT4
WGT5.                    :WGT5
WGT6.                    :WGT6
WITNESSED_BY.            :WITNESSED BY
#------------------------------------------------------------
~OTHER
#------------------------------------------------------------
~A
# ...
   215.088
     4.98499    0.600000     72.0000     75.0000    0.590934
    0.593947     2.21529     2.66622     296.373
   215.137
     4.94499    0.600000     73.8007     74.3998    0.593899
    0.589938     2.63675     3.15097     296.373
   215.188
     4.92500    0.600000     77.4010     74.6002    0.593927
    0.591360     2.72927     3.37413     248.103
   215.238
     4.90999    0.600000     79.6002     75.0000    0.589484
    0.594178     2.93255     3.80742     315.244
   215.288
     4.90000    0.600000     82.4017     75.0000    0.590678
    0.594728     2.88427     3.46379     296.373
   215.338
     4.90000    0.630027     88.2038     78.0027    0.623005
    0.619766     2.58521     3.30552     367.962
   215.387
     4.91501    0.619988     93.4010     76.9988    0.615314
    0.612694     1.92736     2.94083     296.373
   215.438
     4.92500    0.600000     101.002     74.3998    0.595963
    0.592418     1.58802     3.15097     296.373
   215.488
     4.92500    0.600000     105.600     74.0000    0.592384
    0.589331     1.51601     3.37413     367.962
   215.538
     4.92500    0.600000     109.002     74.6004    0.593333
    0.593675     1.35150     2.94070     296.373
   215.588
     4.92500    0.630027     116.405     78.0027    0.626200
    0.621302     1.16645     3.15117     485.149
   215.637
     4.94001    0.619988     112.197     76.9988    0.614829
    0.613136     1.06366     2.50754     485.149
   215.688
     4.95000    0.600000     98.5966     74.3998    0.594121
    0.591339    0.990090     2.06122     367.962
   215.738
     4.96501    0.600000     88.1980     74.6002    0.592750
    0.592155     1.03677     2.49452     315.244
   215.788
     4.99001    0.600000     84.3996     74.3996    0.593133
    0.591418     1.10479     3.01774     296.373
   215.838
     5.00000    0.600000     82.1983     74.6005    0.594463
    0.592628     1.14586     3.30552     367.962
   215.887
     4.95498    0.600000     78.5990     75.0000    0.590885
    0.594244    0.991668     2.94083     367.962
   215.938
     4.92500    0.600000     75.7995     74.3998    0.589254
    0.588579     1.04071     2.71767     485.149
   215.988
     4.92500    0.600000     73.7995     75.2005    0.590860
    0.593383     1.08501     2.28438    -99999.0
   216.038
     4.92500    0.630021     77.2030     79.0021    0.623125
    0.623122     1.08416    -99999.0     296.373
   216.088
     4.92500    0.619973     76.9973     77.3967    0.613115
    0.608769    0.837411     3.37413     485.149
   216.137
     4.92500    0.600000     76.2005     75.6002    0.593648
    0.590777    0.672941     2.50754     389.683
   216.188
     4.92500    0.600000     74.5990     76.0000    0.590806
    0.591340    0.662662     2.39453     367.962
   216.238
     4.92500    0.600000     73.6002     76.6002    0.591904
    0.594640    0.621532     2.66618     367.962
   216.288
     4.92500    0.630021     78.2030     80.0021    0.621075
    0.622425    0.631823     2.71767     485.149
   216.338
     4.92500    0.619973     77.9973     78.3967    0.613154
    0.611474    0.662650     2.28418     367.962
   216.387
     4.94001    0.600000     72.9988     75.3998    0.590331
    0.590792    0.631808     2.49452     485.149
   216.438
     4.95000    0.600000     68.5990     75.6002    0.591069
    0.592439    0.676894     2.28438     485.149
   216.488
     4.96501    0.600000     67.0000     76.0000    0.594107
    0.592265    0.699046     2.06122     367.962
   216.538
     4.99001    0.600000     66.3996     75.3996    0.591806
    0.591703    0.724349     2.49465     485.149
   216.588
     5.00000    0.600000     66.0000     75.6005    0.586775
    0.594388    0.734640     2.28418     485.149
   216.637
     4.98499    0.600000     66.6002     74.7995    0.591563
    0.590175    0.786034     2.06122     389.683
   216.688
     4.97500    0.600000     66.3998     74.0000    0.591917
    0.591031    0.827167     2.39453     367.962
   216.738
     4.94499    0.600000     66.6002     74.6002    0.591433
    0.594167    -99999.0     2.66618     485.149
   216.788
     4.94001    0.630021     70.6026     79.2030    0.622401
    0.622360    0.724349     2.28425     367.962
   216.838
     4.95000    0.619973     69.9973     78.3967    0.610240
    0.613477    0.737015     2.49472     367.962
   216.887
     4.93499    0.600000     68.0000     75.3998    0.588304
    0.592665    0.774975     2.71767     510.144
   216.938
     4.92500    0.600000     68.6002     75.0000    0.590441
    0.592365    0.714071     2.21772     367.962
   216.988
     4.94001    0.600000     69.6002     74.3998    0.594574
    0.590127    0.683232     2.46019     485.149
   217.038
     4.95000    -99999.0    -99999.0    -99999.0    -99999.0
    -99999.0    0.724349     2.28425     367.962
   217.088
     4.95000    0.600000     68.0000     76.0000    0.587671
    0.594664    0.714058     2.49472     485.149
   217.137
     4.95000    0.600000     68.0000     74.7995    0.589698
    0.590587    0.662665     2.28438     367.962
   217.188
     4.95000    0.630012     72.2017     78.2017    0.623690
    0.620691    0.621532     2.49452     485.149
   217.238
     4.93499    0.619988     70.7983     77.3985    0.612670
    0.613998    0.621532     2.28438     367.962
   217.288
     4.98504    0.600000     67.3996     75.0000    0.587441
    0.594501    0.631823     2.49465     389.683
   217.338
     5.02500    0.600000     67.6005     74.3995    0.590708
    0.589888    0.667399     2.61764     485.149
   217.387
     5.02500    0.600000     68.0000     74.6002    0.592608
    0.593239    0.650792     2.23288     367.962
   217.438
     4.99499    0.600000     67.3998     74.3998    0.591154
    0.592618    0.672941     2.49452     485.149
   217.488
     4.97500    0.600000     66.3998     74.0000    0.591131
    0.590015    0.662650     2.28438     367.962
   217.538
     4.92997    0.600000     66.0000     74.6004    0.590343
    0.593759    0.631823     2.49465     485.149
   217.588
     4.90000    0.600000     66.0000     74.3995    0.588682
    0.591357    0.676899     2.28418     389.683
   217.637
     4.90000    0.600000     66.6002     74.0000    0.591063
    0.588571    0.688761     2.39453     485.149
   217.688
     4.91501    0.630012     70.0012     78.2017    0.623256
    0.621982    0.662662     2.23288     367.962
   217.738
     4.92500    0.619988     68.9988     77.3985    0.610276
    0.615102    0.611241     2.49452     485.149
   217.788
     4.90999    0.600000     67.0000     74.3996    0.589209
    0.590944    0.590706     2.28425     367.962
   217.838
     4.90000    0.600000     66.3995     74.6005    0.591115
    0.591872    0.662650     2.49472     485.149
   217.887
     4.90000    0.600000     66.6002     75.0000    0.590823
    0.594564    0.621532     2.28438     485.149
   217.938
     4.91501    0.630012     70.6015     78.0012    0.619521
    0.619438    0.621532     2.06122     367.962
   217.988
     4.92500    0.619988     69.3985     76.9988    0.610769
    0.611886    0.626282     2.49452     485.149
   218.038
     4.95502    0.600000     66.3996     74.3996    0.592810
    0.590942    0.650800     2.28425     367.962
   218.088
     4.97500    0.600000     65.3995     74.6005    0.589930
    0.592561    0.672941     2.49472     485.149
   218.137
     4.97500    0.600000     66.2005     74.3998    0.594529
    0.591017    0.662665     2.28438     389.683
   218.188
     4.97500    0.600000     66.3998     74.6002    0.592849
    0.592900    0.621532     2.39453     485.149
   218.238
     4.97500    0.600000     66.0000     74.3998    0.586810
    0.591222    0.631823     2.23288     367.962
   218.288
     4.92997    0.600000     66.0000     74.6004    0.588225
    0.592976    0.657900     2.49465     485.149
   218.338
     4.90000    0.630027     69.6033     78.6033    0.623750
    0.624913    0.592264     2.28418     389.683
   218.387
     4.93001    0.619988     68.9988     76.7983    0.614997
    0.609245    0.580399     2.39453     485.149
