#------------------------------------------------------------
~VERSION INFORMATION
VERS.               2.0  :CWLS LOG ASCII STANDARD - VERSION 2.0
WRAP.               YES  :MULTIPLE LINES PER DEPTH STEP
#------------------------------------------------------------
~WELL INFORMATION
STRT.M          4.03750  :FIRST INDEX VALUE
STOP.M          359.938  :LAST INDEX VALUE
STEP.M          0.00000  :STEP
NULL.            -99999  :NULL VALUE
COMP.                    :COMPANY
WELL.                    :WELL
FLD.                     :FLD
LOC.                     :LOCATION
SRVC.                    :
CTRY.                    :COUNTRY
STAT.                    :STATE
CNTY.                    :
DATE.                    :DATE
API.                     :API
#------------------------------------------------------------
~CURVE INFORMATION
DEPT.M                   :DEPTH
SPEED.MT/MIN             :Speed
TIME.SEC                 :Time
POSCOUNT.COUNT           :Poscount
NEGCOUNT.COUNT           :Negcount
POSDT.SEC                :Posdt
NEGDT.SEC                :Negdt
MAG_SUSC.10E-3_SI_UNITS   :Mag Susc
INDUCTION.MS/M           :Induction
IND_RES.OHM-M            :Ind Res
#------------------------------------------------------------
~PARAMETER INFORMATION
BIT_FROM1.               :BIT FROM1
BIT_FROM2.               :BIT FROM2
BIT_FROM3.               :BIT FROM3
BIT_FROM4.               :BIT FROM4
BIT_FROM5.               :BIT FROM5
BIT_FROM6.               :BIT FROM6
BIT_TO1.                 :BIT TO1
BIT_TO2.                 :BIT TO2
BIT_TO3.                 :BIT TO3
BIT_TO4.                 :BIT TO4
BIT_TO5.                 :BIT TO5
BIT_TO6.                 :BIT TO6
BIT1.                    :BIT1
BIT2.                    :BIT2
BIT3.                    :BIT3
BIT4.                    :BIT4
BIT5.                    :BIT5
BIT6.                    :BIT6
BTM_LOGGED_INTERVAL.     :BTM LOGGED INTERVAL
CASING_FROM1.            :CASING FROM1
CASING_FROM2.            :CASING FROM2
CASING_FROM3.            :CASING FROM3
CASING_FROM4.            :CASING FROM4
CASING_FROM5.            :CASING FROM5
CASING_FROM6.            :CASING FROM6
CASING_SIZE1.            :CASING SIZE1
CASING_SIZE2.            :CASING SIZE2
CASING_SIZE3.            :CASING SIZE3
CASING_SIZE4.            :CASING SIZE4
CASING_SIZE5.            :CASING SIZE5
CASING_SIZE6.            :CASING SIZE6
CASING_TO1.              :CASING TO1
CASING_TO2.              :CASING TO2
CASING_TO3.              :CASING TO3
CASING_TO4.              :CASING TO4
CASING_TO5.              :CASING TO5
CASING_TO6.              :CASING TO6
CO.                      :CO
CTY.                     :CTY
D_F_.                    :D.F.
DENSITY.                 :DENSITY
DEPTH-DRILLER.           :DEPTH-DRILLER
DEPTH-LOGGER.            :DEPTH-LOGGER
DRILLING_MEAS__FROM.     :DRILLING MEAS. FROM
ELEVATION.               :ELEVATION
FIELD.                   :FIELD
FILING_No.               :FILING No
G_L_.                    :G.L.
K_B_.                    :K.B.
LEVEL.                   :LEVEL
LOG_MEAS__FROM.          :LOG MEAS. FROM
MAX__REC__TEMP_.         :MAX. REC. TEMP.
OPERATING_RIG_TIME.      :OPERATING RIG TIME
OTHER_SERVICES.          :OTHER SERVICES
PERMANENT_DATUM.         :PERMANENT DATUM
RECORDED_BY.             :RECORDED BY
RGE.                     :RGE
RUN_No.                  :RUN No
RUN1.                    :RUN1
RUN2.                    :RUN2
RUN3.                    :RUN3
RUN4.                    :RUN4
RUN5.                    :RUN5
RUN6.                    :RUN6
SALINITY.                :SALINITY
SEC.                     :SEC
STE.                     :STE
TITLE.                   :TITLE
TOP_LOGGED_INTERVAL.     :TOP LOGGED INTERVAL
TWP.                     :TWP
TYPE_FLUID_IN_HOLE.      :TYPE FLUID IN HOLE
TYPE_LOG.                :TYPE LOG
WELL_ID.                 :WELL ID
WGT1.                    :WGT1
WGT2.                    :WGT2
WGT3.                    :WGT3
WGT4.                    :WGT4
WGT5.                    :WGT5
WGT6.                    :WGT6
WITNESSED_BY.            :WITNESSED BY
#------------------------------------------------------------
~OTHER
#------------------------------------------------------------
~A
# ...
   97.8375
     5.28499    0.550000     64.3997     68.3997    0.540249
    0.542442    0.433668     2.14001     458.594
   97.8875
     5.29001    0.580029     67.0029     71.6035    0.572020
    0.568363    0.470111     2.18058     458.594
   97.9375
     5.30000    0.569982     65.3978     70.9982    0.562390
    0.563609    0.470103     2.18058     367.962
   97.9875
     5.30000    0.580021     65.4017     72.0021    0.570664
    0.571033    0.447670     2.53520     458.594
   98.0375
     5.30000    0.569989     62.1983     70.9989    0.560206
    0.562253    0.543955     2.36319     458.594
   98.0875
     5.31501    0.550000     58.3997     68.3997    0.542723
    0.542664    0.574803     2.18058     458.594
   98.1375
     5.32500    0.550000     57.3994     68.0000    0.539127
    0.539941    0.604712     2.18058     345.220
   98.1875
     5.35502    0.580018     60.6022     72.2026    0.566678
    0.571547    0.643961     2.65334     485.149
   98.2375
     5.37500    0.569979     59.9979     71.3974    0.561569
    0.564439    0.638352     2.34507     345.220
   98.2875
     5.32998    0.550000     57.3998     68.3998    0.540017
    0.541432    0.699109     2.61265     485.149
   98.3375
     5.28499    0.550000     58.2006     68.6003    0.543563
    0.543201    0.679493     2.34520     345.220
   98.3875
     5.27500    0.580029     62.6035     72.0029    0.572906
    0.570267    0.694434     2.61298     458.594
   98.4375
     5.27500    0.569982     61.9982     70.9982    0.557732
    0.562537    0.685113     2.42395     485.149
   98.4875
     5.27500    0.550000     60.6004     68.3996    0.542236
    0.541822    0.825298     2.10177     345.220
   98.5375
     5.24499    0.580011     64.0011     72.2015    0.571897
    0.572371    0.806598     2.61265     367.962
   98.5875
     5.22500    0.569986     63.5989     70.7981    0.560749
    0.561597    0.761737     2.77853     458.594
   98.6375
     5.28506    0.580029     65.0029     72.2041    0.570147
    0.573276    0.774829     2.36297     345.220
   98.6875
     5.32500    0.569982     63.9982     70.7974    0.562016
    0.561949    0.814073     2.65334     485.149
   98.7375
     5.32500    0.550000     61.3996     68.0000    0.538349
    0.540005    0.750524     2.34507     345.220
   98.7875
     5.34001    0.580011     66.4019     71.6013    0.570707
    0.569871    0.716877     2.61265     458.594
   98.8375
     5.35000    0.569986     66.3984     70.3984    0.562784
    0.561206    0.739274     2.42399     345.220
   98.8875
     5.33499    0.550000     63.3994     68.0000    0.541006
    0.542317    0.674822     2.65352     458.594
   98.9375
     5.32500    0.550000     63.0000     68.0000    0.540596
    0.541581    0.772952     2.42395     367.962
   98.9875
     5.35502    0.580021     67.2030     72.2030    0.573647
    0.574864    0.764541     2.53520     345.220
   99.0375
     5.34499    0.569989     65.7985     70.7985    0.561868
    0.563425    0.772953     2.83584     485.149
   99.0875
     5.32500    0.550000     62.3997     68.0000    0.537470
    0.540808    0.784201     2.34520     345.220
   99.1375
     5.29497    0.550000     62.6006     68.0000    0.542741
    0.540389    0.885123     2.61298     345.220
   99.1875
     5.27500    0.550000     61.7993     68.6004    0.540611
    0.544542    0.929984     2.89671     367.962
   99.2375
     5.27500    0.580021     65.8034     72.0021    0.573292
    0.571495    0.909427     2.77850     345.220
   99.2875
     5.27500    0.569989     65.3987     70.9989    0.560082
    0.563469    0.881404     2.83584     367.962
   99.3375
     5.25999    0.580014     66.6016     72.0014    0.572323
    0.571579     1.07577     2.77853     345.220
   99.3875
     5.25000    0.569971     65.3965     70.9971    0.561675
    0.562869    0.954272     2.83591     345.220
   99.4375
     5.26501    0.550000     64.2007     68.3996    0.538939
    0.542164    0.814073     2.89671     367.962
   99.4875
     5.27500    0.580021     69.2030     71.6026    0.569436
    0.567816    0.784163     2.77850     458.594
   99.5375
     5.27500    0.569989     68.3987     70.9989    0.564955
    0.562350    0.873902     2.36319     345.220
   99.5875
     5.29001    0.580014     68.4011     72.6016    0.570808
    0.575119    0.862670     2.65330     367.962
   99.6375
     5.30000    0.569971     69.3994     70.7959    0.561161
    0.560525    0.829976     2.77847     345.220
   99.6875
     5.30000    0.550000     67.7993     68.6004    0.544436
    0.542958    0.888863     2.83586     345.220
   99.7375
     5.30000    0.580021     68.8013     72.0021    0.570734
    0.570659    0.950541     2.89671     458.594
   99.7875
     5.34502    0.569989     65.7985     70.9989    0.559619
    0.561815     1.01223     2.42406     345.220
   99.8375
     5.35999    0.550000     64.2005     68.3997    0.542026
    0.540175    0.929984     2.65330     296.373
   99.8875
     5.35000    0.550000     65.0000     68.6006    0.540370
    0.542908    0.909411     3.21200     345.220
   99.9375
     5.28996    0.550000     64.3996     68.3996    0.541897
    0.542056    0.825296     3.05895     367.962
   99.9875
     5.25000    0.580021     68.2030     72.2030    0.574235
    0.571352    0.788853     2.77850     345.220
   100.037
     5.25000    0.569989     67.9989     71.3987    0.559443
    0.564773    0.679487     2.83584     345.220
   100.088
     5.25000    0.580014     70.8022     72.0014    0.573302
    0.569572    0.683192     2.89671     367.962
   100.138
     5.25000    0.569971     69.1954     70.9971    0.561762
    0.560515    0.619675     2.77847     345.220
   100.188
     5.26501    0.550000     66.0000     69.0000    0.542747
    0.543687    0.731831     2.83586     345.220
   100.238
     5.27500    0.580021     68.4017     72.6026    0.571671
    0.573183    0.739311     2.89671     367.962
   100.287
     5.27500    0.569989     66.3987     71.3987    0.561834
    0.563129    0.654249     2.77854     345.220
   100.338
     5.27500    0.580014     65.8008     72.6016    0.567584
    0.571370    0.679493     2.83586     345.220
   100.388
     5.29001    0.569971     63.9971     71.3965    0.562870
    0.562453    0.683212     2.89671     367.962
   100.438
     5.30000    0.550000     60.7993     69.0000    0.540377
    0.543745    0.582268     2.77852     345.220
   100.488
     5.30000    0.580021     64.8034     72.6026    0.569970
    0.572781    0.537409     2.83588     345.220
   100.537
     5.33001    0.569989     64.9989     70.7985    0.561971
    0.559815    0.533668     2.89671     345.220
   100.588
     5.35000    0.550000     61.7994     68.6003    0.540309
    0.542110    0.522459     2.89671     367.962
   100.638
     5.36501    0.580029     64.6035     72.6035    0.570123
    0.572391    0.523382     2.77847     345.220
   100.688
     5.37500    0.569982     63.9982     71.3978    0.563546
    0.561350    0.481335     2.83586     345.220
   100.738
     5.32997    0.550000     60.7991     69.0000    0.540306
    0.543071    0.548622     2.89671     367.962
   100.787
     5.30000    0.550000     59.3998     68.3998    0.539584
    0.539031    0.599102     2.77854     345.220
   100.838
     5.26999    0.550000     59.0000     68.6003    0.540299
    0.539062    0.649612     2.83586     296.373
   100.888
     5.25000    0.580029     62.0029     73.2041    0.569693
    0.574922    0.772959     3.21200     345.220
   100.938
     5.26501    0.569982     60.9982     71.7974    0.561916
    0.564280    0.840266     3.05895     367.962
   100.988
     5.27500    0.580021     61.4017     72.6026    0.569500
    0.571616    0.952410     2.77850     276.791
   101.037
     5.27500    0.569989     60.5991     71.3987    0.559446
    0.562135     1.05337     3.30849     345.220
   101.088
     5.27500    0.550000     59.6003     69.0000    0.542369
    0.543136     1.09542     3.14012     345.220
   101.138
     5.27500    0.580029     63.6035     72.6035    0.571472
    0.572684     1.07579     2.89671     345.220
