#------------------------------------------------------------
~VERSION INFORMATION
VERS.               2.0  :CWLS LOG ASCII STANDARD - VERSION 2.0
WRAP.               YES  :MULTIPLE LINES PER DEPTH STEP
#------------------------------------------------------------
~WELL INFORMATION
STRT.M         0.554600  :FIRST INDEX VALUE
STOP.M          359.955  :LAST INDEX VALUE
STEP.M          0.00000  :STEP
NULL.            -99999  :NULL VALUE
COMP.                    :COMPANY
WELL.                    :WELL
FLD.                     :FLD
LOC.                     :LOCATION
SRVC.                    :
CTRY.                    :COUNTRY
STAT.                    :STATE
CNTY.                    :
DATE.                    :DATE
API.                     :API
#------------------------------------------------------------
~CURVE INFORMATION
DEPT.M                   :DEPTH
A1.                      :A1
CHI2.                    :Chi2
K.%                      :K
U.PPM                    :U
TH.PPM                   :Th
K-ERROR.%                :K-Error
U-ERROR.PPM              :U-Error
TH-ERROR.PPM             :Th-Error
TIME.SEC                 :Time
COUNTS.                  :Counts
STACK_TIME.SEC           :Stack Time
STACK_COUNTS.            :Stack counts
EHT.V                    :EHT
TCPU.'C                  :TCPU
GR.API                   :GR
SPEED.M/MIN              :Speed
TOOLPOWERVOLTAGE.V       :ToolPowerVoltage
TOOLPOWERCURRENT.MA      :ToolPowerCurrent
#------------------------------------------------------------
~PARAMETER INFORMATION
#------------------------------------------------------------
~OTHER
#------------------------------------------------------------
~A
# ...
   357.555
    0.499000    0.391554     1.12176     0.00000     11.6898
     1.23042     0.00000     6.40454     1.61200     193.000
     135.110     18953.0     1197.84     13.0431     80.3986
     1.87500     125.000     27.0270
   357.605
    0.499000    0.416513     1.30130     1.31697     11.2797
     1.28119     4.84103     12.1149     1.59900     212.000
     135.032     18964.0     1197.84     13.0431     89.0315
     1.85000     122.000     19.4595
   357.655
    0.499000    0.409749     1.33446     0.00000     11.0666
     1.22736     0.00000     6.38775     1.61600     192.000
     134.981     18975.0     1197.84     13.0431     79.7841
     1.87500     122.000     21.6216
   357.705
    0.499000    0.402114     1.21017     0.00000     13.3251
     1.23943     0.00000     6.49490     1.60100     182.000
     134.914     19019.0     1197.68     13.0431     76.3372
     1.90000     124.000     23.7838
   357.755
    0.499000    0.862751     1.95503     0.00000     7.49112
     1.24576     0.00000     6.46576     1.59200     181.000
     134.858     19049.0     1197.68     13.0431     76.3470
     1.87500     123.000     19.4595
   357.805
    0.499000    0.386346    0.619760     3.03851     5.39372
     1.27584     4.80119     11.9431     1.60200     187.000
     134.809     19138.0     1197.84     13.0431     78.3855
     1.87500     122.000     22.7027
   357.855
    0.499000    0.286188     1.42379     2.61974     7.47344
     1.27815     4.84773     12.0983     1.60500     220.000
     134.749     19307.0     1197.68     13.0431     92.0458
     1.87500     123.000     29.1892
   357.905
    0.499000    0.380678     2.17273     0.00000     4.69715
     1.23569     0.00000     6.40349     1.60500     188.000
     134.680     19552.0     1197.84     13.0431     78.6573
     1.82500     123.000     20.5405
   357.955
    0.499000    0.308454     1.32159     2.91131     4.99157
     1.27292     4.79462     11.9487     1.60600     193.000
     134.613     19963.0     1197.84     13.0431     80.6990
     1.85000     123.000     29.1892
   358.005
    0.499000    0.414362     1.58027     4.65782     0.00000
     1.24276     2.60967     0.00000     1.60100     209.000
     134.546     20332.0     1197.68     13.0431     87.6620
     1.87500     124.000     30.2703
   358.055
    0.499000    0.358537     1.60643     3.06886     0.00000
     1.22877     2.56036     0.00000     1.61400     209.000
     134.483     20567.0     1197.84     13.0431     86.9559
     1.85000     123.000     20.5405
   358.105
    0.499000    0.396432     1.83074     0.00000     10.8596
     1.23806     0.00000     6.49766     1.60300     204.000
     134.380     20671.0     1197.68     13.0431     85.4581
     1.87500     123.000     20.5405
   358.155
    0.499000    0.456902     1.03400     0.00000     7.95010
     1.22956     0.00000     6.37173     1.61300     189.000
     134.280     20721.0     1197.68     13.0431     78.6835
     1.90000     122.000     22.7027
   358.205
    0.499000    0.303316     2.36758     2.59381     0.00000
     1.22364     2.55102     0.00000     1.62100     202.000
     134.178     20735.0     1197.84     13.0431     83.6806
     1.85000     124.000     22.7027
   358.255
    0.499000    0.346274     1.59584     0.00000     14.3171
     1.22517     0.00000     6.58516     1.62400     173.000
     134.084     20732.0     1197.84     13.0431     71.5346
     1.87500     123.000     20.5405
   358.305
    0.499000    0.471771    0.918361     1.09982     6.42262
     1.26782     4.77087     11.8662     1.61200     162.000
     133.999     20744.0     1197.68     13.0431     67.4849
     1.85000     123.000     19.4595
   358.355
    0.499000    0.469215     1.11648     0.00000     9.79304
     1.22193     0.00000     6.33325     1.62300     175.000
     133.924     20788.0     1197.84     13.0431     72.4062
     1.87500     125.000     30.2703
   358.405
    0.499000    0.467031     2.31810     0.00000     7.51191
     1.22075     0.00000     6.37021     1.62500     218.000
     133.844     20818.0     1197.68     13.0431     90.0865
     1.87500     124.000     25.9459
   358.455
    0.499000    0.478972     2.13658     1.15225     3.73468
     1.26172     4.74889     11.8200     1.62000     202.000
     133.757     20784.0     1197.84     13.0431     83.7322
     1.85000     123.000     28.1081
   358.505
    0.499000    0.469918     1.67503     0.00000     8.18754
     1.22424     0.00000     6.35044     1.62000     187.000
     133.676     20774.0     1197.84     13.0431     77.5145
     1.87500     125.000     28.1081
   358.555
    0.499000    0.434735    0.802994     0.00000     13.4067
     1.22298     0.00000     6.36446     1.62200     234.000
     133.614     20751.0     1197.68     13.0431     96.8772
     1.85000     124.000     24.8649
   358.605
    0.499000    0.314640     2.10062    0.650686     6.53072
     1.26022     4.74732     11.8481     1.62200     209.000
     133.543     20687.0     1197.84     13.0222     86.5270
     1.85000     123.000     28.1081
   358.655
    0.499000    0.471164     0.00000     10.2402     0.00000
     0.00000     1.56026     0.00000     1.61400     223.000
     133.461     20656.0     1197.68     13.0222     92.7807
     1.85000     124.000     31.3514
   358.705
    0.499000    0.358211     1.69459     1.38690     10.6688
     1.27815     4.84863     12.1379     1.60600     264.000
     133.387     20614.0     1197.84     13.0222     110.386
     1.87500     122.000     19.4595
   358.755
    0.499000    0.410894     1.00535     8.52436     9.84162
     1.31415     5.44383     12.9127     1.60100     382.000
     133.319     20546.0     1197.68     13.0222     160.224
     1.85000     124.000     23.7838
   358.805
    0.499000    0.362715     4.55096     1.63668     24.9863
     1.35891     5.66938     13.5220     1.61300     551.000
     133.253     20354.0     1197.68     13.0222     229.390
     1.85000     123.000     19.4595
   358.855
    0.499000    0.409321     3.15963     9.61641     16.8182
     1.31364     5.77335     13.3598     1.62900     675.000
     133.153     20001.0     1197.68     13.0222     278.252
     1.85000     124.000     31.3514
   358.905
    0.499000    0.391022     5.00432     4.50442     20.4288
     1.33790     5.79877     13.4535     1.63300     602.000
     133.045     19502.0     1197.84     13.0222     247.552
     1.85000     125.000     28.1081
   358.955
    0.499000    0.431767     3.22905     4.22215     15.5661
     1.30055     5.41773     12.8314     1.62100     460.000
     132.929     19077.0     1197.68     13.0222     190.560
     1.85000     122.000     23.7838
   359.005
    0.499000    0.331732     1.14344     9.04160     6.99947
     1.29428     5.37664     12.7010     1.62500     407.000
     132.844     18796.0     1197.84     13.0222     168.189
     1.85000     123.000     28.1081
   359.055
    0.499000    0.350351     2.54866     3.57419     8.26700
     1.27743     5.03158     12.3533     1.62400     305.000
     132.773     18569.0     1197.68     13.0222     126.116
     1.85000     124.000     30.2703
   359.105
    0.499000    0.402322     2.37683     0.00000     9.22920
     1.22586     0.00000     6.43752     1.61900     217.000
     132.710     18465.0     1197.84     13.0222     90.0055
     1.87500     123.000     20.5405
   359.155
    0.499000    0.283429    0.110920    0.699863     24.6033
     1.27602     4.97619     12.3071     1.62500     239.000
     132.656     18411.0     1197.84     13.0222     98.7645
     1.87500     123.000     20.5405
   359.205
    0.499000    0.298090     1.48225     2.70672     5.36300
     1.26321     4.76656     11.8858     1.62000     223.000
     132.583     18334.0     1197.84     13.0222     92.4371
     1.85000     125.000     31.3514
   359.255
    0.499000    0.646071     2.24348     1.25931     0.00000
     1.22946     2.56178     0.00000     1.61300     188.000
     132.507     18269.0     1197.68     13.0222     78.2672
     1.82500     124.000     24.8649
