#------------------------------------------------------------
~VERSION INFORMATION
VERS.               2.0  :CWLS LOG ASCII STANDARD - VERSION 2.0
WRAP.               YES  :MULTIPLE LINES PER DEPTH STEP
#------------------------------------------------------------
~WELL INFORMATION
STRT.M         0.554600  :FIRST INDEX VALUE
STOP.M          359.955  :LAST INDEX VALUE
STEP.M          0.00000  :STEP
NULL.            -99999  :NULL VALUE
COMP.                    :COMPANY
WELL.                    :WELL
FLD.                     :FLD
LOC.                     :LOCATION
SRVC.                    :
CTRY.                    :COUNTRY
STAT.                    :STATE
CNTY.                    :
DATE.                    :DATE
API.                     :API
#------------------------------------------------------------
~CURVE INFORMATION
DEPT.M                   :DEPTH
A1.                      :A1
CHI2.                    :Chi2
K.%                      :K
U.PPM                    :U
TH.PPM                   :Th
K-ERROR.%                :K-Error
U-ERROR.PPM              :U-Error
TH-ERROR.PPM             :Th-Error
TIME.SEC                 :Time
COUNTS.                  :Counts
STACK_TIME.SEC           :Stack Time
STACK_COUNTS.            :Stack counts
EHT.V                    :EHT
TCPU.'C                  :TCPU
GR.API                   :GR
SPEED.M/MIN              :Speed
TOOLPOWERVOLTAGE.V       :ToolPowerVoltage
TOOLPOWERCURRENT.MA      :ToolPowerCurrent
#------------------------------------------------------------
~PARAMETER INFORMATION
#------------------------------------------------------------
~OTHER
#------------------------------------------------------------
~A
# ...
   310.305
    0.570000    0.525858     2.22333     0.00000     10.0579
     1.26955     0.00000     6.65261     1.56300     207.000
     71.4970     8900.00     1197.89     12.8337     88.9340
     1.92500     125.000     31.3514
   310.355
    0.570000    0.487619     2.36272     0.00000     6.12276
     1.27230     0.00000     6.60301     1.55900     218.000
     71.4910     8911.00     1197.89     12.8337     93.9002
     1.95000     125.000     24.8649
   310.405
    0.570000    0.323159     2.05195    0.316617     9.37959
     1.30741     4.92827     12.3389     1.56400     223.000
     71.4910     8907.00     1197.89     12.8337     95.7468
     1.95000     125.000     31.3514
   310.455
    0.570000    0.340818    0.565228   0.0250816     13.5937
     1.30605     4.91596     12.2374     1.56500     193.000
     71.4890     8868.00     1197.73     12.8337     82.8132
     1.92500     123.000     19.4595
   310.505
    0.570000    0.395450     1.10342     0.00000     13.7090
     1.27789     0.00000     6.70224     1.55300     179.000
     71.4710     8861.00     1197.89     12.8547     77.3995
     1.92500     125.000     25.9459
   310.555
    0.570000     2.86687    0.733970     4.31305     0.00000
     1.27444     2.65551     0.00000     1.55600     167.000
     71.4710     8857.00     1197.73     12.8337     72.0714
     1.92500     123.000     19.4595
   310.605
    0.570000    0.643375     1.96860     0.00000     3.95441
     1.27295     0.00000     6.59657     1.55800     178.000
     71.4730     8869.00     1197.73     12.8337     76.7201
     1.90000     124.000     29.1892
   310.655
    0.570000    0.415018     1.93187     0.00000     9.90401
     1.28640     0.00000     6.71177     1.54200     190.000
     71.4700     8852.00     1197.73     12.8337     82.7419
     1.92500     123.000     19.4595
   310.705
    0.570000    0.427503     1.06886     2.12425     3.49760
     1.32198     4.97469     12.3731     1.54600     165.000
     71.4770     8848.00     1197.73     12.8337     71.6689
     1.90000     125.000     31.3514
   310.755
    0.570000     1.01340     2.30657     0.00000     3.24023
     1.28958     0.00000     6.68274     1.53800     194.000
     71.4780     8830.00     1197.89     12.8337     84.7036
     1.92500     124.000     21.6216
   310.805
    0.570000    0.409643     1.35883     0.00000     5.89405
     1.28783     0.00000     6.67369     1.54000     177.000
     71.4820     8813.00     1197.89     12.8547     77.1807
     1.92500     125.000     31.3514
   310.855
    0.570000    0.337485     1.53156     1.31710     7.20183
     1.32212     4.97694     12.3933     1.54600     194.000
     71.4960     8819.00     1197.89     12.8337     84.2653
     1.90000     122.000     21.6216
   310.905
    0.570000    0.484013     2.25600     0.00000     8.70332
     1.26443     0.00000     6.60840     1.56900     207.000
     71.5160     8769.00     1197.89     12.8337     88.5939
     1.92500     125.000     29.1892
   310.955
    0.570000    0.448474     1.72855     2.53602     2.22507
     1.31099     4.93350     12.2725     1.55900     172.000
     71.5100     8710.00     1197.73     12.8337     74.0864
     1.92500     122.000     21.6216
   311.005
    0.570000    0.381374     2.17181     2.20003     7.83065
     1.31532     5.00940     12.4955     1.56200     234.000
     71.5340     8705.00     1197.89     12.8337     100.598
     1.90000     125.000     32.4324
   311.055
    0.570000     1.02723     2.53711     3.36477     0.00000
     1.27058     2.65821     0.00000     1.56300     246.000
     71.5340     8629.00     1197.73     12.8547     105.690
     1.95000     123.000     19.4595
   311.105
    0.570000     1.29213     2.99490     2.61585     0.00000
     1.27526     2.66309     0.00000     1.55600     232.000
     71.5300     8551.00     1197.73     12.8337     100.123
     1.95000     124.000     22.7027
   311.155
    0.570000    0.340371     1.83669     7.17175     0.00000
     1.29957     2.88364     0.00000     1.55900     257.000
     71.5250     8496.00     1197.73     12.8547     110.699
     1.95000     122.000     20.5405
   311.205
    0.570000    0.407126     1.53126    0.932382     10.1333
     1.30980     4.93531     12.3342     1.56100     233.000
     71.5250     8414.00     1197.73     12.8337     100.233
     1.95000     124.000     21.6216
   311.255
    0.570000     1.65529     1.65080     5.62977     0.00000
     1.28351     2.73979     0.00000     1.55900     226.000
     71.5150     8360.00     1197.73     12.8547     97.3461
     1.92500     122.000     20.5405
   311.305
    0.570000    0.798573     2.09230     3.84260     0.00000
     1.27779     2.66705     0.00000     1.55300     203.000
     71.5130     8315.00     1197.89     12.8547     87.7770
     1.90000     123.000     20.5405
   311.355
    0.570000    0.331234     1.23636     3.09275     8.78671
     1.31863     5.03737     12.5051     1.55900     192.000
     71.5190     8292.00     1197.73     12.8547     82.7011
     1.92500     123.000     19.4595
   311.405
    0.570000    0.421149    0.746774     6.69490     2.76549
     1.33560     5.20676     12.7142     1.54600     188.000
     71.5110     8241.00     1197.89     12.8547     81.6591
     1.92500     125.000     25.9459
   311.455
    0.570000     2.07989     1.35238     2.99688     0.00000
     1.28428     2.67603     0.00000     1.54400     152.000
     71.5160     8187.00     1197.73     12.8547     66.1078
     1.92500     122.000     19.4595
   311.505
    0.570000    0.634787     2.20660     4.34572    0.222256
     1.32932     5.05708     12.5452     1.54300     201.000
     71.5080     8174.00     1197.73     12.8547     87.4755
     1.95000     124.000     21.6216
   311.555
    0.570000    0.399266     2.37735   0.0318015     6.27575
     1.32986     5.00570     12.4620     1.53700     193.000
     71.5030     8093.00     1197.89     12.8547     84.3218
     1.92500     125.000     24.8649
   311.605
    0.570000    0.516261    0.770099     4.19548     0.00000
     1.28188     2.67101     0.00000     1.54700     172.000
     71.5120     8035.00     1197.73     12.8547     74.6611
     1.92500     124.000     29.1892
   311.655
    0.570000    0.710406     1.70405    0.477640     2.75792
     1.30837     4.92347     12.2457     1.56200     150.000
     71.5300     8011.00     1197.73     12.8547     64.4862
     1.92500     123.000     19.4595
   311.705
    0.570000    0.318784     1.61497    0.976351     7.28394
     1.30933     4.92842     12.2696     1.56100     175.000
     71.5220     7979.00     1197.73     12.8547     75.2821
     1.92500     124.000     29.1892
   311.755
    0.570000    0.381123     1.53493     3.51052     2.98971
     1.31299     4.94620     12.3204     1.55700     175.000
     71.5210     7926.00     1197.73     12.8547     75.4755
     1.92500     123.000     19.4595
   311.805
    0.570000     2.00680     1.03105     5.08758     0.00000
     1.26971     2.64982     0.00000     1.56300     177.000
     71.5320     7899.00     1197.73     12.8547     76.0450
     1.95000     124.000     30.2703
   311.855
    0.570000    0.304593    0.584858     4.07912     4.78915
     1.31088     4.94057     12.2833     1.56000     163.000
     71.5340     7872.00     1197.73     12.8547     70.1648
     1.95000     123.000     19.4595
   311.905
    0.570000    0.396726     2.26090     0.00000     8.84064
     1.27079     0.00000     6.64024     1.56100     180.000
     71.5250     7859.00     1197.89     12.8547     77.4330
     1.95000     123.000     27.0270
   311.955
    0.570000    0.434112    0.955505     3.00447     4.72642
     1.30597     4.91478     12.2275     1.56500     174.000
     71.5330     7821.00     1197.73     12.8547     74.6606
     1.95000     123.000     19.4595
   312.005
    0.570000    0.374367     1.05705     2.01558     2.61273
     1.31936     4.96483     12.3486     1.54900     151.000
     71.5350     7759.00     1197.89     12.8547     65.4609
     1.92500     123.000     25.9459
