#------------------------------------------------------------
~VERSION INFORMATION
VERS.               2.0  :CWLS LOG ASCII STANDARD - VERSION 2.0
WRAP.               YES  :MULTIPLE LINES PER DEPTH STEP
#------------------------------------------------------------
~WELL INFORMATION
STRT.M         0.554600  :FIRST INDEX VALUE
STOP.M          359.955  :LAST INDEX VALUE
STEP.M          0.00000  :STEP
NULL.            -99999  :NULL VALUE
COMP.                    :COMPANY
WELL.                    :WELL
FLD.                     :FLD
LOC.                     :LOCATION
SRVC.                    :
CTRY.                    :COUNTRY
STAT.                    :STATE
CNTY.                    :
DATE.                    :DATE
API.                     :API
#------------------------------------------------------------
~CURVE INFORMATION
DEPT.M                   :DEPTH
A1.                      :A1
CHI2.                    :Chi2
K.%                      :K
U.PPM                    :U
TH.PPM                   :Th
K-ERROR.%                :K-Error
U-ERROR.PPM              :U-Error
TH-ERROR.PPM             :Th-Error
TIME.SEC                 :Time
COUNTS.                  :Counts
STACK_TIME.SEC           :Stack Time
STACK_COUNTS.            :Stack counts
EHT.V                    :EHT
TCPU.'C                  :TCPU
GR.API                   :GR
SPEED.M/MIN              :Speed
TOOLPOWERVOLTAGE.V       :ToolPowerVoltage
TOOLPOWERCURRENT.MA      :ToolPowerCurrent
#------------------------------------------------------------
~PARAMETER INFORMATION
#------------------------------------------------------------
~OTHER
#------------------------------------------------------------
~A
# ...
   263.055
    0.568000    0.483392     1.36285    0.343685     9.78263
     1.35721     5.10798     12.7110     1.50600     185.000
     69.1130     8503.00     1198.00     12.5196     82.4903
     2.00000     123.000     19.4595
   263.105
    0.568000    0.400692     1.41399     0.00000     8.45605
     1.32397     0.00000     6.86098     1.49800     180.000
     69.0970     8433.00     1198.00     12.5196     80.6895
     1.97500     125.000     24.8649
   263.155
    0.568000    0.649478     1.16526     2.99181     2.16049
     1.36351     5.13095     12.7618     1.49900     176.000
     69.0830     8383.00     1197.84     12.5196     78.8438
     2.00000     125.000     31.3514
   263.205
    0.568000     1.04971     2.86797     2.57087     0.00000
     1.33318     2.78051     0.00000     1.48800     196.000
     69.0680     8337.00     1198.00     12.5196     88.4524
     1.97500     123.000     24.8649
   263.255
    0.568000    0.292777     1.81365     0.00000     9.48288
     1.31701     0.00000     6.84023     1.50600     193.000
     69.0480     8272.00     1198.00     12.5196     86.0575
     1.97500     123.000     19.4595
   263.305
    0.568000    0.355972    0.789941     3.34604     8.62528
     1.35566     5.14340     12.7919     1.51300     194.000
     69.0200     8209.00     1198.00     12.5196     86.1032
     1.97500     125.000     23.7838
   263.355
    0.568000    0.370397     1.45166     3.91562     0.00000
     1.30289     2.71479     0.00000     1.52200     159.000
     68.9970     8129.00     1197.84     12.5196     70.1518
     2.02500     124.000     27.0270
   263.405
    0.568000    0.567725    0.809103     4.83106     1.48049
     1.34374     5.05673     12.5789     1.52100     167.000
     68.9670     8101.00     1198.00     12.5196     73.7299
     1.97500     124.000     27.0270
   263.455
    0.568000    0.470331     1.73853     2.04447     1.37280
     1.33329     5.01725     12.4790     1.53300     186.000
     68.9390     8070.00     1198.00     12.5196     81.4755
     2.00000     124.000     20.5405
   263.505
    0.568000    0.855239     1.81489     2.14253     0.00000
     1.30730     2.72398     0.00000     1.51700     186.000
     68.9070     8001.00     1197.84     12.5196     82.3349
     2.00000     125.000     27.0270
   263.555
    0.568000    0.288502     2.92269     0.00000     3.99573
     1.31345     0.00000     6.81487     1.51000     180.000
     68.8900     7938.00     1198.00     12.5405     80.0483
     2.00000     123.000     23.7838
   263.605
    0.568000    0.317118     1.60140     4.41041     3.89112
     1.36201     5.23243     12.9276     1.51100     190.000
     68.8790     7879.00     1198.00     12.5196     84.4395
     2.02500     123.000     19.4595
   263.655
    0.568000    0.277398     2.22014     2.66019     5.14925
     1.35963     5.14524     12.8430     1.50700     199.000
     68.8650     7809.00     1198.00     12.5196     88.6740
     1.97500     125.000     28.1081
   263.705
    0.568000    0.594148     2.95123     2.08007     0.00000
     1.32327     2.75873     0.00000     1.49900     198.000
     68.8510     7750.00     1197.84     12.5196     88.6992
     2.00000     125.000     31.3514
   263.755
    0.568000    0.590916     2.10491     2.60697     5.79270
     1.36935     5.18746     12.9440     1.49700     201.000
     68.8400     7675.00     1197.84     12.5196     90.1635
     1.95000     123.000     20.5405
   263.805
    0.568000    0.489698     2.48169     0.00000     8.00127
     1.31546     0.00000     6.86272     1.50800     205.000
     68.8410     7572.00     1197.84     12.5196     91.2870
     1.97500     125.000     23.7838
   263.855
    0.568000    0.497576     1.70255     4.56929     1.70515
     1.36081     5.16075     12.8117     1.50600     194.000
     68.8200     7465.00     1197.84     12.5196     86.5034
     1.95000     123.000     23.7838
   263.905
    0.568000    0.343410     2.32914     0.00000     5.60265
     1.30986     0.00000     6.78941     1.51400     154.000
     68.8050     7377.00     1197.84     12.5405     68.3048
     1.97500     123.000     19.4595
   263.955
    0.568000     1.14303     1.68358     5.02905     0.00000
     1.32670     2.78305     0.00000     1.49900     189.000
     68.7820     7323.00     1197.84     12.5196     84.6675
     2.00000     125.000     27.0270
   264.005
    0.568000    0.417195     2.46034    0.608636     0.00000
     1.33179     2.77502     0.00000     1.48900     162.000
     68.7650     7241.00     1197.84     12.5196     73.0595
     1.97500     125.000     31.3514
   264.055
    0.568000    0.364067     2.54998     3.10797     0.00000
     1.32863     2.77085     0.00000     1.49300     182.000
     68.7480     7164.00     1197.84     12.5405     81.8593
     2.00000     123.000     19.4595
   264.105
    0.568000    0.380721     1.89416     0.00000     13.2546
     1.30865     0.00000     6.92928     1.51800     201.000
     68.7340     7083.00     1198.00     12.5405     88.9162
     2.00000     124.000     22.7027
   264.155
    0.568000    0.580605     1.61525     4.60239     0.00000
     1.31255     2.73949     0.00000     1.51200     188.000
     68.7220     6971.00     1197.84     12.5196     83.4954
     2.00000     125.000     31.3514
   264.205
    0.568000    0.496522     2.38007     1.89754     4.20326
     1.35632     5.11044     12.7647     1.50700     173.000
     68.7090     6901.00     1198.00     12.5196     77.0884
     2.00000     124.000     29.1892
   264.255
    0.568000    0.345214     1.80189     0.00000     13.3781
     1.31481     0.00000     6.96876     1.51100     185.000
     68.7010     6851.00     1197.84     12.5405     82.2174
     2.00000     124.000     22.7027
   264.305
    0.568000    0.471894     2.62247     0.00000     4.68601
     1.32761     0.00000     6.88223     1.49400     201.000
     68.6920     6778.00     1198.00     12.5405     90.3445
     1.97500     125.000     25.9459
   264.355
    0.568000     2.09465     1.63322     4.30894     0.00000
     1.31526     2.74143     0.00000     1.50800     191.000
     68.6980     6682.00     1198.00     12.5405     85.0528
     2.00000     123.000     23.7838
   264.405
    0.568000    0.516458     3.25725     0.00000     2.99173
     1.32314     0.00000     6.86753     1.49900     191.000
     68.6920     6608.00     1197.84     12.5196     85.5634
     2.02500     124.000     20.5405
   264.455
    0.568000    0.382431     2.73030     2.84401     0.00000
     1.32613     2.76586     0.00000     1.49600     215.000
     68.6940     6520.00     1197.84     12.5405     96.5080
     2.00000     123.000     23.7838
   264.505
    0.568000    0.552390     1.51860     4.71681     0.00000
     1.32367     2.76144     0.00000     1.49900     182.000
     68.6880     6423.00     1198.00     12.5405     81.5316
     1.97500     123.000     23.7838
   264.555
    0.568000    0.307953     2.12234     0.00000     6.27214
     1.31623     0.00000     6.82144     1.50700     219.000
     68.7020     6341.00     1197.84     12.5405     97.5859
     2.00000     124.000     22.7027
   264.605
    0.568000    0.317921     2.78869     0.00000     7.79926
     1.31528     0.00000     6.91060     1.50900     212.000
     68.7100     6215.00     1198.00     12.5405     94.3415
     1.97500     125.000     24.8649
   264.655
    0.568000    0.315419    0.900490     1.65924     15.1621
     1.37126     5.23507     13.0326     1.50000     197.000
     68.6930     6094.00     1198.00     12.5405     88.1924
     1.97500     124.000     30.2703
   264.705
    0.568000    0.347980    0.743794     3.91657     9.74977
     1.37098     5.27416     13.0422     1.50300     211.000
     68.6940     5992.00     1197.84     12.5405     94.2714
     2.00000     123.000     24.8649
   264.755
    0.568000    0.372623     2.19814     0.00000     13.4106
     1.34838     0.00000     7.21606     1.47500     198.000
     68.6750     5883.00     1197.84     12.5405     90.1425
     2.00000     0.00000     0.00000
