#------------------------------------------------------------
~VERSION INFORMATION
VERS.               2.0  :CWLS LOG ASCII STANDARD - VERSION 2.0
WRAP.               YES  :MULTIPLE LINES PER DEPTH STEP
#------------------------------------------------------------
~WELL INFORMATION
STRT.M          4.03750  :FIRST INDEX VALUE
STOP.M          359.938  :LAST INDEX VALUE
STEP.M          0.00000  :STEP
NULL.            -99999  :NULL VALUE
COMP.                    :COMPANY
WELL.                    :WELL
FLD.                     :FLD
LOC.                     :LOCATION
SRVC.                    :
CTRY.                    :COUNTRY
STAT.                    :STATE
CNTY.                    :
DATE.                    :DATE
API.                     :API
#------------------------------------------------------------
~CURVE INFORMATION
DEPT.M                   :DEPTH
SPEED.MT/MIN             :Speed
TIME.SEC                 :Time
POSCOUNT.COUNT           :Poscount
NEGCOUNT.COUNT           :Negcount
POSDT.SEC                :Posdt
NEGDT.SEC                :Negdt
MAG_SUSC.10E-3_SI_UNITS   :Mag Susc
INDUCTION.MS/M           :Induction
IND_RES.OHM-M            :Ind Res
#------------------------------------------------------------
~PARAMETER INFORMATION
BIT_FROM1.               :BIT FROM1
BIT_FROM2.               :BIT FROM2
BIT_FROM3.               :BIT FROM3
BIT_FROM4.               :BIT FROM4
BIT_FROM5.               :BIT FROM5
BIT_FROM6.               :BIT FROM6
BIT_TO1.                 :BIT TO1
BIT_TO2.                 :BIT TO2
BIT_TO3.                 :BIT TO3
BIT_TO4.                 :BIT TO4
BIT_TO5.                 :BIT TO5
BIT_TO6.                 :BIT TO6
BIT1.                    :BIT1
BIT2.                    :BIT2
BIT3.                    :BIT3
BIT4.                    :BIT4
BIT5.                    :BIT5
BIT6.                    :BIT6
BTM_LOGGED_INTERVAL.     :BTM LOGGED INTERVAL
CASING_FROM1.            :CASING FROM1
CASING_FROM2.            :CASING FROM2
CASING_FROM3.            :CASING FROM3
CASING_FROM4.            :CASING FROM4
CASING_FROM5.            :CASING FROM5
CASING_FROM6.            :CASING FROM6
CASING_SIZE1.            :CASING SIZE1
CASING_SIZE2.            :CASING SIZE2
CASING_SIZE3.            :CASING SIZE3
CASING_SIZE4.            :CASING SIZE4
CASING_SIZE5.            :CASING SIZE5
CASING_SIZE6.            :CASING SIZE6
CASING_TO1.              :CASING TO1
CASING_TO2.              :CASING TO2
CASING_TO3.              :CASING TO3
CASING_TO4.              :CASING TO4
CASING_TO5.              :CASING TO5
CASING_TO6.              :CASING TO6
CO.                      :CO
CTY.                     :CTY
D_F_.                    :D.F.
DENSITY.                 :DENSITY
DEPTH-DRILLER.           :DEPTH-DRILLER
DEPTH-LOGGER.            :DEPTH-LOGGER
DRILLING_MEAS__FROM.     :DRILLING MEAS. FROM
ELEVATION.               :ELEVATION
FIELD.                   :FIELD
FILING_No.               :FILING No
G_L_.                    :G.L.
K_B_.                    :K.B.
LEVEL.                   :LEVEL
LOG_MEAS__FROM.          :LOG MEAS. FROM
MAX__REC__TEMP_.         :MAX. REC. TEMP.
OPERATING_RIG_TIME.      :OPERATING RIG TIME
OTHER_SERVICES.          :OTHER SERVICES
PERMANENT_DATUM.         :PERMANENT DATUM
RECORDED_BY.             :RECORDED BY
RGE.                     :RGE
RUN_No.                  :RUN No
RUN1.                    :RUN1
RUN2.                    :RUN2
RUN3.                    :RUN3
RUN4.                    :RUN4
RUN5.                    :RUN5
RUN6.                    :RUN6
SALINITY.                :SALINITY
SEC.                     :SEC
STE.                     :STE
TITLE.                   :TITLE
TOP_LOGGED_INTERVAL.     :TOP LOGGED INTERVAL
TWP.                     :TWP
TYPE_FLUID_IN_HOLE.      :TYPE FLUID IN HOLE
TYPE_LOG.                :TYPE LOG
WELL_ID.                 :WELL ID
WGT1.                    :WGT1
WGT2.                    :WGT2
WGT3.                    :WGT3
WGT4.                    :WGT4
WGT5.                    :WGT5
WGT6.                    :WGT6
WITNESSED_BY.            :WITNESSED BY
#------------------------------------------------------------
~OTHER
#------------------------------------------------------------
~A
# ...
   144.738
     5.12500    0.580012     60.4010     72.2017    0.573285
    0.572291    0.388809     2.49452     458.594
   144.788
     5.12500    0.600000     61.3996     74.3996    0.589140
    0.589594    0.467306     2.36305     367.962
   144.838
     5.12500    0.600000     61.6005     74.6005    0.588796
    0.591489    0.458886     2.53526     367.962
   144.887
     5.12500    0.569988     59.5990     70.7983    0.561237
    0.561647    0.423376     2.71767     458.594
   144.938
     5.12500    0.580012     60.4010     72.2017    0.572690
    0.573246    0.406553     2.36316     367.962
   144.988
     5.14001    0.600000     61.3998     74.3998    0.591566
    0.590946    0.368227     2.53509     485.149
   145.038
     5.15000    0.569979     57.9979     70.9979    0.556926
    0.563433    0.365424     2.28425     345.220
   145.088
     5.15000    0.580027     60.2038     72.0027    0.566641
    0.570647    0.368227     2.61294     485.149
   145.137
     5.18001    0.600000     63.0000     74.6002    0.592468
    0.590985    0.364489     2.34524     458.594
   145.188
     5.20000    0.569988     59.3985     71.3985    0.563574
    0.565255    0.364489     2.14000     367.962
   145.238
     5.20000    0.580012     60.0012     72.0012    0.570367
    0.570094    0.365424     2.53509     367.962
   145.288
     5.15497    0.569979     58.3974     70.9979    0.557173
    0.561716    0.368227     2.71767     485.149
   145.338
     5.12500    0.580027     59.0027     72.6033    0.568972
    0.574159    0.374780     2.28418     345.220
   145.387
     5.10999    0.569988     57.9988     70.7983    0.562300
    0.560025    0.415897     2.61269     367.962
   145.438
     5.10000    0.580012     59.0012     72.2017    0.570821
    0.571670    0.428979     2.77854     485.149
   145.488
     5.11501    0.600000     61.0000     75.0000    0.588321
    0.594402    0.468229     2.28438     367.962
   145.538
     5.12500    0.600000     61.0000     74.3996    0.590294
    0.589167    0.426188     2.49465     458.594
   145.588
     5.10999    0.569973     57.9973     70.9973    0.562162
    0.561322    0.458886     2.36300     367.962
   145.637
     5.10000    0.580012     59.0012     72.6015    0.571638
    0.574722    0.433652     2.53509     367.962
   145.688
     5.10000    0.600000     61.6002     74.3998    0.589484
    0.589441    0.467306     2.71767     458.594
   145.738
     5.13001    0.600000     62.0000     74.6002    0.586130
    0.591585    0.458886     2.36316     367.962
   145.788
     5.15000    0.569979     59.5983     70.7970    0.561369
    0.561663    0.423373     2.53520     458.594
   145.838
     5.15000    0.580027     60.4022     72.2038    0.570792
    0.572271    0.417768     2.36300     367.962
   145.887
     5.15000    0.600000     62.6002     75.0000    0.591467
    0.594174    0.433652     2.53509     367.962
   145.938
     5.15000    0.569988     59.3985     70.7983    0.559021
    0.560574    0.446749     2.71767     458.594
   145.988
     5.19502    0.580012     60.6015     72.2017    0.568004
    0.573313    0.374780     2.36316     367.962
   146.038
     5.22500    0.600000     63.0000     74.3996    0.592393
    0.591345    0.395315     2.53520     485.149
   146.088
     5.17996    0.569973     59.3967     70.9973    0.560512
    0.563277    0.333662     2.28418     345.220
   146.137
     5.15000    0.580012     60.0012     72.0012    0.568135
    0.571330    0.415897     2.61269     367.962
   146.188
     5.11999    0.569988     58.9988     70.3985    0.559023
    0.558565    0.426176     2.77854     485.149
   146.238
     5.10000    0.580012     60.6015     72.2017    0.575105
    0.572961    0.458886     2.28438     367.962
   146.288
     5.10000    0.600000     61.7991     75.0000    0.589389
    0.595045    0.443956     2.49465     458.594
   146.338
     5.10000    0.600000     61.6005     74.3995    0.592190
    0.590096    0.549588     2.36300     367.962
   146.387
     5.10000    0.569988     57.7983     70.9988    0.558430
    0.562740    0.645851     2.53509     367.962
   146.438
     5.11501    0.580012     59.2017     72.6015    0.567452
    0.574937    0.533671     2.71767     345.220
   146.488
     5.14001    0.600000     62.0000     74.3998    0.589511
    0.589198    0.522457     2.83585     485.149
   146.538
     5.15000    0.600000     62.6004     74.6004    0.591336
    0.591371    0.564540     2.34507     367.962
   146.588
     5.13499    0.569973     59.3967     70.7962    0.564186
    0.561065    0.642067     2.49472     458.594
   146.637
     5.12500    0.580012     61.2017     72.2017    0.571192
    0.572404    0.500032     2.36316     367.962
   146.688
     5.14001    0.600000     65.8007     75.0000    0.591057
    0.594527    0.413097     2.53509     458.594
   146.738
     5.15000    0.569988     62.1980     70.7983    0.559321
    0.560446    0.364489     2.36316     485.149
   146.788
     5.18002    0.580021     62.0021     72.2030    0.568595
    0.571698    0.387878     2.10177     367.962
   146.838
     5.20000    0.569973     60.9973     70.7962    0.561791
    0.560452    0.468229     2.49472     345.220
   146.887
     5.20000    0.580012     63.8020     72.2017    0.572536
    0.571728    0.405622     2.83585     367.962
   146.938
     5.13998    0.600000     65.1993     75.0000    0.592827
    0.594324    0.364489     2.77854     367.962
   146.988
     5.10000    0.569988     59.7983     70.7983    0.560791
    0.560765    0.387878     2.71767     485.149
   147.038
     5.10000    0.580021     59.4017     72.2030    0.570696
    0.572470    0.468229     2.28425     345.220
   147.088
     5.11501    0.600000     61.0000     74.3995    0.585345
    0.590681    0.405606     2.61294     367.962
   147.137
     5.12500    0.569988     59.1993     70.9988    0.559742
    0.563070    0.376632     2.77854     367.962
   147.188
     5.10999    0.580012     60.4010     72.6015    0.570325
    0.575185    0.423376     2.71767     458.594
   147.238
     5.10000    0.600000     61.3998     74.3998    0.588737
    0.589354    0.415897     2.36316     367.962
   147.288
     5.11501    0.600000     61.0000     74.6004    0.590916
    0.591430    0.406542     2.53520     367.962
   147.338
     5.12500    0.569973     59.1984     70.7962    0.564579
    0.560178    0.378518     2.71767     458.594
   147.387
     5.14001    0.580012     60.4010     72.2017    0.569681
    0.570260    0.406556     2.36316     367.962
   147.438
     5.15000    0.600000     61.3998     75.0000    0.585785
    0.593493    0.378506     2.53509     458.594
   147.488
     5.15000    0.569988     58.5990     71.3985    0.562321
    0.565518    0.426188     2.36316     367.962
   147.538
     5.16501    0.580021     60.0021     72.0021    0.571038
    0.571214    0.470113     2.53520     345.220
   147.588
     5.17500    0.600000     62.0000     74.6005    0.590616
    0.592537    0.457938     2.83590     485.149
   147.637
     5.19001    0.569988     58.3985     70.7983    0.557812
    0.561621    0.364489     2.34524     367.962
   147.688
     5.16999    0.580012     59.6015     72.2017    0.571373
    0.572112    0.364489     2.49452     485.149
   147.738
     5.15000    0.569988     58.3985     70.7983    0.559397
    0.561153    0.399104     2.28438     345.220
   147.788
     5.13499    0.580021     59.6026     71.6026    0.572576
    0.569077    0.513084     2.61286     367.962
   147.838
     5.12500    0.600000     62.6005     74.6005    0.592016
    0.591373    0.405606     2.77848     485.149
   147.887
     5.12500    0.569988     59.9988     71.3985    0.558961
    0.563751    0.376632     2.28438     367.962
   147.938
     5.12500    0.580012     59.8007     72.6015    0.571077
    0.574239    0.433654     2.49452     458.594
   147.988
     5.12500    0.600000     61.0000     75.0000    0.592379
    0.594172    0.467306     2.36316     367.962
   148.038
     5.12500    0.600000     61.0000     74.3996    0.586787
    0.589279    0.458886     2.53520     367.962
