#------------------------------------------------------------
~VERSION INFORMATION
VERS.               2.0  :CWLS LOG ASCII STANDARD - VERSION 2.0
WRAP.               YES  :MULTIPLE LINES PER DEPTH STEP
#------------------------------------------------------------
~WELL INFORMATION
STRT.M         0.554600  :FIRST INDEX VALUE
STOP.M          359.955  :LAST INDEX VALUE
STEP.M          0.00000  :STEP
NULL.            -99999  :NULL VALUE
COMP.                    :COMPANY
WELL.                    :WELL
FLD.                     :FLD
LOC.                     :LOCATION
SRVC.                    :
CTRY.                    :COUNTRY
STAT.                    :STATE
CNTY.                    :
DATE.                    :DATE
API.                     :API
#------------------------------------------------------------
~CURVE INFORMATION
DEPT.M                   :DEPTH
A1.                      :A1
CHI2.                    :Chi2
K.%                      :K
U.PPM                    :U
TH.PPM                   :Th
K-ERROR.%                :K-Error
U-ERROR.PPM              :U-Error
TH-ERROR.PPM             :Th-Error
TIME.SEC                 :Time
COUNTS.                  :Counts
STACK_TIME.SEC           :Stack Time
STACK_COUNTS.            :Stack counts
EHT.V                    :EHT
TCPU.'C                  :TCPU
GR.API                   :GR
SPEED.M/MIN              :Speed
TOOLPOWERVOLTAGE.V       :ToolPowerVoltage
TOOLPOWERCURRENT.MA      :ToolPowerCurrent
#------------------------------------------------------------
~PARAMETER INFORMATION
#------------------------------------------------------------
~OTHER
#------------------------------------------------------------
~A
  0.554600
    0.568000    0.385350    0.000025     3.39446    0.428810
    0.000056     2.50038     6.19607     3.00700     134.002
     89.5199     3735.99     1197.89     12.7500     29.9251
    -99999.0    -99999.0    -99999.0
  0.604600
    0.568000    0.501464    0.302620     1.08031     6.30926
    0.687753     2.59961     6.49135     2.97799     161.993
     87.9575     3640.95     1197.73     12.7500     36.5281
    -99999.0    -99999.0    -99999.0
  0.654600
    0.568000    0.453796    0.138429     1.62514     4.84202
    0.691651     2.60658     6.48672     2.95600     139.001
     86.4481     3500.01     1197.79     12.7290     31.5769
    -99999.0    -99999.0    -99999.0
  0.704600
    0.568000    0.359896    0.416292     1.86208     4.19712
    0.685955     2.60280     6.47224     2.98900     158.002
     84.9637     3388.97     1197.79     12.7081     35.4970
    -99999.0    -99999.0    -99999.0
  0.754600
    0.568000    0.540431    0.500145    0.474836     7.52092
    0.686709     2.59549     6.49922     2.98301     165.988
     83.4313     3255.94     1197.73     12.7081     37.3663
    -99999.0    -99999.0    -99999.0
  0.804600
    0.568000    0.584052    0.464154    0.665674     4.72851
    0.682393     2.56820     6.39039     2.99438     140.022
     81.9269     3121.99     1197.79     12.7081     31.4006
    -99999.0    -99999.0    -99999.0
  0.854600
    0.568000    0.406395    0.375321    0.927120     7.04886
    0.275727     1.20498     2.81638     7.72922     414.942
     80.3990     3004.87     1197.79     12.7081     36.0496
    -99999.0    -99999.0    -99999.0
  0.904600
    0.568000    0.437730    0.325122    0.000038     6.75369
    0.373777    0.000049     2.07011     5.33910     237.007
     74.1442     2607.02     1197.95     12.6662     29.8091
    -99999.0    -99999.0    -99999.0
  0.954600
    0.568000    0.481882    0.676335  0.000389086     5.84471
    0.647972  0.000670882     3.36935     3.05985     146.989
     70.2767     2381.97     1197.79     12.6662     32.2580
     1.00000     124.000     23.7829
   1.00460
    0.568000    0.369580   0.0492588     1.91928     3.68731
    0.879556     3.30981     8.23222     2.32289     92.0022
     68.6806     2249.97     1197.79     12.6453     26.5968
     1.00001     123.001     19.4604
   1.05460
    0.568000    0.369996    0.321873     1.50380     4.10162
    0.982798     3.69790     9.19805     2.07895     96.9982
     67.8069     2175.99     1197.95     12.6453     31.3312
     1.02500     125.000     21.6221
   1.10460
    0.568000    0.438427   0.0698281  0.000524426     11.4789
     1.35427  0.00171275     7.01989     1.46400     74.9958
     67.1770     2096.98     1197.95     12.6453     34.3996
     1.00000     126.000     28.1078
   1.15460
    0.568000    0.459502    0.232732     1.61788     4.82335
     1.40421     5.28392     13.1425     1.45500     62.0005
     67.1760     2036.00     1197.79     12.6453     28.6147
     1.00000     126.000     27.0295
   1.20460
    0.568000    0.300409    0.394780     0.00000     7.47388
     1.35798     0.00000     7.03720     1.46000     77.9972
     67.1740     2000.99     1197.95     12.6453     35.8742
    0.999995     126.000     31.3514
   1.25460
    0.568000    0.588427    0.483883  0.000686238     6.21925
     1.35328  0.00127024     7.00970     1.46500     63.9960
     67.1520     1940.98     1197.95     12.6452     29.3341
    0.974642     125.999     31.3489
   1.30460
    0.568000    0.734734    0.446590     1.53144  0.000479988
     1.36056     2.83473  0.000570174     1.45700     55.0007
     67.1270     1892.00     1197.79     12.6243     25.3493
    0.175065     124.000     25.9456
   1.35460
    0.568000    0.392944    0.160824     0.00000     5.91988
     1.35698     0.00000     7.03203     1.46100     64.0029
     67.0870     1850.98     1197.79     12.6243     29.4174
    0.975097     125.000     21.6220
   1.40460
    0.568000    0.538331    0.752593     0.00000     6.24175
     1.34505     0.00000     6.97023     1.47400     72.9996
     67.0440     1801.00     1197.79     12.6243     33.2567
     1.27503     125.000     22.7021
   1.45460
    0.568000    0.498886    0.263617    0.771397     2.10136
     1.39840     5.26226     13.0884     1.46100     53.0026
     67.0270     1745.99     1197.95     12.6243     24.3614
     1.32515     125.000     21.6218
   1.50460
    0.568000    0.330741    0.287442     1.44803     3.89478
     1.39180     5.23741     13.0266     1.46800     66.0031
     67.0050     1706.98     1197.79     12.6243     30.1923
     2.07499     125.000     22.7032
   1.55460
    0.568000    0.645293    0.905513     1.49003     2.29549
     1.39647     5.25512     13.0703     1.46300     72.9977
     66.9810     1655.00     1197.95     12.6243     33.5059
     2.05000     125.000     23.7834
   1.60460
    0.568000    0.577100     0.00000     2.13114  0.00109091
     0.00000     1.47318  0.00118610     1.45200     45.0033
     66.9690     1604.99     1197.79     12.6243     20.8129
     2.05001     124.000     19.4595
   1.65460
    0.568000    0.425052     0.00000    0.000086     3.34094
     0.00000    0.000060     3.63247     1.46500     54.9996
     66.9650     1577.00     1197.79     12.6034     25.2103
     2.07499     123.001     19.4595
   1.70460
    0.568000    0.337407   0.0149450     1.35899     6.81050
     1.39842     5.26234     13.0886     1.46100     56.9986
     66.9440     1537.99     1197.95     12.6034     26.1981
     2.05000     124.000     19.4595
   1.75460
    0.568000    0.676007    0.446495     1.31343    0.669939
     1.40318     5.27921     13.1273     1.45599     49.9991
     66.9260     1499.99     1197.95     12.6034     23.0600
     2.04999     124.000     19.4599
   1.80460
    0.568000    0.363302    0.489262     1.23056  0.000370342
     1.38042     2.87612  0.000576870     1.43600     48.0006
     66.8990     1469.00     1197.79     12.6034     22.4465
     2.02500     124.000     20.5407
   1.85460
    0.568000    0.452865    0.162084    0.000041     4.56632
     1.37293  0.00172657     7.11661     1.44400     55.0046
     66.8840     1436.99     1197.79     12.6034     25.5792
     2.02502     125.000     22.7052
   1.90460
    0.568000    0.664905     1.20310    0.124388    0.964892
     1.40521     5.28768     13.1519     1.45400     68.9994
     66.8690     1394.00     1197.95     12.6034     31.8667
     2.07499     125.928     30.2530
   1.95460
    0.568000    0.258896    0.000097  0.000150140     10.9212
  0.000275411  0.000573867     3.70275     1.43700     61.9980
     66.8780     1338.99     1197.95     12.6034     28.9718
     2.05000     0.00000     0.00000
   2.00460
    0.568000    0.735736    0.476894    0.740688  0.00228834
     1.35807     2.83202  0.00559430     1.45901     52.0004
     66.8820     1287.98     1197.95     12.6034     23.9334
     2.05001   0.0555598   0.0125942
   2.05460
    0.568000    0.427721    0.000051    0.756383     5.10678
  0.000108970     5.02010     12.4845     1.48600     53.0001
     66.8580     1251.00     1197.95     12.6034     23.9505
     2.07500     124.000     28.1076
   2.10460
    0.568000    0.521294    0.633864     1.07091    0.000027
     1.34351     2.80109  0.00410500     1.47500     54.0006
     66.7970     1221.99     1197.95     12.5824     24.5847
     2.02501     123.000     21.6209
   2.15460
    0.568000    0.295281     0.00000     3.99357   0.0838191
     0.00000     5.09231     12.6647     1.46500     56.0000
     66.7480     1185.00     1197.95     12.6034     25.6689
     2.05003     123.001     19.4595
   2.20460
    0.568000    0.411219   0.0335054     1.40856     1.18990
     1.39643     5.25483     13.0699     1.46300     40.0029
     66.7200     1149.00     1197.79     12.5824     18.3613
     2.09999     124.000     19.4606
   2.25460
    0.568000    0.648469    0.266540    0.484607     2.16137
     1.39267     5.23841     13.0322     1.46700     53.9973
     66.6890     1124.99     1197.95     12.5824     24.7172
     2.07500     126.000     24.8653
