#------------------------------------------------------------
~VERSION INFORMATION
VERS.               2.0  :CWLS LOG ASCII STANDARD - VERSION 2.0
WRAP.               YES  :MULTIPLE LINES PER DEPTH STEP
#------------------------------------------------------------
~WELL INFORMATION
STRT.M         0.554600  :FIRST INDEX VALUE
STOP.M          359.955  :LAST INDEX VALUE
STEP.M          0.00000  :STEP
NULL.            -99999  :NULL VALUE
COMP.                    :COMPANY
WELL.                    :WELL
FLD.                     :FLD
LOC.                     :LOCATION
SRVC.                    :
CTRY.                    :COUNTRY
STAT.                    :STATE
CNTY.                    :
DATE.                    :DATE
API.                     :API
#------------------------------------------------------------
~CURVE INFORMATION
DEPT.M                   :DEPTH
A1.                      :A1
CHI2.                    :Chi2
K.%                      :K
U.PPM                    :U
TH.PPM                   :Th
K-ERROR.%                :K-Error
U-ERROR.PPM              :U-Error
TH-ERROR.PPM             :Th-Error
TIME.SEC                 :Time
COUNTS.                  :Counts
STACK_TIME.SEC           :Stack Time
STACK_COUNTS.            :Stack counts
EHT.V                    :EHT
TCPU.'C                  :TCPU
GR.API                   :GR
SPEED.M/MIN              :Speed
TOOLPOWERVOLTAGE.V       :ToolPowerVoltage
TOOLPOWERCURRENT.MA      :ToolPowerCurrent
#------------------------------------------------------------
~PARAMETER INFORMATION
#------------------------------------------------------------
~OTHER
#------------------------------------------------------------
~A
# ...
   214.055
    0.569000    0.357948   0.0556240     0.00000     0.00000
    0.719526     0.00000     0.00000     1.42700     2.00000
     65.3920     70.0000     1198.06     12.2683    0.941158
     2.15000     123.000     19.4595
   214.105
    0.569000    0.196686   0.0179479     0.00000     1.03988
     1.39001     0.00000     7.20320     1.42600     5.00000
     65.3930     69.0000     1197.89     12.2683     2.35454
     2.10000     124.000     19.4595
   214.155
    0.569000     0.00000     0.00000     0.00000     0.00000
     0.00000     1.47751     0.00000     1.44800     2.00000
     65.3990     66.0000     1198.06     12.2683    0.927508
     2.12500     125.000     25.9459
   214.205
    0.569000    0.396458     0.00000    0.722389     0.00000
     0.00000     1.50455     0.00000     1.42200     7.00000
     65.3710     65.0000     1197.89     12.2683     3.30563
     2.15000     124.000     25.9459
   214.255
    0.569000    0.271540     0.00000    0.390907     0.00000
     0.00000     1.51734     0.00000     1.41000     3.00000
     65.3660     61.0000     1197.89     12.2683     1.42876
     2.15000     123.000     23.7838
   214.305
    0.569000     0.00000     0.00000     0.00000     0.00000
     0.00000     1.50876     0.00000     1.41800     0.00000
     65.3790     58.0000     1197.89     12.2683     0.00000
     2.10000     123.000     23.7838
   214.355
    0.569000     0.00000     0.00000     0.00000     0.00000
     0.00000     1.49926     0.00000     1.42700     3.00000
     65.3790     60.0000     1198.06     12.2683     1.41174
     2.12500     125.000     25.9459
   214.405
    0.569000    0.287852     0.00000    0.383668     0.00000
     0.00000     1.50454     0.00000     1.42200     4.00000
     65.3720     59.0000     1197.89     12.2683     1.88893
     2.12500     125.000     25.9459
   214.455
    0.569000    0.137718     0.00000  0.00484315     1.47007
     0.00000     5.24535     13.0453     1.42200     3.00000
     65.3740     56.0000     1197.89     12.2683     1.41670
     2.10000     123.000     25.9459
   214.505
    0.569000    0.761282   0.0258358     0.00000     0.00000
    0.720538     0.00000     0.00000     1.42500     3.00000
     65.3760     54.0000     1198.06     12.2683     1.41372
     2.12500     123.000     21.6216
   214.555
    0.569000     0.00000     0.00000     0.00000     0.00000
     0.00000     0.00000     3.76294     1.41400     1.00000
     65.3750     52.0000     1197.89     12.2683    0.474905
     2.10000     123.000     18.3784
   214.605
    0.569000     0.00000     0.00000     0.00000     0.00000
     0.00000     0.00000     3.77898     1.40800     1.00000
     65.3720     52.0000     1198.06     12.2683    0.476929
     2.10000     125.000     23.7838
   214.655
    0.569000     0.00000     0.00000     0.00000     0.00000
     0.00000     0.00000     3.76030     1.41500     2.00000
     65.3860     53.0000     1198.06     12.2683    0.949139
     2.12500     125.000     23.7838
   214.705
    0.569000     0.00000     0.00000     0.00000     0.00000
     0.00000     0.00000     3.75764     1.41600     2.00000
     65.3740     53.0000     1197.89     12.2683    0.948469
     2.10000     124.000     27.0270
   214.755
    0.569000     0.00000     0.00000     0.00000     0.00000
     0.00000     0.00000     3.71563     1.43200     0.00000
     65.3680     52.0000     1197.89     12.2683     0.00000
     2.10000     124.000     27.0270
   214.805
    0.569000     0.00000     0.00000     0.00000     0.00000
     0.00000     0.00000     3.72866     1.42700     1.00000
     65.3630     53.0000     1197.89     12.2683    0.470579
     2.10000     123.000     24.8649
   214.855
    0.569000   0.0627754     0.00000     0.00000    0.119994
     0.00000     0.00000     3.72085     1.43000     2.00000
     65.3650     54.0000     1197.89     12.2683    0.939183
     2.12500     124.000     21.6216
   214.905
    0.569000     0.00000     0.00000     0.00000     0.00000
    0.716009     0.00000     0.00000     1.43400     0.00000
     65.3660     55.0000     1198.06     12.2683     0.00000
     2.10000     125.000     24.8649
   214.955
    0.569000     0.00000     0.00000     0.00000     0.00000
    0.717512     0.00000     0.00000     1.43100     1.00000
     65.3630     56.0000     1197.89     12.2683    0.469263
     2.12500     124.000     28.1081
   215.005
    0.569000    0.384485   0.0524317     0.00000     0.00000
    0.720533     0.00000     0.00000     1.42500     1.00000
     65.3680     56.0000     1198.06     12.2683    0.471239
     2.12500     0.00000     0.00000
   215.055
    0.569000     0.00000     0.00000     0.00000     0.00000
    0.724090     0.00000     0.00000     1.41800     1.00000
     65.3630     55.0000     1198.06     12.2683    0.473566
     2.12500     124.000     19.4595
   215.105
    0.569000     0.00000     0.00000     0.00000     0.00000
    0.725626     0.00000     0.00000     1.41500     1.00000
     65.3760     56.0000     1198.06     12.2683    0.474570
     2.12500     124.000     19.4595
   215.155
    0.569000     0.00000     0.00000     0.00000     0.00000
    0.728718     0.00000     0.00000     1.40900     2.00000
     65.3830     55.0000     1197.89     12.2683    0.953181
     2.07500     0.00000     0.00000
   215.205
    0.569000     0.00000     0.00000     0.00000     0.00000
    0.721549     0.00000     0.00000     1.42300     2.00000
     65.3960     56.0000     1197.89     12.2683    0.943803
     2.10000     0.00000     0.00000
   215.255
    0.569000     0.00000     0.00000     0.00000     0.00000
    0.724604     0.00000     0.00000     1.41700     2.00000
     65.4000     55.0000     1197.89     12.2683    0.947800
     2.10000     123.000     25.9459
   215.305
    0.569000    0.310136   0.0631591     0.00000     0.00000
    0.727685     0.00000     0.00000     1.41100     2.00000
     65.4100     57.0000     1197.89     12.2683    0.951830
     2.10000     123.000     24.8649
   215.355
    0.569000    0.139413     0.00000     0.00000    0.752266
     0.00000     0.00000     3.79516     1.40200     2.00000
     65.4220     57.0000     1197.89     12.2683    0.957940
     2.12500     124.000     20.5405
   215.405
    0.569000     0.00000     0.00000     0.00000     0.00000
     0.00000     1.53584     0.00000     1.39300     0.00000
     65.4500     57.0000     1198.06     12.2683     0.00000
     2.07500     124.000     20.5405
   215.455
    0.569000     0.00000     0.00000     0.00000     0.00000
     0.00000     1.51410     0.00000     1.41300     0.00000
     65.4700     61.0000     1198.06     12.2683     0.00000
     2.12500     125.000     24.8649
   215.505
    0.569000     0.00000     0.00000     0.00000     0.00000
     0.00000     1.50558     0.00000     1.42100     1.00000
     65.4560     63.0000     1198.06     12.2683    0.472566
     2.12500     125.000     27.0270
   215.555
    0.569000    0.124230     0.00000    0.333060     0.00000
     0.00000     1.49716     0.00000     1.42900     2.00000
     65.4450     63.0000     1198.06     12.2683    0.939840
     2.12500     124.000     29.1892
   215.605
    0.569000     0.00000     0.00000     0.00000     0.00000
    0.722562     0.00000     0.00000     1.42100     1.00000
     65.4460     66.0000     1197.89     12.2683    0.472566
     2.10000     123.000     21.6216
   215.655
    0.569000     0.00000     0.00000     0.00000     0.00000
    0.720026     0.00000     0.00000     1.42600     0.00000
     65.4530     66.0000     1197.89     12.2683     0.00000
     2.12500     125.000     24.8649
   215.705
    0.569000     0.00000     0.00000     0.00000     0.00000
    0.719531     0.00000     0.00000     1.42700     4.00000
     65.4620     67.0000     1197.89     12.2893     1.88232
     2.12500     126.000     30.2703
   215.755
    0.569000    0.736367   0.0270620     0.00000     0.00000
    0.719526     0.00000     0.00000     1.42700     2.00000
     65.4550     65.0000     1198.06     12.2683    0.941158
     2.15000     125.000     30.2703
