#------------------------------------------------------------
~VERSION INFORMATION
VERS.               2.0  :CWLS LOG ASCII STANDARD - VERSION 2.0
WRAP.               YES  :MULTIPLE LINES PER DEPTH STEP
#------------------------------------------------------------
~WELL INFORMATION
STRT.M          10.7196  :FIRST INDEX VALUE
STOP.M          246.770  :LAST INDEX VALUE
STEP.M          0.00000  :STEP
NULL.            -99999  :NULL VALUE
COMP.                    :COMPANY
WELL.                    :WELL
FLD.                     :FLD
LOC.                     :LOCATION
SRVC.                    :
CTRY.                    :COUNTRY
STAT.                    :STATE
CNTY.                    :
DATE.                    :DATE
API.                     :API
#------------------------------------------------------------
~CURVE INFORMATION
DEPT.M                   :DEPTH
SPEED.MT/MIN             :Speed
TIME.SEC                 :Time
POSCOUNT.COUNT           :Poscount
NEGCOUNT.COUNT           :Negcount
POSDT.SEC                :Posdt
NEGDT.SEC                :Negdt
MAG_SUSC.10E-3_SI_UNITS   :Mag Susc
INDUCTION.MS/M           :Induction
IND_RES.OHM-M            :Ind Res
#------------------------------------------------------------
~PARAMETER INFORMATION
BIT_FROM1.               :BIT FROM1
BIT_FROM2.               :BIT FROM2
BIT_FROM3.               :BIT FROM3
BIT_FROM4.               :BIT FROM4
BIT_FROM5.               :BIT FROM5
BIT_FROM6.               :BIT FROM6
BIT_TO1.                 :BIT TO1
BIT_TO2.                 :BIT TO2
BIT_TO3.                 :BIT TO3
BIT_TO4.                 :BIT TO4
BIT_TO5.                 :BIT TO5
BIT_TO6.                 :BIT TO6
BIT1.                    :BIT1
BIT2.                    :BIT2
BIT3.                    :BIT3
BIT4.                    :BIT4
BIT5.                    :BIT5
BIT6.                    :BIT6
BTM_LOGGED_INTERVAL.     :BTM LOGGED INTERVAL
CASING_FROM1.            :CASING FROM1
CASING_FROM2.            :CASING FROM2
CASING_FROM3.            :CASING FROM3
CASING_FROM4.            :CASING FROM4
CASING_FROM5.            :CASING FROM5
CASING_FROM6.            :CASING FROM6
CASING_SIZE1.            :CASING SIZE1
CASING_SIZE2.            :CASING SIZE2
CASING_SIZE3.            :CASING SIZE3
CASING_SIZE4.            :CASING SIZE4
CASING_SIZE5.            :CASING SIZE5
CASING_SIZE6.            :CASING SIZE6
CASING_TO1.              :CASING TO1
CASING_TO2.              :CASING TO2
CASING_TO3.              :CASING TO3
CASING_TO4.              :CASING TO4
CASING_TO5.              :CASING TO5
CASING_TO6.              :CASING TO6
CO.                      :CO
CTY.                     :CTY
D_F_.                    :D.F.
DENSITY.                 :DENSITY
DEPTH-DRILLER.           :DEPTH-DRILLER
DEPTH-LOGGER.            :DEPTH-LOGGER
DRILLING_MEAS__FROM.     :DRILLING MEAS. FROM
ELEVATION.               :ELEVATION
FIELD.                   :FIELD
FILING_No.               :FILING No
G_L_.                    :G.L.
K_B_.                    :K.B.
LEVEL.                   :LEVEL
LOG_MEAS__FROM.          :LOG MEAS. FROM
MAX__REC__TEMP_.         :MAX. REC. TEMP.
OPERATING_RIG_TIME.      :OPERATING RIG TIME
OTHER_SERVICES.          :OTHER SERVICES
PERMANENT_DATUM.         :PERMANENT DATUM
RECORDED_BY.             :RECORDED BY
RGE.                     :RGE
RUN_No.                  :RUN No
RUN1.                    :RUN1
RUN2.                    :RUN2
RUN3.                    :RUN3
RUN4.                    :RUN4
RUN5.                    :RUN5
RUN6.                    :RUN6
SALINITY.                :SALINITY
SEC.                     :SEC
STE.                     :STE
TITLE.                   :TITLE
TOP_LOGGED_INTERVAL.     :TOP LOGGED INTERVAL
TWP.                     :TWP
TYPE_FLUID_IN_HOLE.      :TYPE FLUID IN HOLE
TYPE_LOG.                :TYPE LOG
WELL_ID.                 :WELL ID
WGT1.                    :WGT1
WGT2.                    :WGT2
WGT3.                    :WGT3
WGT4.                    :WGT4
WGT5.                    :WGT5
WGT6.                    :WGT6
WITNESSED_BY.            :WITNESSED BY
#------------------------------------------------------------
~OTHER
#------------------------------------------------------------
~A
# ...
   117.920
     5.88506    0.530027     53.4022     63.0027    0.517129
    0.520070    0.384890     17.3907     57.5019
   117.970
     5.92500    0.519973     52.5978     61.9973    0.510915
    0.511087    0.427493     17.3907     57.5019
   118.020
     5.90999    0.500000     50.3996     60.0000    0.490363
    0.493301    0.434213     17.3907     57.5019
   118.070
     5.90000    0.500000     50.6004     60.0000    0.489205
    0.493057    0.415117     17.3907     60.1873
   118.120
     5.79493    0.500000     51.0000     60.0000    0.488910
    0.493109    0.387139     16.8782     57.5019
   118.170
     5.72500    0.530027     54.0027     63.0027    0.520151
    0.518673    0.434212     17.1273     57.5019
   118.220
     5.74001    0.519973     52.9973     61.9973    0.509877
    0.510718    0.415125     17.3907     57.5019
   118.270
     5.75000    0.530020     54.6024     63.6024    0.520421
    0.523655    0.384885     17.3907     57.5019
   118.320
     5.75000    0.519980     53.9980     62.3976    0.512253
    0.512399    0.427495     17.3907     60.1873
   118.370
     5.75000    0.530021     55.0021     63.6026    0.521021
    0.522342    0.424093     16.8782     57.5019
   118.420
     5.76501    0.519973     53.3967     61.7962    0.508023
    0.508315    0.384890     17.1273     57.5019
   118.470
     5.77500    0.500000     51.6005     59.6005    0.491838
    0.490153    0.415123     17.3907     57.5019
   118.520
     5.74498    0.530020     55.0020     63.6024    0.523845
    0.523211    0.399507     17.3907     60.4697
   118.570
     5.72500    0.519980     53.3976     62.3976    0.506511
    0.512752    0.461047     16.8269     57.5019
   118.620
     5.75502    0.530021     54.6026     63.6026    0.516903
    0.522401    0.313080     17.1010     57.5019
   118.670
     5.77500    0.519973     53.9973     62.3967    0.510731
    0.512820    0.335568     17.3907     57.5019
   118.720
     5.77500    0.500000     51.3995     60.0000    0.489915
    0.493216    0.439864     17.3907     60.1873
   118.770
     5.83504    0.530020     54.6024     63.0020    0.524257
    0.518160    0.506022     16.8782     57.5019
   118.820
     5.87500    0.519976     53.3971     61.9976    0.508449
    0.509649    0.504802     17.1274     57.5019
   118.870
     5.79995    0.500000     52.2008     60.0000    0.490277
    0.492991    0.399492     17.3907     57.5019
   118.920
     5.75000    0.530020     54.2008     63.6024    0.521078
    0.522534    0.506022     17.3907     60.4697
   118.970
     5.73499    0.519976     51.9976     62.3971    0.509345
    0.512284    0.517167     16.8269     57.5019
   119.020
     5.72500    0.530020     54.2028     63.6024    0.521072
    0.522819    0.434212     17.1010     57.5019
   119.070
     5.75502    0.519976     54.5980     62.3971    0.509553
    0.512744    0.439861     17.3907     57.5019
   119.120
     5.77500    0.530020     56.6024     63.0020    0.521213
    0.517890    0.483543     17.3907     60.4697
   119.170
     5.72997    0.519980     54.1968     61.9980    0.508832
    0.510113    0.427493     16.8270     57.5019
   119.220
     5.70000    0.500000     52.2010     60.0000    0.489656
    0.493467    0.424091     17.1011     57.5019
   119.270
     5.74503    0.530020     56.6024     63.6024    0.524280
    0.523211    0.384890     17.3907     57.5019
   119.320
     5.77500    0.519976     54.7966     62.3971    0.508551
    0.512994    0.427493     17.3907     57.5019
   119.370
     5.74498    0.530020     55.0020     63.0020    0.517622
    0.518371    0.436461     17.3907     60.1873
   119.420
     5.72500    0.519980     54.5984     61.9980    0.514604
    0.510275    0.434212     16.8782     57.5019
   119.470
     5.78505    0.530024     55.4020     63.6029    0.523836
    0.524185    0.415123     17.1274     57.5019
   119.520
     5.82500    0.519980     53.9980     62.3976    0.511314
    0.513812    0.384890     17.3907     57.5019
   119.570
     5.82500    0.500000     51.3995     59.3995    0.487034
    0.488057    0.427493     17.3907     57.5019
   119.620
     5.82500    0.530020     54.6024     63.2028    0.517432
    0.520474    0.424100     17.3907     57.5019
   119.670
     5.82500    0.519980     53.9980     62.3976    0.508772
    0.514016    0.384890     17.3907     60.1873
   119.720
     5.82500    0.500000     52.0000     60.0000    0.493456
    0.493595    0.427493     16.8781     57.5019
   119.770
     5.74995    0.530020     55.0020     63.0020    0.522524
    0.518289    0.434212     17.1273     57.5019
   119.820
     5.70000    0.519976     53.3971     61.9976    0.507056
    0.509662    0.427493     17.3907     57.5019
   119.870
     5.73002    0.530020     54.6024     63.6024    0.518295
    0.523268    0.434213     17.3907     57.5019
   119.920
     5.75000    0.519980     53.9980     62.3976    0.512590
    0.513737    0.427493     17.3907     60.4697
   119.970
     5.75000    0.500000     51.3995     59.3995    0.489461
    0.489909    0.445457     16.8269     57.5019
   120.020
     5.73499    0.530020     54.6024     63.2028    0.519467
    0.521227    0.472331     17.1010     57.5019
   120.070
     5.72500    0.519976     53.9976     62.3971    0.513591
    0.512826    0.445456     17.3907     57.5019
   120.120
     5.70999    0.530020     55.0020     63.6024    0.521465
    0.523490    0.472337     17.3907     57.5019
   120.170
     5.70000    0.519980     53.9980     61.7972    0.510374
    0.509341    0.436461     17.3907     57.5019
   120.220
     5.73002    0.530024     55.0024     63.2034    0.517423
    0.520590    0.448831     17.3907     60.4697
   120.270
     5.75000    0.519980     53.9980     62.3976    0.507472
    0.513316    0.483534     16.8270     57.5019
   120.320
     5.78002    0.530024     55.6029     63.6029    0.522695
    0.523211    0.427493     17.1011     57.5019
   120.370
     5.80000    0.519980     54.3976     62.3976    0.511272
    0.513020    0.434213     17.3907     57.5019
   120.420
     5.83002    0.530020     55.6024     63.0020    0.523093
    0.518216    0.427493     17.3907     57.5019
   120.470
     5.85000    0.519976     54.3971     61.9976    0.510622
    0.509667    0.445457     17.3907     57.5019
   120.520
     5.78996    0.500000     52.0000     60.0000    0.487912
    0.493121    0.472331     17.3907     60.4697
   120.570
     5.75000    0.500000     52.6005     60.0000    0.493379
    0.493408    0.434212     16.8269     57.5019
   120.620
     5.75000    0.530020     55.4016     63.6024    0.520748
    0.523050    0.427492     17.1010     57.5019
   120.670
     5.75000    0.519980     53.9980     62.3976    0.508551
    0.513137    0.434212     17.3907     57.5019
   120.720
     5.70496    0.530024     55.0024     63.0024    0.519426
    0.518315    0.427493     17.3907     60.4697
   120.770
     5.67500    0.519980     53.9980     61.9980    0.508051
    0.509782    0.434212     16.8270     57.5019
   120.820
     5.70502    0.530024     55.6029     63.6029    0.520258
    0.523178    0.415125     17.1011     57.5019
   120.870
     5.72500    0.519980     54.3976     62.3976    0.510534
    0.513064    0.374770     17.3907     57.5019
   120.920
     5.74001    0.530020     55.0020     63.6024    0.521903
    0.523109    0.374770     17.3907     60.1873
   120.970
     5.75000    0.519976     53.9976     61.7966    0.511159
    0.508045    0.396137     16.8781     57.5019
   121.020
     5.73499    0.530020     55.0020     63.2028    0.518459
    0.519805    0.472331     17.1273     57.5019
   121.070
     5.72500    0.519976     53.9976     62.3971    0.509902
    0.512984    0.434212     17.3907     57.5019
   121.120
     5.77003    0.530020     55.0020     63.6024    0.524551
    0.523124    0.415131     17.3907     57.5019
   121.170
     5.83002    0.519980     53.3976     62.3976    0.512849
    0.513054    0.384890     17.3907     57.5019
   121.220
     5.85000    0.500000     51.0000     60.0000    0.489737
    0.492961    0.427493     17.3907     60.1873
