#------------------------------------------------------------
~VERSION INFORMATION
VERS.               2.0  :CWLS LOG ASCII STANDARD - VERSION 2.0
WRAP.               YES  :MULTIPLE LINES PER DEPTH STEP
#------------------------------------------------------------
~WELL INFORMATION
STRT.M          10.7196  :FIRST INDEX VALUE
STOP.M          246.770  :LAST INDEX VALUE
STEP.M          0.00000  :STEP
NULL.            -99999  :NULL VALUE
COMP.                    :COMPANY
WELL.                    :WELL
FLD.                     :FLD
LOC.                     :LOCATION
SRVC.                    :
CTRY.                    :COUNTRY
STAT.                    :STATE
CNTY.                    :
DATE.                    :DATE
API.                     :API
#------------------------------------------------------------
~CURVE INFORMATION
DEPT.M                   :DEPTH
SPEED.MT/MIN             :Speed
TIME.SEC                 :Time
POSCOUNT.COUNT           :Poscount
NEGCOUNT.COUNT           :Negcount
POSDT.SEC                :Posdt
NEGDT.SEC                :Negdt
MAG_SUSC.10E-3_SI_UNITS   :Mag Susc
INDUCTION.MS/M           :Induction
IND_RES.OHM-M            :Ind Res
#------------------------------------------------------------
~PARAMETER INFORMATION
BIT_FROM1.               :BIT FROM1
BIT_FROM2.               :BIT FROM2
BIT_FROM3.               :BIT FROM3
BIT_FROM4.               :BIT FROM4
BIT_FROM5.               :BIT FROM5
BIT_FROM6.               :BIT FROM6
BIT_TO1.                 :BIT TO1
BIT_TO2.                 :BIT TO2
BIT_TO3.                 :BIT TO3
BIT_TO4.                 :BIT TO4
BIT_TO5.                 :BIT TO5
BIT_TO6.                 :BIT TO6
BIT1.                    :BIT1
BIT2.                    :BIT2
BIT3.                    :BIT3
BIT4.                    :BIT4
BIT5.                    :BIT5
BIT6.                    :BIT6
BTM_LOGGED_INTERVAL.     :BTM LOGGED INTERVAL
CASING_FROM1.            :CASING FROM1
CASING_FROM2.            :CASING FROM2
CASING_FROM3.            :CASING FROM3
CASING_FROM4.            :CASING FROM4
CASING_FROM5.            :CASING FROM5
CASING_FROM6.            :CASING FROM6
CASING_SIZE1.            :CASING SIZE1
CASING_SIZE2.            :CASING SIZE2
CASING_SIZE3.            :CASING SIZE3
CASING_SIZE4.            :CASING SIZE4
CASING_SIZE5.            :CASING SIZE5
CASING_SIZE6.            :CASING SIZE6
CASING_TO1.              :CASING TO1
CASING_TO2.              :CASING TO2
CASING_TO3.              :CASING TO3
CASING_TO4.              :CASING TO4
CASING_TO5.              :CASING TO5
CASING_TO6.              :CASING TO6
CO.                      :CO
CTY.                     :CTY
D_F_.                    :D.F.
DENSITY.                 :DENSITY
DEPTH-DRILLER.           :DEPTH-DRILLER
DEPTH-LOGGER.            :DEPTH-LOGGER
DRILLING_MEAS__FROM.     :DRILLING MEAS. FROM
ELEVATION.               :ELEVATION
FIELD.                   :FIELD
FILING_No.               :FILING No
G_L_.                    :G.L.
K_B_.                    :K.B.
LEVEL.                   :LEVEL
LOG_MEAS__FROM.          :LOG MEAS. FROM
MAX__REC__TEMP_.         :MAX. REC. TEMP.
OPERATING_RIG_TIME.      :OPERATING RIG TIME
OTHER_SERVICES.          :OTHER SERVICES
PERMANENT_DATUM.         :PERMANENT DATUM
RECORDED_BY.             :RECORDED BY
RGE.                     :RGE
RUN_No.                  :RUN No
RUN1.                    :RUN1
RUN2.                    :RUN2
RUN3.                    :RUN3
RUN4.                    :RUN4
RUN5.                    :RUN5
RUN6.                    :RUN6
SALINITY.                :SALINITY
SEC.                     :SEC
STE.                     :STE
TITLE.                   :TITLE
TOP_LOGGED_INTERVAL.     :TOP LOGGED INTERVAL
TWP.                     :TWP
TYPE_FLUID_IN_HOLE.      :TYPE FLUID IN HOLE
TYPE_LOG.                :TYPE LOG
WELL_ID.                 :WELL ID
WGT1.                    :WGT1
WGT2.                    :WGT2
WGT3.                    :WGT3
WGT4.                    :WGT4
WGT5.                    :WGT5
WGT6.                    :WGT6
WITNESSED_BY.            :WITNESSED BY
#------------------------------------------------------------
~OTHER
#------------------------------------------------------------
~A
# ...
   27.4696
     5.70000    0.519976     53.5981     62.9976    0.510138
    0.512217    0.373646     17.9033     57.5019
   27.5196
     5.73002    0.530020     55.0020     64.0020    0.522126
    0.520443    0.357923     17.6542     57.5019
   27.5696
     5.75000    0.519984     53.9984     62.9984    0.512682
    0.512139    0.324328     17.3907     57.5019
   27.6196
     5.76501    0.530023     54.4019     64.6028    0.519119
    0.525716    0.370287     17.3907     57.5019
   27.6696
     5.77500    0.519974     53.5980     62.7964    0.511238
    0.511188    0.373646     17.3907     57.5019
   27.7196
     5.71495    0.530024     54.4019     63.6028    0.520835
    0.517951    0.369162     17.3907     57.5019
   27.7696
     5.67500    0.519980     52.9980     62.9980    0.510387
    0.513410    0.357923     17.3907     55.0458
   27.8196
     5.65999    0.530016     54.0016     64.0016    0.521848
    0.522205    0.324328     17.9032     57.5019
   27.8696
     5.65000    0.519977     52.3972     62.3972    0.505693
    0.509483    0.369162     17.6541     57.5019
   27.9196
     5.63499    0.530026     53.6031     64.2036    0.517364
    0.524767    0.370286     17.3907     57.5019
   27.9696
     5.62500    0.519976     52.9976     62.7967    0.512386
    0.513146    0.373646     17.3907     57.5019
   28.0196
     5.62500    0.530020     54.0020     63.6024    0.523349
    0.519628    0.380401     17.3907     57.5019
   28.0696
     5.64001    0.550000     56.0000     66.0000    0.542607
    0.539099    0.415121     17.3907     57.5000
   28.1196
     5.65000    0.519977     52.3972     62.9977    0.505819
    0.513967    0.396138     17.3907     54.8135
   28.1696
     5.63499    0.530026     53.6031     64.0026    0.517912
    0.522302    0.472333     17.9546     57.5019
   28.2196
     5.62500    0.550000     56.0000     66.0000    0.541094
    0.538931    0.422973     17.6804     57.5019
   28.2696
     5.64001    0.519980     52.9980     62.9980    0.509640
    0.513991    0.382649     17.3907     57.5019
   28.3196
     5.65000    0.530016     54.0016     64.0016    0.519876
    0.522788    0.445459     17.3907     57.5019
   28.3696
     5.69503    0.550000     56.6005     66.0000    0.541737
    0.539847    0.470081     17.3907     57.5019
   28.4196
     5.72500    0.519974     53.3969     62.3969    0.509027
    0.509932    0.427493     17.3907     57.5019
   28.4696
     5.72500    0.530024     55.2033     64.2033    0.523153
    0.525147    0.434213     17.3907     57.5019
   28.5196
     5.72500    0.519980     54.3976     62.7972    0.513680
    0.513739    0.436483     17.3907     57.5019
   28.5696
     5.66497    0.530016     54.4013     63.6019    0.516191
    0.520438    0.472328     17.3907     57.5019
   28.6196
     5.62500    0.519977     53.5981     62.3972    0.507657
    0.510390    0.436461     17.3907     57.5019
   28.6696
     5.59497    0.530026     55.6031     63.6031    0.524362
    0.520423    0.434212     17.3907     57.5019
   28.7196
     5.57500    0.550000     57.3995     66.0000    0.540802
    0.540244    0.427492     17.3907     57.5019
   28.7696
     5.63504    0.519980     53.9980     62.3976    0.508174
    0.510267    0.445452     17.3907     57.5019
   28.8196
     5.67500    0.530016     55.0016     64.2022    0.518883
    0.525307    0.472328     17.3907     57.5019
   28.8696
     5.72004    0.550000     57.6005     66.3995    0.544743
    0.543639    0.434212     17.3907     57.5019
   28.9196
     5.75000    0.519974     54.3969     62.3969    0.512163
    0.510413    0.439859     17.3907     57.5019
   28.9696
     5.75000    0.500000     52.0000     60.0000    0.487650
    0.490642    0.485788     17.3907     60.4697
   29.0196
     5.76501    0.530020     55.0020     63.6024    0.517190
    0.520930    0.436461     16.8270     57.5019
   29.0696
     5.77500    0.519984     53.9984     62.3981    0.509083
    0.510708    0.434211     17.1009     57.5019
   29.1196
     5.75999    0.530023     55.6028     63.6028    0.525787
    0.520539    0.427494     17.3907     57.5019
   29.1696
     5.75000    0.519974     54.3969     62.9974    0.511298
    0.515531    0.445454     17.3907     57.5019
   29.2196
     5.79504    0.530024     55.0024     64.0024    0.517312
    0.524421    0.484698     17.3907     57.5019
   29.2696
     5.82500    0.519980     54.5984     62.3976    0.513106
    0.511492    0.483541     17.3907     57.5019
   29.3196
     5.82500    0.500000     52.3997     60.0000    0.490633
    0.491507    0.439867     17.3907     60.1855
   29.3696
     5.82500    0.500000     52.0000     60.0000    0.487197
    0.491601    0.494777     16.8782     57.5019
   29.4196
     5.79497    0.530026     55.0026     63.6031    0.519382
    0.521587    0.481327     17.1274     57.5019
   29.4696
     5.77500    0.519976     53.9976     62.3972    0.510538
    0.511558    0.484698     17.3907     57.5019
   29.5196
     5.71496    0.530020     55.6024     63.6024    0.522255
    0.521740    0.494780     17.3907     57.5019
   29.5696
     5.67500    0.519984     54.9984     62.3981    0.513668
    0.511606    0.484701     17.3907     57.5037
   29.6196
     5.64498    0.530023     55.4019     63.6028    0.517145
    0.521425    0.494777     17.3907     60.1856
   29.6696
     5.62500    0.519974     54.5980     62.3969    0.509203
    0.511105    0.472333     16.8781     57.5019
   29.7196
     5.64001    0.530024     56.0024     63.6028    0.519976
    0.521085    0.434213     17.1274     57.5019
   29.7696
     5.65000    0.550000     58.0000     66.0000    0.539728
    0.541418    0.436483     17.3907     57.5019
   29.8196
     5.66501    0.519984     54.9984     62.3981    0.514645
    0.511808    0.472328     17.3907     57.5019
   29.8696
     5.67500    0.530023     56.0023     63.6028    0.523751
    0.522308    0.436461     17.3907     57.5019
   29.9196
     5.67500    0.519974     54.9974     62.3969    0.510687
    0.512435    0.445454     17.3907     57.5019
   29.9696
     5.69001    0.530024     56.0024     63.6028    0.519810
    0.522486    0.472335     17.3907     57.5019
   30.0196
     5.70000    0.519980     54.3976     61.7972    0.509575
    0.507591    0.434213     17.3907     57.5019
   30.0696
     5.73002    0.530016     55.0016     63.2022    0.516846
    0.519342    0.425244     17.3907     57.5039
   30.1196
     5.75000    0.550000     57.6005     66.0000    0.539277
    0.542606    0.427494     17.3907     60.4678
   30.1696
     5.71997    0.519974     54.3969     62.3969    0.509202
    0.512647    0.434212     16.8269     57.5019
   30.2196
     5.70000    0.500000     52.0000     60.0000    0.489258
    0.492752    0.427492     17.1010     57.5019
   30.2696
     5.68499    0.530020     55.6024     63.6024    0.525950
    0.522866    0.436461     17.3907     57.5019
   30.3196
     5.67500    0.519984     54.3981     62.3981    0.512932
    0.512836    0.422963     17.3907     57.5019
   30.3696
     5.69001    0.530023     55.0023     63.0023    0.518639
    0.517873    0.382657     17.3907     57.5036
   30.4196
     5.70000    0.550000     57.0000     65.6005    0.538581
    0.539644    0.434212     17.3907     60.1873
   30.4696
     5.73002    0.519976     53.9976     62.3972    0.508751
    0.513030    0.427492     16.8782     57.5019
   30.5196
     5.75000    0.530020     55.0020     63.6024    0.519816
    0.523160    0.434213     17.1273     57.5019
   30.5696
     5.76501    0.519984     53.9984     62.3981    0.511655
    0.512994    0.415121     17.3907     57.5037
   30.6196
     5.77500    0.500000     52.0000     60.0000    0.493542
    0.492922    0.373646     17.3907     60.1856
   30.6696
     5.71495    0.530026     54.4020     63.0026    0.518773
    0.518094    0.382652     16.8781     57.5019
   30.7196
     5.67500    0.519976     53.5981     61.9976    0.508558
    0.509329    0.424097     17.1274     57.5019
   30.7696
     5.70502    0.530020     55.0020     63.6024    0.519888
    0.522299    0.373647     17.3907     57.5019
