#------------------------------------------------------------
~VERSION INFORMATION
VERS.               2.0  :CWLS LOG ASCII STANDARD - VERSION 2.0
WRAP.               YES  :MULTIPLE LINES PER DEPTH STEP
#------------------------------------------------------------
~WELL INFORMATION
STRT.M          10.7196  :FIRST INDEX VALUE
STOP.M          246.770  :LAST INDEX VALUE
STEP.M          0.00000  :STEP
NULL.            -99999  :NULL VALUE
COMP.                    :COMPANY
WELL.                    :WELL
FLD.                     :FLD
LOC.                     :LOCATION
SRVC.                    :
CTRY.                    :COUNTRY
STAT.                    :STATE
CNTY.                    :
DATE.                    :DATE
API.                     :API
#------------------------------------------------------------
~CURVE INFORMATION
DEPT.M                   :DEPTH
SPEED.MT/MIN             :Speed
TIME.SEC                 :Time
POSCOUNT.COUNT           :Poscount
NEGCOUNT.COUNT           :Negcount
POSDT.SEC                :Posdt
NEGDT.SEC                :Negdt
MAG_SUSC.10E-3_SI_UNITS   :Mag Susc
INDUCTION.MS/M           :Induction
IND_RES.OHM-M            :Ind Res
#------------------------------------------------------------
~PARAMETER INFORMATION
BIT_FROM1.               :BIT FROM1
BIT_FROM2.               :BIT FROM2
BIT_FROM3.               :BIT FROM3
BIT_FROM4.               :BIT FROM4
BIT_FROM5.               :BIT FROM5
BIT_FROM6.               :BIT FROM6
BIT_TO1.                 :BIT TO1
BIT_TO2.                 :BIT TO2
BIT_TO3.                 :BIT TO3
BIT_TO4.                 :BIT TO4
BIT_TO5.                 :BIT TO5
BIT_TO6.                 :BIT TO6
BIT1.                    :BIT1
BIT2.                    :BIT2
BIT3.                    :BIT3
BIT4.                    :BIT4
BIT5.                    :BIT5
BIT6.                    :BIT6
BTM_LOGGED_INTERVAL.     :BTM LOGGED INTERVAL
CASING_FROM1.            :CASING FROM1
CASING_FROM2.            :CASING FROM2
CASING_FROM3.            :CASING FROM3
CASING_FROM4.            :CASING FROM4
CASING_FROM5.            :CASING FROM5
CASING_FROM6.            :CASING FROM6
CASING_SIZE1.            :CASING SIZE1
CASING_SIZE2.            :CASING SIZE2
CASING_SIZE3.            :CASING SIZE3
CASING_SIZE4.            :CASING SIZE4
CASING_SIZE5.            :CASING SIZE5
CASING_SIZE6.            :CASING SIZE6
CASING_TO1.              :CASING TO1
CASING_TO2.              :CASING TO2
CASING_TO3.              :CASING TO3
CASING_TO4.              :CASING TO4
CASING_TO5.              :CASING TO5
CASING_TO6.              :CASING TO6
CO.                      :CO
CTY.                     :CTY
D_F_.                    :D.F.
DENSITY.                 :DENSITY
DEPTH-DRILLER.           :DEPTH-DRILLER
DEPTH-LOGGER.            :DEPTH-LOGGER
DRILLING_MEAS__FROM.     :DRILLING MEAS. FROM
ELEVATION.               :ELEVATION
FIELD.                   :FIELD
FILING_No.               :FILING No
G_L_.                    :G.L.
K_B_.                    :K.B.
LEVEL.                   :LEVEL
LOG_MEAS__FROM.          :LOG MEAS. FROM
MAX__REC__TEMP_.         :MAX. REC. TEMP.
OPERATING_RIG_TIME.      :OPERATING RIG TIME
OTHER_SERVICES.          :OTHER SERVICES
PERMANENT_DATUM.         :PERMANENT DATUM
RECORDED_BY.             :RECORDED BY
RGE.                     :RGE
RUN_No.                  :RUN No
RUN1.                    :RUN1
RUN2.                    :RUN2
RUN3.                    :RUN3
RUN4.                    :RUN4
RUN5.                    :RUN5
RUN6.                    :RUN6
SALINITY.                :SALINITY
SEC.                     :SEC
STE.                     :STE
TITLE.                   :TITLE
TOP_LOGGED_INTERVAL.     :TOP LOGGED INTERVAL
TWP.                     :TWP
TYPE_FLUID_IN_HOLE.      :TYPE FLUID IN HOLE
TYPE_LOG.                :TYPE LOG
WELL_ID.                 :WELL ID
WGT1.                    :WGT1
WGT2.                    :WGT2
WGT3.                    :WGT3
WGT4.                    :WGT4
WGT5.                    :WGT5
WGT6.                    :WGT6
WITNESSED_BY.            :WITNESSED BY
#------------------------------------------------------------
~OTHER
#------------------------------------------------------------
~A
# ...
   148.070
     5.63499    0.519979     54.3974     62.3974    0.510647
    0.514124    0.481327     17.1272     57.5019
   148.120
     5.62500    0.530018     55.6022     63.0018    0.521708
    0.519185    0.484696     17.3907     57.5019
   148.170
     5.64001    0.550000     58.0000     65.6004    0.542876
    0.540925    0.494778     17.3907     57.5019
   148.220
     5.65000    0.519973     54.3967     62.3967    0.506648
    0.514065    0.484700     17.3907     57.5019
   148.270
     5.63499    0.530027     56.2038     63.0027    0.521084
    0.519092    0.494777     17.3907     60.1873
   148.320
     5.64001    0.519979     55.3974     61.9979    0.513925
    0.510638    0.484699     16.8783     57.5019
   148.370
     5.65000    0.530018     56.0018     63.6022    0.520774
    0.523773    0.510504     17.1274     57.5019
   148.420
     5.72505    0.550000     58.0000     66.0000    0.539915
    0.543955    0.555344     17.3907     57.5019
   148.470
     5.77500    0.519973     54.9973     61.7962    0.511134
    0.508558    0.529538     17.3907     57.5019
   148.520
     5.75999    0.530027     56.0027     63.2038    0.520419
    0.520031    0.506024     17.3907     57.5019
   148.570
     5.75000    0.519979     54.9979     62.3974    0.510156
    0.513222    0.529540     17.3907     60.4697
   148.620
     5.76501    0.530018     56.0018     63.6022    0.518302
    0.523414    0.506012     16.8269     57.5019
   148.670
     5.77500    0.519979     54.9979     62.3974    0.506957
    0.513301    0.548653     17.1009     57.5019
   148.720
     5.72996    0.500000     53.6005     59.3995    0.491106
    0.488082    0.586745     17.3907     57.5019
   148.770
     5.70000    0.530027     57.0027     63.2038    0.523983
    0.519860    0.555343     17.3907     60.1873
   148.820
     5.68499    0.519979     55.3974     62.3974    0.509594
    0.513124    0.541905     16.8783     57.5019
   148.870
     5.67500    0.530018     56.6022     63.6022    0.520398
    0.523220    0.566580     17.1274     57.5019
   148.920
     5.67500    0.519979     55.3974     62.3974    0.509817
    0.513147    0.586745     17.3907     57.5019
   148.970
     5.67500    0.530027     56.6033     63.6033    0.519089
    0.523177    0.566588     17.3907     60.1873
   149.020
     5.67500    0.550000     59.6005     65.3995    0.544805
    0.538182    0.586743     16.8781     57.5019
   149.070
     5.67500    0.519979     56.3974     61.9979    0.513221
    0.509746    0.566586     17.1272     57.5019
   149.120
     5.69001    0.530018     57.0018     63.6022    0.517703
    0.523119    0.586753     17.3907     57.5019
   149.170
     5.70000    0.519979     55.9979     62.3974    0.507259
    0.513021    0.572210     17.3907     57.5019
   149.220
     5.71501    0.530027     57.6033     63.6033    0.523118
    0.522946    0.615910     17.3907     57.5019
   149.270
     5.72500    0.519973     56.3967     62.3967    0.511318
    0.512830    0.586743     17.3907     57.5019
   149.320
     5.72500    0.530021     57.6026     63.0021    0.522313
    0.518007    0.577826     17.3907     57.5019
   149.370
     5.77003    0.519982     56.3978     61.9982    0.510824
    0.509676    0.638343     17.3907     60.1873
   149.420
     5.80000    0.530021     57.6026     63.6026    0.520571
    0.523101    0.599113     16.8783     57.5019
   149.470
     5.75496    0.519973     56.3967     62.3967    0.510570
    0.513039    0.627154     17.1274     57.5019
   149.520
     5.72500    0.500000     54.6005     60.0000    0.492244
    0.493089    0.631577     17.3907     57.5019
   149.570
     5.69498    0.530021     58.0021     63.6026    0.520378
    0.523301    0.577826     17.3907     57.5019
   149.620
     5.67500    0.519982     56.3978     61.7974    0.506180
    0.508191    0.631605     17.3907     57.5019
   149.670
     5.67500    0.530021     58.2030     63.2030    0.522290
    0.519938    0.555344     17.3907     57.5019
   149.720
     5.67500    0.550000     60.3995     66.0000    0.541529
    0.543340    0.529538     17.3907     60.4697
   149.770
     5.67500    0.519973     56.9973     62.3967    0.510229
    0.513307    0.494777     16.8268     57.5019
   149.820
     5.67500    0.530021     58.6026     63.0021    0.523324
    0.518434    0.472334     17.1008     57.5019
   149.870
     5.67500    0.519982     56.7974     61.9982    0.507885
    0.510243    0.434215     17.3907     57.5019
   149.920
     5.67500    0.530021     58.2030     63.6026    0.523008
    0.523840    0.427493     17.3907     57.5019
   149.970
     5.69001    0.519973     56.7962     62.3967    0.513667
    0.513846    0.434212     17.3907     57.5019
   150.020
     5.70000    0.530027     57.0027     63.0027    0.519958
    0.518707    0.415122     17.3907     60.1873
   150.070
     5.73002    0.519979     55.3974     61.9979    0.508503
    0.509948    0.384887     16.8783     57.5019
   150.120
     5.75000    0.530018     56.0018     63.6022    0.521326
    0.523197    0.427490     17.1274     57.5019
   150.170
     5.76501    0.519979     54.3974     62.3974    0.510035
    0.513091    0.445456     17.3907     57.5019
   150.220
     5.77500    0.530027     55.0027     63.6033    0.518200
    0.523117    0.472331     17.3907     57.5019
   150.270
     5.75999    0.519973     53.9973     62.3967    0.510771
    0.512902    0.434211     17.3907     57.5019
   150.320
     5.71998    0.530021     55.0021     63.6026    0.520427
    0.522499    0.427492     17.3907     60.1873
   150.370
     5.70000    0.519982     53.3978     62.3978    0.508135
    0.512024    0.422985     16.8782     57.5019
   150.420
     5.70000    0.530021     54.6026     63.0021    0.519082
    0.516911    0.382655     17.1273     57.5019
   150.470
     5.70000    0.519973     53.9973     61.9973    0.510060
    0.508621    0.422968     17.3907     57.5019
   150.520
     5.70000    0.530027     55.6033     63.6033    0.524679
    0.522290    0.370287     17.3907     57.5019
   150.570
     5.70000    0.519979     54.3974     62.3974    0.511814
    0.512544    0.387135     17.3907     60.4697
   150.620
     5.71501    0.530018     55.0018     63.6022    0.520174
    0.522742    0.422985     16.8269     57.5019
   150.670
     5.72500    0.519979     53.9979     62.3974    0.512472
    0.512893    0.370287     17.1009     60.4697
   150.720
     5.74001    0.530027     54.4022     63.6033    0.516812
    0.523213    0.373646     16.8269     57.5019
   150.770
     5.75000    0.519973     53.5978     61.7962    0.510890
    0.508640    0.382659     17.1011     57.5019
   150.820
     5.73499    0.530021     54.4017     63.2030    0.519861
    0.520230    0.434213     17.3907     60.1873
   150.870
     5.72500    0.519982     52.9982     62.3978    0.507876
    0.513132    0.427490     16.8782     57.5019
   150.920
     5.74001    0.500000     51.6004     60.0000    0.493992
    0.493081    0.434212     17.1273     57.5019
   150.970
     5.75000    0.530027     54.4022     63.6033    0.522242
    0.523236    0.427493     17.3907     60.1873
   151.020
     5.78003    0.519973     52.9973     62.3967    0.509027
    0.513150    0.434211     16.8781     57.5019
   151.070
     5.80000    0.530021     54.0021     63.0021    0.516186
    0.518225    0.427492     17.1272     57.5019
   151.120
     5.75497    0.519982     53.5985     61.9982    0.509670
    0.509818    0.434215     17.3907     60.1873
   151.170
     5.72500    0.530021     55.0021     63.6026    0.521515
    0.523141    0.427493     16.8783     57.5019
   151.220
     5.69497    0.519973     53.9973     62.3967    0.512082
    0.513031    0.445456     17.1274     57.5019
   151.270
     5.67500    0.530027     55.0027     63.6033    0.521307
    0.522705    0.472329     17.3907     60.4697
   151.320
     5.69001    0.519979     53.9979     62.3974    0.510023
    0.512747    0.445453     16.8271     57.5019
   151.370
     5.68499    0.530018     55.0018     63.0018    0.519331
    0.518084    0.472342     17.1010     57.5019
