#------------------------------------------------------------
~VERSION INFORMATION
VERS.               2.0  :CWLS LOG ASCII STANDARD - VERSION 2.0
WRAP.               YES  :MULTIPLE LINES PER DEPTH STEP
#------------------------------------------------------------
~WELL INFORMATION
STRT.M          10.7196  :FIRST INDEX VALUE
STOP.M          246.770  :LAST INDEX VALUE
STEP.M          0.00000  :STEP
NULL.            -99999  :NULL VALUE
COMP.                    :COMPANY
WELL.                    :WELL
FLD.                     :FLD
LOC.                     :LOCATION
SRVC.                    :
CTRY.                    :COUNTRY
STAT.                    :STATE
CNTY.                    :
DATE.                    :DATE
API.                     :API
#------------------------------------------------------------
~CURVE INFORMATION
DEPT.M                   :DEPTH
SPEED.MT/MIN             :Speed
TIME.SEC                 :Time
POSCOUNT.COUNT           :Poscount
NEGCOUNT.COUNT           :Negcount
POSDT.SEC                :Posdt
NEGDT.SEC                :Negdt
MAG_SUSC.10E-3_SI_UNITS   :Mag Susc
INDUCTION.MS/M           :Induction
IND_RES.OHM-M            :Ind Res
#------------------------------------------------------------
~PARAMETER INFORMATION
BIT_FROM1.               :BIT FROM1
BIT_FROM2.               :BIT FROM2
BIT_FROM3.               :BIT FROM3
BIT_FROM4.               :BIT FROM4
BIT_FROM5.               :BIT FROM5
BIT_FROM6.               :BIT FROM6
BIT_TO1.                 :BIT TO1
BIT_TO2.                 :BIT TO2
BIT_TO3.                 :BIT TO3
BIT_TO4.                 :BIT TO4
BIT_TO5.                 :BIT TO5
BIT_TO6.                 :BIT TO6
BIT1.                    :BIT1
BIT2.                    :BIT2
BIT3.                    :BIT3
BIT4.                    :BIT4
BIT5.                    :BIT5
BIT6.                    :BIT6
BTM_LOGGED_INTERVAL.     :BTM LOGGED INTERVAL
CASING_FROM1.            :CASING FROM1
CASING_FROM2.            :CASING FROM2
CASING_FROM3.            :CASING FROM3
CASING_FROM4.            :CASING FROM4
CASING_FROM5.            :CASING FROM5
CASING_FROM6.            :CASING FROM6
CASING_SIZE1.            :CASING SIZE1
CASING_SIZE2.            :CASING SIZE2
CASING_SIZE3.            :CASING SIZE3
CASING_SIZE4.            :CASING SIZE4
CASING_SIZE5.            :CASING SIZE5
CASING_SIZE6.            :CASING SIZE6
CASING_TO1.              :CASING TO1
CASING_TO2.              :CASING TO2
CASING_TO3.              :CASING TO3
CASING_TO4.              :CASING TO4
CASING_TO5.              :CASING TO5
CASING_TO6.              :CASING TO6
CO.                      :CO
CTY.                     :CTY
D_F_.                    :D.F.
DENSITY.                 :DENSITY
DEPTH-DRILLER.           :DEPTH-DRILLER
DEPTH-LOGGER.            :DEPTH-LOGGER
DRILLING_MEAS__FROM.     :DRILLING MEAS. FROM
ELEVATION.               :ELEVATION
FIELD.                   :FIELD
FILING_No.               :FILING No
G_L_.                    :G.L.
K_B_.                    :K.B.
LEVEL.                   :LEVEL
LOG_MEAS__FROM.          :LOG MEAS. FROM
MAX__REC__TEMP_.         :MAX. REC. TEMP.
OPERATING_RIG_TIME.      :OPERATING RIG TIME
OTHER_SERVICES.          :OTHER SERVICES
PERMANENT_DATUM.         :PERMANENT DATUM
RECORDED_BY.             :RECORDED BY
RGE.                     :RGE
RUN_No.                  :RUN No
RUN1.                    :RUN1
RUN2.                    :RUN2
RUN3.                    :RUN3
RUN4.                    :RUN4
RUN5.                    :RUN5
RUN6.                    :RUN6
SALINITY.                :SALINITY
SEC.                     :SEC
STE.                     :STE
TITLE.                   :TITLE
TOP_LOGGED_INTERVAL.     :TOP LOGGED INTERVAL
TWP.                     :TWP
TYPE_FLUID_IN_HOLE.      :TYPE FLUID IN HOLE
TYPE_LOG.                :TYPE LOG
WELL_ID.                 :WELL ID
WGT1.                    :WGT1
WGT2.                    :WGT2
WGT3.                    :WGT3
WGT4.                    :WGT4
WGT5.                    :WGT5
WGT6.                    :WGT6
WITNESSED_BY.            :WITNESSED BY
#------------------------------------------------------------
~OTHER
#------------------------------------------------------------
~A
# ...
   194.970
     5.53499    0.519973     54.9973     61.7962    0.511319
    0.510703    0.494778     17.1274     57.5019
   195.020
     5.52500    0.530027     56.0027     63.2038    0.520754
    0.522434    0.492574     17.3907     60.1873
   195.070
     5.54001    0.550000     58.0000     65.3998    0.542230
    0.540902    0.537409     16.8783     57.5019
   195.120
     5.55000    0.550000     58.0000     65.6002    0.540252
    0.542582    0.526165     17.1274     57.5019
   195.170
     5.55000    0.550000     58.6004     65.3996    0.543110
    0.540713    0.492570     17.3907     60.1873
   195.220
     5.55000    0.550000     58.3995     65.6005    0.542200
    0.542401    0.529538     16.8781     57.5019
   195.270
     5.55000    0.519973     54.9973     61.7962    0.509670
    0.510383    0.506024     17.1274     60.1873
   195.320
     5.53499    0.530012     56.0012     63.2017    0.516905
    0.522016    0.526165     16.8783     57.5019
   195.370
     5.52500    0.550000     58.6002     65.3998    0.540690
    0.540725    0.492570     17.1274     57.5019
   195.420
     5.52500    0.550000     59.0000     65.6004    0.544664
    0.542664    0.537409     17.3907     60.4697
   195.470
     5.52500    0.550000     58.3995     65.3995    0.540085
    0.540526    0.537409     16.8268     57.5019
   195.520
     5.57004    0.550000     58.6005     65.6005    0.541187
    0.541541    0.529536     17.1011     60.1873
   195.570
     5.60000    0.519988     55.3985     61.7983    0.509052
    0.509432    0.506022     16.8783     57.5019
   195.620
     5.56999    0.530012     56.6015     63.2017    0.520702
    0.521108    0.537409     17.1274     57.5019
   195.670
     5.55000    0.550000     58.3996     66.0000    0.538352
    0.544495    0.537409     17.3907     60.1873
   195.720
     5.51997    0.550000     58.6005     65.3995    0.540014
    0.539422    0.537409     16.8781     57.5019
   195.770
     5.50000    0.550000     59.0000     65.6005    0.543663
    0.541065    0.526161     17.1274     60.4697
   195.820
     5.50000    0.550000     59.0000     66.0000    0.541940
    0.544220    0.492570     16.8271     57.5019
   195.870
     5.50000    0.519988     55.3985     62.3985    0.507444
    0.513768    0.537409     17.1010     57.5019
   195.920
     5.50000    0.530021     56.6026     63.0021    0.520177
    0.518952    0.529538     17.3907     60.1873
   195.970
     5.51501    0.550000     59.0000     65.6005    0.542645
    0.540936    0.506022     16.8781     57.5019
   196.020
     5.52500    0.550000     59.0000     66.0000    0.540609
    0.544413    0.526161     17.1274     60.1873
   196.070
     5.52500    0.550000     59.0000     65.3998    0.542317
    0.539498    0.481327     16.8783     57.5019
   196.120
     5.52500    0.550000     58.3998     65.6002    0.540308
    0.541206    0.484700     17.1274     57.5019
   196.170
     5.54001    0.550000     58.6004     66.0000    0.541371
    0.544592    0.517266     17.3907     60.1873
   196.220
     5.55000    0.550000     59.0000     65.3995    0.541918
    0.539599    0.571003     16.8781     57.5019
   196.270
     5.56501    0.519973     55.3967     61.9973    0.506588
    0.511122    0.481327     17.1274     57.5019
   196.320
     5.57500    0.530012     56.6015     63.0012    0.521041
    0.519606    0.470083     17.3907     57.5019
   196.370
     5.59001    0.550000     58.3998     65.6002    0.542838
    0.541525    0.447732     17.3907     60.1873
   196.420
     5.60000    0.550000     58.0000     66.0000    0.540299
    0.545160    0.537409     16.8781     57.5019
   196.470
     5.56997    0.519973     54.9973     61.7962    0.507468
    0.510168    0.517170     17.1274     57.5019
   196.520
     5.51997    0.530027     57.2038     63.2038    0.518353
    0.521867    0.445459     17.3907     60.1873
   196.570
     5.50000    0.550000     58.7995     65.3998    0.540852
    0.540106    0.481327     16.8783     55.0458
   196.620
     5.51501    0.550000     58.0000     65.6002    0.542904
    0.541721    0.481327     17.6399     60.1873
   196.670
     5.52500    0.550000     57.3996     66.0000    0.538625
    0.544856    0.492570     17.1414     57.5019
   196.720
     5.52500    0.550000     58.2011     65.3995    0.541475
    0.539738    0.514921     17.1274     57.5019
   196.770
     5.52500    0.550000     59.0000     65.6005    0.544559
    0.541389    0.439866     17.3907     60.1873
   196.820
     5.50999    0.519988     54.7983     61.7983    0.507802
    0.509908    0.494778     16.8783     57.5019
   196.870
     5.50000    0.530012     55.6015     63.2017    0.518948
    0.522004    0.481327     17.1274     57.5019
   196.920
     5.51501    0.550000     58.0000     66.0000    0.540946
    0.545284    0.481327     17.3907     60.1873
   196.970
     5.52500    0.550000     58.0000     65.3995    0.538784
    0.539967    0.472331     16.8781     57.5019
   197.020
     5.55503    0.550000     58.6005     65.6005    0.544483
    0.541624    0.445459     17.1274     57.5019
   197.070
     5.57500    0.550000     57.7995     65.3998    0.539408
    0.539813    0.481327     17.3907     60.1873
   197.120
     5.57500    0.519988     54.5990     61.9988    0.508697
    0.511111    0.481327     16.8782     57.5019
   197.170
     5.59001    0.530021     56.0021     63.6026    0.522564
    0.523990    0.470083     17.1274     57.5019
   197.220
     5.60000    0.550000     58.0000     65.3995    0.542359
    0.539688    0.436488     17.3907     60.1873
   197.270
     5.53995    0.550000     58.0000     65.6005    0.541349
    0.540719    0.481327     16.8781     57.5019
   197.320
     5.50000    0.519988     54.3985     62.3985    0.508199
    0.513483    0.470083     17.1272     60.1873
   197.370
     5.50000    0.530012     55.6015     63.6015    0.520866
    0.523926    0.436488     16.8782     57.5019
   197.420
     5.50000    0.550000     58.0000     65.3996    0.542774
    0.538774    0.481327     17.1274     57.5019
   197.470
     5.50000    0.550000     58.0000     65.6005    0.541344
    0.540302    0.481327     17.3907     60.4697
   197.520
     5.50000    0.550000     57.3995     66.0000    0.535780
    0.543801    0.472329     16.8268     57.5019
   197.570
     5.50000    0.550000     57.6002     65.3998    0.539051
    0.539561    0.445456     17.1008     60.1873
   197.620
     5.50000    0.550000     58.0000     66.2005    0.544044
    0.544325    0.481327     16.8782     57.5019
   197.670
     5.50000    0.550000     57.3996     65.7991    0.537660
    0.540584    0.481327     17.1274     57.5019
   197.720
     5.51501    0.550000     57.6005     65.6005    0.538410
    0.540587    0.472331     17.3907     60.1873
   197.770
     5.52500    0.550000     58.0000     66.0000    0.544407
    0.544414    0.445459     16.8781     57.5019
   197.820
     5.54001    0.550000     58.0000     65.3998    0.543619
    0.539398    0.470083     17.1272     57.5019
   197.870
     5.55000    0.519988     54.3985     61.9988    0.508063
    0.510978    0.436488     17.3907     60.1873
   197.920
     5.58002    0.530021     55.6026     63.6026    0.518477
    0.524445    0.481327     16.8781     57.5019
   197.970
     5.60000    0.550000     58.0000     65.3995    0.541535
    0.539430    0.470083     17.1274     57.5019
   198.020
     5.55496    0.550000     58.0000     65.6005    0.541364
    0.541233    0.425244     17.3907     60.1873
   198.070
     5.52500    0.519988     54.3985     62.3985    0.507742
    0.514719    0.436488     16.8783     57.5019
   198.120
     5.50999    0.530012     55.6015     63.0012    0.521220
    0.519691    0.481327     17.1274     60.1873
   198.170
     5.50000    0.550000     57.3996     65.6004    0.539715
    0.541305    0.472331     16.8781     57.5019
   198.220
     5.50000    0.550000     57.6005     66.0000    0.541186
    0.544750    0.445456     17.1274     57.5019
   198.270
     5.50000    0.550000     58.0000     65.3995    0.543948
    0.539727    0.481327     17.3907     60.1873
