#------------------------------------------------------------
~VERSION INFORMATION
VERS.               2.0  :CWLS LOG ASCII STANDARD - VERSION 2.0
WRAP.               YES  :MULTIPLE LINES PER DEPTH STEP
#------------------------------------------------------------
~WELL INFORMATION
STRT.M          10.7196  :FIRST INDEX VALUE
STOP.M          246.770  :LAST INDEX VALUE
STEP.M          0.00000  :STEP
NULL.            -99999  :NULL VALUE
COMP.                    :COMPANY
WELL.                    :WELL
FLD.                     :FLD
LOC.                     :LOCATION
SRVC.                    :
CTRY.                    :COUNTRY
STAT.                    :STATE
CNTY.                    :
DATE.                    :DATE
API.                     :API
#------------------------------------------------------------
~CURVE INFORMATION
DEPT.M                   :DEPTH
SPEED.MT/MIN             :Speed
TIME.SEC                 :Time
POSCOUNT.COUNT           :Poscount
NEGCOUNT.COUNT           :Negcount
POSDT.SEC                :Posdt
NEGDT.SEC                :Negdt
MAG_SUSC.10E-3_SI_UNITS   :Mag Susc
INDUCTION.MS/M           :Induction
IND_RES.OHM-M            :Ind Res
#------------------------------------------------------------
~PARAMETER INFORMATION
BIT_FROM1.               :BIT FROM1
BIT_FROM2.               :BIT FROM2
BIT_FROM3.               :BIT FROM3
BIT_FROM4.               :BIT FROM4
BIT_FROM5.               :BIT FROM5
BIT_FROM6.               :BIT FROM6
BIT_TO1.                 :BIT TO1
BIT_TO2.                 :BIT TO2
BIT_TO3.                 :BIT TO3
BIT_TO4.                 :BIT TO4
BIT_TO5.                 :BIT TO5
BIT_TO6.                 :BIT TO6
BIT1.                    :BIT1
BIT2.                    :BIT2
BIT3.                    :BIT3
BIT4.                    :BIT4
BIT5.                    :BIT5
BIT6.                    :BIT6
BTM_LOGGED_INTERVAL.     :BTM LOGGED INTERVAL
CASING_FROM1.            :CASING FROM1
CASING_FROM2.            :CASING FROM2
CASING_FROM3.            :CASING FROM3
CASING_FROM4.            :CASING FROM4
CASING_FROM5.            :CASING FROM5
CASING_FROM6.            :CASING FROM6
CASING_SIZE1.            :CASING SIZE1
CASING_SIZE2.            :CASING SIZE2
CASING_SIZE3.            :CASING SIZE3
CASING_SIZE4.            :CASING SIZE4
CASING_SIZE5.            :CASING SIZE5
CASING_SIZE6.            :CASING SIZE6
CASING_TO1.              :CASING TO1
CASING_TO2.              :CASING TO2
CASING_TO3.              :CASING TO3
CASING_TO4.              :CASING TO4
CASING_TO5.              :CASING TO5
CASING_TO6.              :CASING TO6
CO.                      :CO
CTY.                     :CTY
D_F_.                    :D.F.
DENSITY.                 :DENSITY
DEPTH-DRILLER.           :DEPTH-DRILLER
DEPTH-LOGGER.            :DEPTH-LOGGER
DRILLING_MEAS__FROM.     :DRILLING MEAS. FROM
ELEVATION.               :ELEVATION
FIELD.                   :FIELD
FILING_No.               :FILING No
G_L_.                    :G.L.
K_B_.                    :K.B.
LEVEL.                   :LEVEL
LOG_MEAS__FROM.          :LOG MEAS. FROM
MAX__REC__TEMP_.         :MAX. REC. TEMP.
OPERATING_RIG_TIME.      :OPERATING RIG TIME
OTHER_SERVICES.          :OTHER SERVICES
PERMANENT_DATUM.         :PERMANENT DATUM
RECORDED_BY.             :RECORDED BY
RGE.                     :RGE
RUN_No.                  :RUN No
RUN1.                    :RUN1
RUN2.                    :RUN2
RUN3.                    :RUN3
RUN4.                    :RUN4
RUN5.                    :RUN5
RUN6.                    :RUN6
SALINITY.                :SALINITY
SEC.                     :SEC
STE.                     :STE
TITLE.                   :TITLE
TOP_LOGGED_INTERVAL.     :TOP LOGGED INTERVAL
TWP.                     :TWP
TYPE_FLUID_IN_HOLE.      :TYPE FLUID IN HOLE
TYPE_LOG.                :TYPE LOG
WELL_ID.                 :WELL ID
WGT1.                    :WGT1
WGT2.                    :WGT2
WGT3.                    :WGT3
WGT4.                    :WGT4
WGT5.                    :WGT5
WGT6.                    :WGT6
WITNESSED_BY.            :WITNESSED BY
#------------------------------------------------------------
~OTHER
#------------------------------------------------------------
~A
# ...
   164.820
     5.71496    0.519979     53.7970     62.3974    0.508866
    0.513985    0.555345     17.1272     57.5019
   164.870
     5.67500    0.500000     52.2007     59.3996    0.490783
    0.488773    0.526179     17.3907     60.1873
   164.920
     5.67500    0.530021     56.0021     63.2030    0.522182
    0.520762    0.484700     16.8783     57.5019
   164.970
     5.67500    0.550000     58.0000     66.0000    0.538867
    0.544362    0.494778     17.1274     57.5019
   165.020
     5.67500    0.519973     54.9973     61.7962    0.511390
    0.509312    0.497073     17.3907     57.5019
   165.070
     5.67500    0.530021     56.0021     63.2030    0.519817
    0.520989    0.544105     17.3907     60.1873
   165.120
     5.69001    0.519982     55.5985     62.3978    0.510889
    0.514130    0.484696     16.8782     57.5019
   165.170
     5.70000    0.530021     57.0021     63.0021    0.522862
    0.519011    0.506022     17.1273     57.5019
   165.220
     5.70000    0.550000     58.3995     65.6005    0.539626
    0.540456    0.529538     17.3907     60.1873
   165.270
     5.70000    0.519973     54.9973     62.3967    0.510518
    0.513662    0.498151     16.8781     57.5019
   165.320
     5.68499    0.530021     56.0021     63.6026    0.518488
    0.523885    0.494779     17.1272     60.4697
   165.370
     5.67500    0.519982     55.5985     61.7974    0.511341
    0.508442    0.472342     16.8269     57.5019
   165.420
     5.72003    0.530021     56.4017     63.2030    0.518989
    0.520032    0.456700     17.1009     57.5019
   165.470
     5.75000    0.519973     54.9973     62.3967    0.507836
    0.513713    0.526165     17.3907     60.1873
   165.520
     5.76501    0.530027     56.6033     63.6033    0.523506
    0.523851    0.497073     16.8781     57.5019
   165.570
     5.77500    0.519979     55.3974     62.3974    0.511341
    0.513537    0.544105     17.1272     57.5019
   165.620
     5.74498    0.500000     53.0000     59.3996    0.490458
    0.488495    0.484696     17.3907     60.1873
   165.670
     5.67997    0.530021     56.0021     63.2030    0.522619
    0.520391    0.494778     16.8783     57.5019
   165.720
     5.65000    0.519973     54.3967     62.3967    0.508319
    0.513858    0.484700     17.1274     57.5019
   165.770
     5.66501    0.530027     56.2038     63.0027    0.521123
    0.519264    0.494777     17.3907     60.1873
   165.820
     5.67500    0.550000     58.3996     65.6004    0.539079
    0.541118    0.481327     16.8783     57.5019
   165.870
     5.67500    0.519982     55.5985     62.3978    0.513145
    0.514253    0.472342     17.1274     57.5019
   165.920
     5.67500    0.530021     56.4017     63.0021    0.521039
    0.519021    0.445456     17.3907     60.4697
   165.970
     5.67500    0.519973     54.9973     61.9973    0.507767
    0.510428    0.472331     16.8269     57.5019
   166.020
     5.67500    0.530027     56.0027     63.6033    0.518698
    0.524114    0.436461     17.1011     57.5019
   166.070
     5.67500    0.519979     54.9979     62.3974    0.511096
    0.514035    0.445453     17.3907     60.1873
   166.120
     5.67500    0.530018     56.0018     63.0018    0.523726
    0.519154    0.472342     16.8782     57.5019
   166.170
     5.69001    0.550000     58.0000     65.6004    0.541804
    0.541226    0.434212     17.1273     57.5019
   166.220
     5.70000    0.519973     54.3967     62.3967    0.506747
    0.514949    0.427493     17.3907     60.4697
   166.270
     5.73003    0.530027     55.6033     63.0027    0.519744
    0.520566    0.445459     16.8268     57.5019
   166.320
     5.75000    0.519979     54.3974     61.9979    0.510877
    0.512036    0.470086     17.1008     57.5019
   166.370
     5.75000    0.500000     52.0000     59.3996    0.489164
    0.489715    0.427490     17.3907     57.5019
   166.420
     5.75000    0.530021     55.6026     63.2030    0.524359
    0.521225    0.445456     17.3907     60.4697
   166.470
     5.70496    0.519973     54.3967     62.3967    0.512027
    0.514363    0.481327     16.8269     57.5019
   166.520
     5.67500    0.530027     55.0027     63.0027    0.517583
    0.519136    0.484701     17.1011     57.5019
   166.570
     5.67500    0.519979     53.9979     61.9979    0.508296
    0.510679    0.483539     17.3907     57.5019
   166.620
     5.64498    0.530018     55.6022     63.6022    0.522737
    0.524305    0.439844     17.3907     60.1873
   166.670
     5.62500    0.550000     57.3996     65.3996    0.540123
    0.539544    0.494778     16.8783     57.5019
   166.720
     5.65503    0.519973     53.9973     61.9973    0.508785
    0.511169    0.472331     17.1274     57.5019
   166.770
     5.67500    0.530027     55.6033     63.6033    0.522579
    0.524362    0.445459     17.3907     60.4697
   166.820
     5.69001    0.550000     58.0000     65.3996    0.541921
    0.539346    0.484699     16.8271     57.5019
   166.870
     5.70000    0.519982     54.9982     61.9982    0.512792
    0.510994    0.494782     17.1010     57.5019
   166.920
     5.68499    0.530021     55.4017     63.6026    0.518070
    0.524318    0.472331     17.3907     57.5019
   166.970
     5.67500    0.519973     54.5978     61.7962    0.510912
    0.509092    0.445456     17.3907     60.4697
   167.020
     5.70503    0.530027     56.0027     63.2038    0.522913
    0.521065    0.472329     16.8268     57.5019
   167.070
     5.72500    0.519979     54.3974     62.3974    0.507355
    0.514462    0.434213     17.1008     60.4697
   167.120
     5.77003    0.530018     55.6022     63.0018    0.519768
    0.519441    0.427490     16.8269     57.5019
   167.170
     5.80000    0.519979     54.9979     61.9979    0.512258
    0.510941    0.422968     17.1009     57.5019
   167.220
     5.72493    0.530027     56.0027     63.6033    0.519726
    0.524429    0.380406     17.3907     60.1873
   167.270
     5.67500    0.519973     54.3967     61.7962    0.507727
    0.509260    0.415122     16.8781     57.5019
   167.320
     5.67500    0.530021     55.6026     63.2030    0.522835
    0.521013    0.362406     17.1272     60.4697
   167.370
     5.67500    0.519982     54.3978     62.3978    0.513520
    0.514031    0.325433     16.8269     57.5019
   167.420
     5.64498    0.530021     55.0021     63.6026    0.518337
    0.523989    0.373646     17.1009     57.5019
   167.470
     5.62500    0.519973     53.9973     61.7962    0.511681
    0.508591    0.370287     17.3907     57.5019
   167.520
     5.65503    0.530027     54.4022     63.2038    0.518642
    0.520211    0.362398     17.3907     60.1873
   167.570
     5.67500    0.550000     56.6004     66.0000    0.536997
    0.543862    0.325444     16.8783     57.5019
   167.620
     5.67500    0.519982     53.3978     62.3978    0.511687
    0.513989    0.384878     17.1274     57.5019
   167.670
     5.69001    0.530021     53.4017     63.0021    0.522046
    0.519180    0.415125     17.3907     57.5019
   167.720
     5.70000    0.519973     52.5978     61.9973    0.510316
    0.510793    0.384890     17.3907     57.5019
   167.770
     5.71501    0.530027     54.0027     63.6033    0.517458
    0.524308    0.427494     17.3907     60.4697
   167.820
     5.72500    0.519979     52.9979     61.7970    0.509879
    0.508741    0.434213     16.8271     57.5019
   167.870
     5.74001    0.530018     53.4015     63.2026    0.521445
    0.520052    0.427490     17.1010     57.5019
   167.920
     5.75000    0.519979     52.5983     62.3974    0.513289
    0.513680    0.434212     17.3907     60.4697
   167.970
     5.76501    0.530027     54.6033     63.6033    0.522236
    0.524387    0.421785     16.8269     57.5019
   168.020
     5.77500    0.519973     53.3967     61.7962    0.506521
    0.509412    0.413698     17.1011     60.1873
   168.070
     5.71496    0.530021     54.6026     63.2030    0.518424
    0.521188    0.434213     16.8783     57.5019
   168.120
     5.67500    0.519982     53.9982     61.7974    0.511445
    0.509424    0.427490     17.1274     57.5019
