#------------------------------------------------------------
~VERSION INFORMATION
VERS.               2.0  :CWLS LOG ASCII STANDARD - VERSION 2.0
WRAP.               YES  :MULTIPLE LINES PER DEPTH STEP
#------------------------------------------------------------
~WELL INFORMATION
STRT.M          10.7196  :FIRST INDEX VALUE
STOP.M          246.770  :LAST INDEX VALUE
STEP.M          0.00000  :STEP
NULL.            -99999  :NULL VALUE
COMP.                    :COMPANY
WELL.                    :WELL
FLD.                     :FLD
LOC.                     :LOCATION
SRVC.                    :
CTRY.                    :COUNTRY
STAT.                    :STATE
CNTY.                    :
DATE.                    :DATE
API.                     :API
#------------------------------------------------------------
~CURVE INFORMATION
DEPT.M                   :DEPTH
SPEED.MT/MIN             :Speed
TIME.SEC                 :Time
POSCOUNT.COUNT           :Poscount
NEGCOUNT.COUNT           :Negcount
POSDT.SEC                :Posdt
NEGDT.SEC                :Negdt
MAG_SUSC.10E-3_SI_UNITS   :Mag Susc
INDUCTION.MS/M           :Induction
IND_RES.OHM-M            :Ind Res
#------------------------------------------------------------
~PARAMETER INFORMATION
BIT_FROM1.               :BIT FROM1
BIT_FROM2.               :BIT FROM2
BIT_FROM3.               :BIT FROM3
BIT_FROM4.               :BIT FROM4
BIT_FROM5.               :BIT FROM5
BIT_FROM6.               :BIT FROM6
BIT_TO1.                 :BIT TO1
BIT_TO2.                 :BIT TO2
BIT_TO3.                 :BIT TO3
BIT_TO4.                 :BIT TO4
BIT_TO5.                 :BIT TO5
BIT_TO6.                 :BIT TO6
BIT1.                    :BIT1
BIT2.                    :BIT2
BIT3.                    :BIT3
BIT4.                    :BIT4
BIT5.                    :BIT5
BIT6.                    :BIT6
BTM_LOGGED_INTERVAL.     :BTM LOGGED INTERVAL
CASING_FROM1.            :CASING FROM1
CASING_FROM2.            :CASING FROM2
CASING_FROM3.            :CASING FROM3
CASING_FROM4.            :CASING FROM4
CASING_FROM5.            :CASING FROM5
CASING_FROM6.            :CASING FROM6
CASING_SIZE1.            :CASING SIZE1
CASING_SIZE2.            :CASING SIZE2
CASING_SIZE3.            :CASING SIZE3
CASING_SIZE4.            :CASING SIZE4
CASING_SIZE5.            :CASING SIZE5
CASING_SIZE6.            :CASING SIZE6
CASING_TO1.              :CASING TO1
CASING_TO2.              :CASING TO2
CASING_TO3.              :CASING TO3
CASING_TO4.              :CASING TO4
CASING_TO5.              :CASING TO5
CASING_TO6.              :CASING TO6
CO.                      :CO
CTY.                     :CTY
D_F_.                    :D.F.
DENSITY.                 :DENSITY
DEPTH-DRILLER.           :DEPTH-DRILLER
DEPTH-LOGGER.            :DEPTH-LOGGER
DRILLING_MEAS__FROM.     :DRILLING MEAS. FROM
ELEVATION.               :ELEVATION
FIELD.                   :FIELD
FILING_No.               :FILING No
G_L_.                    :G.L.
K_B_.                    :K.B.
LEVEL.                   :LEVEL
LOG_MEAS__FROM.          :LOG MEAS. FROM
MAX__REC__TEMP_.         :MAX. REC. TEMP.
OPERATING_RIG_TIME.      :OPERATING RIG TIME
OTHER_SERVICES.          :OTHER SERVICES
PERMANENT_DATUM.         :PERMANENT DATUM
RECORDED_BY.             :RECORDED BY
RGE.                     :RGE
RUN_No.                  :RUN No
RUN1.                    :RUN1
RUN2.                    :RUN2
RUN3.                    :RUN3
RUN4.                    :RUN4
RUN5.                    :RUN5
RUN6.                    :RUN6
SALINITY.                :SALINITY
SEC.                     :SEC
STE.                     :STE
TITLE.                   :TITLE
TOP_LOGGED_INTERVAL.     :TOP LOGGED INTERVAL
TWP.                     :TWP
TYPE_FLUID_IN_HOLE.      :TYPE FLUID IN HOLE
TYPE_LOG.                :TYPE LOG
WELL_ID.                 :WELL ID
WGT1.                    :WGT1
WGT2.                    :WGT2
WGT3.                    :WGT3
WGT4.                    :WGT4
WGT5.                    :WGT5
WGT6.                    :WGT6
WITNESSED_BY.            :WITNESSED BY
#------------------------------------------------------------
~OTHER
#------------------------------------------------------------
~A
# ...
   57.6196
     5.67500    0.550000     55.2010     65.6005    0.538567
    0.543776    0.373646     17.3907     57.5019
   57.6696
     5.67500    0.519973     52.9973     61.7962    0.510474
    0.511881    0.357918     17.3907     57.5019
   57.7196
     5.70502    0.530024     53.4019     62.6028    0.517189
    0.517941    0.324320     17.3907     60.1873
   57.7696
     5.72500    0.519980     52.5984     61.9980    0.511736
    0.512715    0.369162     16.8782     57.5019
   57.8196
     5.75502    0.530016     53.4013     63.0016    0.522081
    0.521788    0.357914     17.1273     57.5019
   57.8696
     5.77500    0.519975     51.9975     61.9975    0.506866
    0.512597    0.290584     17.3907     57.5019
   57.9196
     5.74497    0.500000     50.6005     60.0000    0.489384
    0.493898    0.223403     17.3907     60.1873
   57.9696
     5.72500    0.530024     54.0024     63.0024    0.522955
    0.519052    0.313080     16.8782     57.5019
   58.0196
     5.66496    0.519980     52.3976     61.9980    0.508638
    0.512101    0.301841     17.1273     57.5019
   58.0696
     5.62500    0.530016     53.6019     63.0016    0.521035
    0.520413    0.255873     17.3907     60.1873
   58.1196
     5.65503    0.550000     56.0000     65.6005    0.542887
    0.541176    0.252514     16.8781     57.5019
   58.1696
     5.67500    0.519973     52.3967     62.3967    0.511069
    0.514089    0.280610     17.1274     57.5019
   58.2196
     5.65999    0.530024     51.8014     63.6028    0.515365
    0.523444    0.362407     17.3907     60.4697
   58.2696
     5.66501    0.550000     54.2008     65.3996    0.537390
    0.538348    0.313080     16.8270     57.5019
   58.3196
     5.67500    0.519984     51.9984     61.9984    0.512697
    0.510653    0.301832     17.1009     60.1873
   58.3696
     5.65999    0.530025     52.4020     63.6030    0.518191
    0.524410    0.268246     16.8781     57.5019
   58.4196
     5.65000    0.519973     50.9973     62.3967    0.508653
    0.513043    0.313080     17.1274     57.5019
   58.4696
     5.68002    0.530024     52.0024     63.0024    0.519753
    0.517829    0.300717     17.3907     60.4697
   58.5196
     5.70000    0.519980     52.1988     61.9980    0.513583
    0.510591    0.252513     16.8270     57.5019
   58.5696
     5.70000    0.530016     53.4013     63.6019    0.520835
    0.523904    0.268246     17.1009     57.5019
   58.6196
     5.70000    0.519975     51.9975     62.3970    0.510211
    0.512542    0.313080     17.3907     57.5019
   58.6696
     5.74504    0.530027     52.4022     63.6033    0.518056
    0.522191    0.324324     17.3907     57.5019
   58.7196
     5.77500    0.519976     51.5981     62.3972    0.510408
    0.512652    0.357923     17.3907     60.1873
   58.7696
     5.72997    0.530020     53.0020     63.0020    0.521227
    0.518026    0.313080     16.8782     57.5019
   58.8196
     5.70000    0.519984     51.3981     61.9984    0.508171
    0.509701    0.313080     17.1273     57.5019
   58.8696
     5.68499    0.530025     52.0025     63.6030    0.520651
    0.523803    0.313080     17.3907     60.4697
   58.9196
     5.67500    0.519973     51.5978     62.3967    0.511753
    0.514336    0.337816     16.8268     57.5019
   58.9696
     5.65999    0.530024     53.0024     63.0024    0.517203
    0.519359    0.422973     17.1010     57.5019
   59.0196
     5.65000    0.550000     55.6004     65.6004    0.541104
    0.541133    0.357923     17.3907     57.5019
   59.0696
     5.66501    0.519984     52.3981     62.3981    0.509772
    0.514412    0.313080     17.3907     60.1873
   59.1196
     5.69001    0.530025     53.0025     63.0025    0.517705
    0.519428    0.335576     16.8781     57.5019
   59.1696
     5.70000    0.519973     51.9973     61.9973    0.513496
    0.511016    0.415125     17.1274     57.5019
   59.2196
     5.68499    0.530024     53.0024     63.6028    0.519291
    0.524571    0.374770     17.3907     57.5019
   59.2696
     5.67500    0.519980     53.1988     61.7972    0.510930
    0.509419    0.373647     17.3907     57.5019
   59.3196
     5.69001    0.530016     54.4013     63.2022    0.522183
    0.520868    0.370287     17.3907     60.4697
   59.3696
     5.70000    0.550000     55.3995     65.3995    0.540477
    0.539865    0.373646     16.8269     57.5019
   59.4196
     5.74504    0.519973     51.9973     61.9973    0.508696
    0.511834    0.369162     17.1011     57.5019
   59.4696
     5.77500    0.530024     54.2033     63.6028    0.519794
    0.524711    0.382650     17.3907     57.5019
   59.5196
     5.75999    0.519980     53.3976     61.7972    0.509110
    0.509342    0.422974     17.3907     60.4697
   59.5696
     5.75000    0.500000     51.0000     59.6003    0.490680
    0.490757    0.370287     16.8270     57.5019
   59.6196
     5.70496    0.530025     54.0025     63.6030    0.521043
    0.523484    0.362397     17.1011     57.5019
   59.6696
     5.67500    0.519973     52.9973     62.3967    0.510291
    0.513361    0.313080     17.3907     60.4697
   59.7196
     5.65999    0.530024     54.0024     63.6028    0.519334
    0.523381    0.313080     16.8269     57.5019
   59.7696
     5.65000    0.550000     56.0000     65.3996    0.537463
    0.538016    0.301841     17.1010     57.5019
   59.8196
     5.66501    0.519984     53.5987     61.9984    0.511304
    0.510315    0.256998     17.3907     57.5019
   59.8696
     5.67500    0.530025     54.4020     63.6030    0.520971
    0.525192    0.255873     17.3907     60.1873
   59.9196
     5.64497    0.519973     52.9973     61.7962    0.512577
    0.509262    0.275002     16.8781     57.5019
   59.9696
     5.62500    0.530024     53.4019     63.2033    0.520948
    0.519328    0.357923     17.1274     57.5019
   60.0196
     5.62500    0.550000     55.0000     66.0000    0.538739
    0.543135    0.313080     17.3907     57.5019
   60.0696
     5.62500    0.519984     51.9984     62.3981    0.509111
    0.514054    0.324328     17.3907     57.5019
   60.1196
     5.62500    0.530025     52.4020     63.0025    0.519387
    0.519003    0.370287     17.3907     60.4697
   60.1696
     5.64001    0.550000     54.0000     65.6005    0.540996
    0.540568    0.373646     16.8268     57.5019
   60.2196
     5.65000    0.519976     50.9976     62.3972    0.506998
    0.514129    0.370286     17.1010     57.5019
   60.2696
     5.66501    0.530020     53.2028     63.6024    0.521745
    0.523453    0.373647     17.3907     57.5019
   60.3196
     5.67500    0.550000     55.3997     66.0000    0.541002
    0.543343    0.380410     17.3907     57.5019
   60.3696
     5.70503    0.519975     51.9975     61.7965    0.506416
    0.509340    0.415121     17.3907     60.1873
   60.4196
     5.72500    0.530027     53.6033     63.2038    0.521582
    0.521028    0.362402     16.8781     57.5019
   60.4696
     5.66495    0.519976     52.9976     62.3972    0.511668
    0.513316    0.335559     17.1274     57.5019
   60.5196
     5.62500    0.530020     54.0020     63.6024    0.520984
    0.522874    0.427492     17.3907     60.4697
   60.5696
     5.60999    0.519984     52.9984     61.7978    0.511562
    0.508370    0.422963     16.8270     57.5019
   60.6196
     5.60000    0.530025     54.0025     63.2035    0.516328
    0.520849    0.369162     17.1011     57.5019
   60.6696
     5.60000    0.550000     56.6005     66.0000    0.542493
    0.544395    0.382655     17.3907     57.5019
   60.7196
     5.60000    0.519976     53.3972     61.7967    0.513961
    0.509130    0.422973     17.3907     57.5019
   60.7696
     5.61501    0.530020     53.4016     63.2028    0.514982
    0.520402    0.369162     17.3907     60.1873
   60.8196
     5.64001    0.550000     56.2006     66.0000    0.536929
    0.543862    0.370287     16.8783     57.5019
   60.8696
     5.65000    0.519975     53.9975     62.3970    0.513013
    0.513610    0.373646     17.1274     57.5019
   60.9196
     5.61997    0.530027     54.4022     63.0027    0.519991
    0.518640    0.382655     17.3907     57.5019
