#------------------------------------------------------------
~VERSION INFORMATION
VERS.               2.0  :CWLS LOG ASCII STANDARD - VERSION 2.0
WRAP.               YES  :MULTIPLE LINES PER DEPTH STEP
#------------------------------------------------------------
~WELL INFORMATION
STRT.M          10.7196  :FIRST INDEX VALUE
STOP.M          246.770  :LAST INDEX VALUE
STEP.M          0.00000  :STEP
NULL.            -99999  :NULL VALUE
COMP.                    :COMPANY
WELL.                    :WELL
FLD.                     :FLD
LOC.                     :LOCATION
SRVC.                    :
CTRY.                    :COUNTRY
STAT.                    :STATE
CNTY.                    :
DATE.                    :DATE
API.                     :API
#------------------------------------------------------------
~CURVE INFORMATION
DEPT.M                   :DEPTH
SPEED.MT/MIN             :Speed
TIME.SEC                 :Time
POSCOUNT.COUNT           :Poscount
NEGCOUNT.COUNT           :Negcount
POSDT.SEC                :Posdt
NEGDT.SEC                :Negdt
MAG_SUSC.10E-3_SI_UNITS   :Mag Susc
INDUCTION.MS/M           :Induction
IND_RES.OHM-M            :Ind Res
#------------------------------------------------------------
~PARAMETER INFORMATION
BIT_FROM1.               :BIT FROM1
BIT_FROM2.               :BIT FROM2
BIT_FROM3.               :BIT FROM3
BIT_FROM4.               :BIT FROM4
BIT_FROM5.               :BIT FROM5
BIT_FROM6.               :BIT FROM6
BIT_TO1.                 :BIT TO1
BIT_TO2.                 :BIT TO2
BIT_TO3.                 :BIT TO3
BIT_TO4.                 :BIT TO4
BIT_TO5.                 :BIT TO5
BIT_TO6.                 :BIT TO6
BIT1.                    :BIT1
BIT2.                    :BIT2
BIT3.                    :BIT3
BIT4.                    :BIT4
BIT5.                    :BIT5
BIT6.                    :BIT6
BTM_LOGGED_INTERVAL.     :BTM LOGGED INTERVAL
CASING_FROM1.            :CASING FROM1
CASING_FROM2.            :CASING FROM2
CASING_FROM3.            :CASING FROM3
CASING_FROM4.            :CASING FROM4
CASING_FROM5.            :CASING FROM5
CASING_FROM6.            :CASING FROM6
CASING_SIZE1.            :CASING SIZE1
CASING_SIZE2.            :CASING SIZE2
CASING_SIZE3.            :CASING SIZE3
CASING_SIZE4.            :CASING SIZE4
CASING_SIZE5.            :CASING SIZE5
CASING_SIZE6.            :CASING SIZE6
CASING_TO1.              :CASING TO1
CASING_TO2.              :CASING TO2
CASING_TO3.              :CASING TO3
CASING_TO4.              :CASING TO4
CASING_TO5.              :CASING TO5
CASING_TO6.              :CASING TO6
CO.                      :CO
CTY.                     :CTY
D_F_.                    :D.F.
DENSITY.                 :DENSITY
DEPTH-DRILLER.           :DEPTH-DRILLER
DEPTH-LOGGER.            :DEPTH-LOGGER
DRILLING_MEAS__FROM.     :DRILLING MEAS. FROM
ELEVATION.               :ELEVATION
FIELD.                   :FIELD
FILING_No.               :FILING No
G_L_.                    :G.L.
K_B_.                    :K.B.
LEVEL.                   :LEVEL
LOG_MEAS__FROM.          :LOG MEAS. FROM
MAX__REC__TEMP_.         :MAX. REC. TEMP.
OPERATING_RIG_TIME.      :OPERATING RIG TIME
OTHER_SERVICES.          :OTHER SERVICES
PERMANENT_DATUM.         :PERMANENT DATUM
RECORDED_BY.             :RECORDED BY
RGE.                     :RGE
RUN_No.                  :RUN No
RUN1.                    :RUN1
RUN2.                    :RUN2
RUN3.                    :RUN3
RUN4.                    :RUN4
RUN5.                    :RUN5
RUN6.                    :RUN6
SALINITY.                :SALINITY
SEC.                     :SEC
STE.                     :STE
TITLE.                   :TITLE
TOP_LOGGED_INTERVAL.     :TOP LOGGED INTERVAL
TWP.                     :TWP
TYPE_FLUID_IN_HOLE.      :TYPE FLUID IN HOLE
TYPE_LOG.                :TYPE LOG
WELL_ID.                 :WELL ID
WGT1.                    :WGT1
WGT2.                    :WGT2
WGT3.                    :WGT3
WGT4.                    :WGT4
WGT5.                    :WGT5
WGT6.                    :WGT6
WITNESSED_BY.            :WITNESSED BY
#------------------------------------------------------------
~OTHER
#------------------------------------------------------------
~A
# ...
   134.670
     5.66998    0.530021     54.4017     63.0021    0.520769
    0.519306    0.384890     17.3907     60.1873
   134.720
     5.65000    0.550000     56.6005     65.6005    0.541926
    0.540979    0.415125     16.8782     57.5019
   134.770
     5.68003    0.519973     53.3967     62.3967    0.510970
    0.514161    0.396140     17.1274     57.5019
   134.820
     5.71501    0.530021     54.0021     63.0021    0.519195
    0.519052    0.472334     17.3907     57.5019
   134.870
     5.72500    0.519982     52.9982     61.9982    0.507478
    0.510632    0.434215     17.3907     57.5019
   134.920
     5.72500    0.530021     54.6026     63.6026    0.522023
    0.524216    0.436488     17.3907     57.5019
   134.970
     5.72500    0.519973     53.3967     61.7962    0.509144
    0.509025    0.459963     17.3907     60.4697
   135.020
     5.67996    0.530027     54.6033     63.2038    0.521977
    0.520553    0.384893     16.8268     57.5019
   135.070
     5.65000    0.519979     53.3974     62.3974    0.508942
    0.513717    0.436485     17.1008     57.5019
   135.120
     5.65000    0.530018     55.2026     63.6022    0.522558
    0.523712    0.472342     17.3907     57.5019
   135.170
     5.65000    0.519979     54.3974     62.3974    0.513181
    0.513415    0.422968     17.3907     57.5019
   135.220
     5.65000    0.530027     55.0027     63.0027    0.516187
    0.518308    0.382655     17.3907     60.1873
   135.270
     5.65000    0.550000     57.6005     65.6005    0.541905
    0.539938    0.445459     16.8781     57.5019
   135.320
     5.65000    0.519979     53.7970     62.3974    0.509047
    0.513124    0.472334     17.1272     57.5019
   135.370
     5.65000    0.530018     54.6022     63.6022    0.517160
    0.523157    0.434215     17.3907     57.5019
   135.420
     5.66501    0.550000     57.6004     66.0000    0.542943
    0.543182    0.427493     17.3907     57.5019
   135.470
     5.67500    0.519973     54.3967     61.7962    0.510999
    0.508096    0.436461     17.3907     60.1873
   135.520
     5.69001    0.530027     54.4022     63.2038    0.517541
    0.520029    0.434211     16.8781     57.5019
   135.570
     5.70000    0.519979     53.5983     62.3974    0.511394
    0.513270    0.427492     17.1272     57.5019
   135.620
     5.71501    0.530018     55.6022     63.6022    0.523817
    0.523272    0.445445     17.3907     57.5019
   135.670
     5.72500    0.519979     54.3974     62.3974    0.509942
    0.513187    0.472331     17.3907     57.5019
   135.720
     5.78505    0.530027     55.0027     63.0027    0.518635
    0.518215    0.445456     17.3907     57.5019
   135.770
     5.79497    0.519973     53.9973     61.9973    0.510360
    0.509777    0.472329     17.3907     60.4697
   135.820
     5.77500    0.500000     52.0000     60.0000    0.489841
    0.493063    0.434213     16.8271     57.5019
   135.870
     5.72997    0.530018     55.0018     63.6022    0.518697
    0.523147    0.439844     17.1010     57.5019
   135.920
     5.70000    0.519979     53.9979     62.3974    0.509581
    0.513033    0.494778     17.3907     57.5019
   135.970
     5.71501    0.530027     55.6033     63.6033    0.522344
    0.523449    0.472331     17.3907     57.5019
   136.020
     5.72500    0.519973     54.3967     61.7962    0.509566
    0.508749    0.445459     17.3907     57.5019
   136.070
     5.70999    0.530021     55.6026     63.2030    0.521693
    0.520197    0.472334     17.3907     60.4697
   136.120
     5.70000    0.519982     54.3978     62.3978    0.511154
    0.513175    0.436461     16.8269     57.5019
   136.170
     5.71501    0.530021     55.0021     63.6026    0.517884
    0.523217    0.445456     17.1009     57.5019
   136.220
     5.72500    0.519973     54.5978     62.3967    0.512757
    0.513144    0.472331     17.3907     57.5019
   136.270
     5.72500    0.530027     56.0027     63.0027    0.524552
    0.518178    0.436461     17.3907     57.5019
   136.320
     5.72500    0.519979     54.3974     61.9979    0.508802
    0.509755    0.445453     17.3907     60.1873
   136.370
     5.77003    0.530018     55.6022     63.6022    0.520416
    0.523129    0.472342     16.8782     57.5019
   136.420
     5.80000    0.519979     54.3974     62.3974    0.509184
    0.512686    0.445456     17.1273     57.5019
   136.470
     5.78499    0.500000     52.0000     60.0000    0.488840
    0.492815    0.472331     17.3907     57.5019
   136.520
     5.77500    0.530027     55.6033     63.0027    0.523425
    0.518781    0.445459     17.3907     57.5019
   136.570
     5.79001    0.519979     54.3974     61.9979    0.510919
    0.510318    0.472334     17.3907     60.4697
   136.620
     5.80000    0.500000     52.0000     60.0000    0.486790
    0.493114    0.434215     16.8269     57.5019
   136.670
     5.73996    0.530021     55.6026     63.6026    0.520425
    0.523081    0.427493     17.1009     57.5019
   136.720
     5.70000    0.519973     54.3967     62.3967    0.509204
    0.513027    0.422968     17.3907     57.5019
   136.770
     5.71501    0.530027     55.6033     63.6033    0.521634
    0.523055    0.382659     17.3907     57.5019
   136.820
     5.69498    0.519979     54.3974     61.7970    0.510584
    0.508030    0.422972     17.3907     60.1873
   136.870
     5.67500    0.530018     55.6022     63.2026    0.522928
    0.519802    0.382638     16.8782     57.5019
   136.920
     5.69001    0.519979     54.3974     62.3974    0.512188
    0.512954    0.422968     17.1273     57.5019
   136.970
     5.70000    0.530027     55.0027     63.6033    0.519525
    0.522890    0.370287     17.3907     57.5019
   137.020
     5.70000    0.519973     53.9973     62.3967    0.511299
    0.512822    0.384893     17.3907     57.5019
   137.070
     5.70000    0.530021     54.4017     63.6026    0.518997
    0.522971    0.415128     17.3907     57.5019
   137.120
     5.71501    0.519982     53.5985     61.7974    0.511445
    0.508023    0.387124     17.3907     60.4697
   137.170
     5.72500    0.530021     54.4017     63.2030    0.518701
    0.519867    0.434212     16.8270     57.5019
   137.220
     5.75503    0.519973     53.5978     62.3967    0.510692
    0.513116    0.425244     17.1010     57.5019
   137.270
     5.77500    0.530027     54.4022     63.6033    0.519854
    0.523260    0.427494     17.3907     57.5019
   137.320
     5.79001    0.519979     52.9979     62.3974    0.507568
    0.513184    0.434213     17.3907     57.5019
   137.370
     5.80000    0.530018     54.6022     63.0018    0.522965
    0.518239    0.427490     17.3907     57.5019
   137.420
     5.73996    0.519979     53.3974     61.9979    0.508505
    0.510007    0.434212     17.3907     60.4697
   137.470
     5.70000    0.500000     51.6005     60.0000    0.490923
    0.493626    0.415125     16.8269     57.5019
   137.520
     5.70000    0.530027     55.0027     63.6033    0.523246
    0.523733    0.396140     17.1011     57.5019
   137.570
     5.70000    0.550000     57.0000     66.0000    0.539885
    0.543480    0.472334     17.3907     57.5019
   137.620
     5.70000    0.519982     53.9982     61.7974    0.510628
    0.508211    0.434215     17.3907     57.5019
   137.670
     5.70000    0.530021     55.0021     63.2030    0.519694
    0.519929    0.427493     17.3907     60.1873
   137.720
     5.66997    0.519973     53.9973     62.3967    0.510891
    0.513141    0.434212     16.8782     57.5019
   137.770
     5.65000    0.530027     55.0027     63.6033    0.521289
    0.523296    0.427494     17.1274     57.5019
   137.820
     5.68002    0.519979     53.3974     62.3974    0.505471
    0.513250    0.436461     17.3907     57.5019
   137.870
     5.73002    0.530018     55.2026     63.0018    0.522256
    0.518229    0.434215     17.3907     57.5019
   137.920
     5.75000    0.519979     54.3974     61.9979    0.513983
    0.509816    0.415125     17.3907     60.4697
   137.970
     5.75000    0.530027     55.0027     63.6033    0.520141
    0.523255    0.396134     16.8269     57.5019
