#------------------------------------------------------------
~VERSION INFORMATION
VERS.               2.0  :CWLS LOG ASCII STANDARD - VERSION 2.0
WRAP.               YES  :MULTIPLE LINES PER DEPTH STEP
#------------------------------------------------------------
~WELL INFORMATION
STRT.M          10.7196  :FIRST INDEX VALUE
STOP.M          246.770  :LAST INDEX VALUE
STEP.M          0.00000  :STEP
NULL.            -99999  :NULL VALUE
COMP.                    :COMPANY
WELL.                    :WELL
FLD.                     :FLD
LOC.                     :LOCATION
SRVC.                    :
CTRY.                    :COUNTRY
STAT.                    :STATE
CNTY.                    :
DATE.                    :DATE
API.                     :API
#------------------------------------------------------------
~CURVE INFORMATION
DEPT.M                   :DEPTH
SPEED.MT/MIN             :Speed
TIME.SEC                 :Time
POSCOUNT.COUNT           :Poscount
NEGCOUNT.COUNT           :Negcount
POSDT.SEC                :Posdt
NEGDT.SEC                :Negdt
MAG_SUSC.10E-3_SI_UNITS   :Mag Susc
INDUCTION.MS/M           :Induction
IND_RES.OHM-M            :Ind Res
#------------------------------------------------------------
~PARAMETER INFORMATION
BIT_FROM1.               :BIT FROM1
BIT_FROM2.               :BIT FROM2
BIT_FROM3.               :BIT FROM3
BIT_FROM4.               :BIT FROM4
BIT_FROM5.               :BIT FROM5
BIT_FROM6.               :BIT FROM6
BIT_TO1.                 :BIT TO1
BIT_TO2.                 :BIT TO2
BIT_TO3.                 :BIT TO3
BIT_TO4.                 :BIT TO4
BIT_TO5.                 :BIT TO5
BIT_TO6.                 :BIT TO6
BIT1.                    :BIT1
BIT2.                    :BIT2
BIT3.                    :BIT3
BIT4.                    :BIT4
BIT5.                    :BIT5
BIT6.                    :BIT6
BTM_LOGGED_INTERVAL.     :BTM LOGGED INTERVAL
CASING_FROM1.            :CASING FROM1
CASING_FROM2.            :CASING FROM2
CASING_FROM3.            :CASING FROM3
CASING_FROM4.            :CASING FROM4
CASING_FROM5.            :CASING FROM5
CASING_FROM6.            :CASING FROM6
CASING_SIZE1.            :CASING SIZE1
CASING_SIZE2.            :CASING SIZE2
CASING_SIZE3.            :CASING SIZE3
CASING_SIZE4.            :CASING SIZE4
CASING_SIZE5.            :CASING SIZE5
CASING_SIZE6.            :CASING SIZE6
CASING_TO1.              :CASING TO1
CASING_TO2.              :CASING TO2
CASING_TO3.              :CASING TO3
CASING_TO4.              :CASING TO4
CASING_TO5.              :CASING TO5
CASING_TO6.              :CASING TO6
CO.                      :CO
CTY.                     :CTY
D_F_.                    :D.F.
DENSITY.                 :DENSITY
DEPTH-DRILLER.           :DEPTH-DRILLER
DEPTH-LOGGER.            :DEPTH-LOGGER
DRILLING_MEAS__FROM.     :DRILLING MEAS. FROM
ELEVATION.               :ELEVATION
FIELD.                   :FIELD
FILING_No.               :FILING No
G_L_.                    :G.L.
K_B_.                    :K.B.
LEVEL.                   :LEVEL
LOG_MEAS__FROM.          :LOG MEAS. FROM
MAX__REC__TEMP_.         :MAX. REC. TEMP.
OPERATING_RIG_TIME.      :OPERATING RIG TIME
OTHER_SERVICES.          :OTHER SERVICES
PERMANENT_DATUM.         :PERMANENT DATUM
RECORDED_BY.             :RECORDED BY
RGE.                     :RGE
RUN_No.                  :RUN No
RUN1.                    :RUN1
RUN2.                    :RUN2
RUN3.                    :RUN3
RUN4.                    :RUN4
RUN5.                    :RUN5
RUN6.                    :RUN6
SALINITY.                :SALINITY
SEC.                     :SEC
STE.                     :STE
TITLE.                   :TITLE
TOP_LOGGED_INTERVAL.     :TOP LOGGED INTERVAL
TWP.                     :TWP
TYPE_FLUID_IN_HOLE.      :TYPE FLUID IN HOLE
TYPE_LOG.                :TYPE LOG
WELL_ID.                 :WELL ID
WGT1.                    :WGT1
WGT2.                    :WGT2
WGT3.                    :WGT3
WGT4.                    :WGT4
WGT5.                    :WGT5
WGT6.                    :WGT6
WITNESSED_BY.            :WITNESSED BY
#------------------------------------------------------------
~OTHER
#------------------------------------------------------------
~A
# ...
   40.8696
     5.72500    0.530021     53.6026     63.0021    0.519483
    0.519196    0.494778     17.1010     57.5019
   40.9196
     5.74001    0.519973     52.9973     61.9973    0.508677
    0.510539    0.472331     17.3907     57.5019
   40.9696
     5.75000    0.530024     54.6028     63.6028    0.521042
    0.523533    0.422973     17.3907     60.4697
   41.0196
     5.76501    0.519980     53.9980     62.3976    0.513846
    0.513753    0.380401     16.8270     57.5019
   41.0696
     5.77500    0.500000     52.0000     59.3997    0.489722
    0.489000    0.427494     17.1009     57.5019
   41.1196
     5.72997    0.530021     55.6026     63.2030    0.520141
    0.520934    0.422968     17.3907     60.1873
   41.1696
     5.70000    0.519973     54.9973     61.7962    0.512347
    0.510033    0.370287     16.8781     57.5019
   41.2196
     5.68499    0.530024     56.0024     63.2033    0.521990
    0.522219    0.373646     17.1274     57.5019
   41.2696
     5.67500    0.519980     54.3976     62.3976    0.510841
    0.514645    0.370286     17.3907     57.5019
   41.3196
     5.65999    0.530016     54.4013     63.0016    0.515496
    0.519339    0.384894     17.3907     57.5019
   41.3696
     5.65000    0.550000     56.6004     65.6004    0.539546
    0.541339    0.415125     17.3907     57.5019
   41.4196
     5.66501    0.519973     53.9973     62.3967    0.514106
    0.514523    0.384890     17.3907     60.4697
   41.4696
     5.67500    0.530024     54.4019     63.0024    0.520213
    0.519716    0.439856     16.8269     57.5019
   41.5196
     5.67500    0.519980     52.9980     61.9980    0.509848
    0.511381    0.483541     17.1010     57.5019
   41.5696
     5.67500    0.530016     54.0016     63.6019    0.519854
    0.524374    0.427494     17.3907     57.5019
   41.6196
     5.69001    0.519979     52.9979     61.7970    0.508501
    0.508666    0.434212     17.3907     57.5019
   41.6696
     5.70000    0.530027     54.6033     63.2038    0.522088
    0.520062    0.427493     17.3907     57.5019
   41.7196
     5.71501    0.519976     53.3972     62.3972    0.507567
    0.513420    0.434213     17.3907     60.4697
   41.7696
     5.74001    0.530020     54.6024     63.6024    0.517174
    0.523850    0.427492     16.8270     57.5019
   41.8196
     5.75000    0.519984     54.5987     61.7978    0.514923
    0.508967    0.422963     17.1009     57.5019
   41.8696
     5.76501    0.530021     55.4017     63.2030    0.522537
    0.520411    0.370287     17.3907     57.5019
   41.9196
     5.77500    0.519973     53.9973     62.3967    0.509149
    0.513839    0.384890     17.3907     57.5019
   41.9696
     5.71495    0.530024     55.0024     63.6028    0.517783
    0.524538    0.425244     17.3907     57.5019
   42.0196
     5.67500    0.519980     53.9980     61.7972    0.508278
    0.509517    0.415130     17.3907     60.1873
   42.0696
     5.65999    0.530016     55.0016     63.2022    0.519997
    0.521067    0.384894     16.8783     57.5019
   42.1196
     5.65000    0.519979     53.9979     62.3974    0.513877
    0.513909    0.402757     17.1274     57.5019
   42.1696
     5.68003    0.530027     54.4022     63.0027    0.521346
    0.518469    0.335568     17.3907     57.5019
   42.2196
     5.70000    0.519976     52.9976     61.9976    0.507835
    0.509809    0.415129     17.3907     57.5019
   42.2696
     5.68499    0.530020     54.6024     63.6024    0.520992
    0.523154    0.384885     17.3907     60.1873
   42.3196
     5.67500    0.550000     57.0000     66.0000    0.544249
    0.543249    0.427494     16.8783     57.5019
   42.3696
     5.69001    0.519979     53.3974     62.3974    0.509328
    0.513020    0.422968     17.1274     57.5019
   42.4196
     5.70000    0.530027     54.6033     63.6033    0.521093
    0.522699    0.370287     17.3907     57.5019
   42.4696
     5.71501    0.519976     52.7967     61.7967    0.507264
    0.507660    0.399497     17.3907     57.5019
   42.5196
     5.72500    0.530020     54.2028     63.2028    0.521553
    0.519581    0.483541     17.3907     57.5019
   42.5696
     5.74001    0.519984     53.3981     62.3981    0.509657
    0.512919    0.427494     17.3907     57.5019
   42.6196
     5.75000    0.530021     54.6026     63.6026    0.517748
    0.523128    0.422968     17.3907     60.4697
   42.6696
     5.75000    0.519973     53.9973     62.3967    0.513932
    0.513114    0.395023     16.8268     57.5019
   42.7196
     5.76501    0.530024     54.4019     63.6028    0.521562
    0.523184    0.483540     17.1010     57.5019
   42.7696
     5.77500    0.519980     52.9980     61.7972    0.505635
    0.508104    0.425244     17.3907     57.5019
   42.8196
     5.71497    0.500000     52.2006     59.6003    0.492785
    0.489795    0.415121     17.3907     57.5019
   42.8696
     5.67500    0.530021     55.4017     63.6026    0.521509
    0.523271    0.396134     17.3907     60.4697
   42.9196
     5.65999    0.519973     53.9973     62.3967    0.511038
    0.513238    0.497068     16.8268     57.5019
   42.9696
     5.65000    0.530024     54.4019     63.6028    0.516906
    0.523272    0.532867     17.1010     57.5019
   43.0196
     5.66501    0.519980     54.1988     62.3976    0.512318
    0.513029    0.436483     17.3907     57.5019
   43.0696
     5.67500    0.530016     55.4013     63.0016    0.522670
    0.518065    0.484701     17.3907     60.1873
   43.1196
     5.65999    0.550000     57.0000     65.6004    0.537691
    0.539914    0.494778     16.8782     57.5019
   43.1696
     5.65000    0.519973     53.3967     62.3967    0.506686
    0.513146    0.472331     17.1274     57.5019
   43.2196
     5.68002    0.530024     55.2033     63.6028    0.519719
    0.523191    0.434213     17.3907     57.5019
   43.2696
     5.70000    0.519980     55.5984     62.3976    0.513276
    0.513075    0.427492     17.3907     60.1873
   43.3196
     5.68499    0.530016     55.8010     63.0016    0.519013
    0.518024    0.436461     16.8783     57.5019
   43.3696
     5.67500    0.550000     57.6004     65.6004    0.541488
    0.539901    0.422968     17.1274     60.1873
   43.4196
     5.70503    0.519973     54.9973     62.3967    0.514692
    0.513220    0.382655     16.8781     57.5019
   43.4696
     5.72500    0.530024     56.0024     63.6028    0.519215
    0.523324    0.434213     17.1274     57.5019
   43.5196
     5.74001    0.519980     54.3976     62.3976    0.510099
    0.513183    0.425244     17.3907     57.5019
   43.5696
     5.75000    0.530016     55.0016     63.6019    0.521072
    0.522493    0.415121     17.3907     57.5019
   43.6196
     5.73499    0.519979     53.9979     62.3974    0.510765
    0.511961    0.384890     17.3907     60.1873
   43.6696
     5.70999    0.500000     52.0000     59.3995    0.491325
    0.487436    0.427493     16.8781     57.5019
   43.7196
     5.70000    0.530024     54.4019     63.2033    0.515904
    0.519748    0.434213     17.1274     57.5019
   43.7696
     5.68499    0.519980     53.5984     62.3976    0.508704
    0.513143    0.425244     17.3907     57.5019
   43.8196
     5.67500    0.530016     55.0016     63.6019    0.522601
    0.523124    0.427494     17.3907     57.5019
   43.8696
     5.65999    0.550000     57.0000     66.0000    0.542225
    0.543666    0.445456     17.3907     57.5019
   43.9196
     5.65000    0.519973     53.3967     61.7962    0.508036
    0.508675    0.472331     17.3907     60.1873
   43.9696
     5.66501    0.530024     54.6028     63.2033    0.519528
    0.520166    0.445452     16.8782     57.5019
   44.0196
     5.67500    0.519980     53.9980     62.3976    0.512165
    0.513804    0.472336     17.1273     57.5019
   44.0696
     5.69001    0.530016     55.0016     63.6019    0.519388
    0.523831    0.434211     17.3907     57.5019
   44.1196
     5.70000    0.550000     57.0000     65.3996    0.538164
    0.538932    0.439861     17.3907     57.5019
   44.1696
     5.70000    0.519973     53.9973     61.9973    0.510810
    0.510635    0.485783     17.3907     57.5019
