#------------------------------------------------------------
~VERSION INFORMATION
VERS.               2.0  :CWLS LOG ASCII STANDARD - VERSION 2.0
WRAP.               YES  :MULTIPLE LINES PER DEPTH STEP
#------------------------------------------------------------
~WELL INFORMATION
STRT.M          10.7196  :FIRST INDEX VALUE
STOP.M          246.770  :LAST INDEX VALUE
STEP.M          0.00000  :STEP
NULL.            -99999  :NULL VALUE
COMP.                    :COMPANY
WELL.                    :WELL
FLD.                     :FLD
LOC.                     :LOCATION
SRVC.                    :
CTRY.                    :COUNTRY
STAT.                    :STATE
CNTY.                    :
DATE.                    :DATE
API.                     :API
#------------------------------------------------------------
~CURVE INFORMATION
DEPT.M                   :DEPTH
SPEED.MT/MIN             :Speed
TIME.SEC                 :Time
POSCOUNT.COUNT           :Poscount
NEGCOUNT.COUNT           :Negcount
POSDT.SEC                :Posdt
NEGDT.SEC                :Negdt
MAG_SUSC.10E-3_SI_UNITS   :Mag Susc
INDUCTION.MS/M           :Induction
IND_RES.OHM-M            :Ind Res
#------------------------------------------------------------
~PARAMETER INFORMATION
BIT_FROM1.               :BIT FROM1
BIT_FROM2.               :BIT FROM2
BIT_FROM3.               :BIT FROM3
BIT_FROM4.               :BIT FROM4
BIT_FROM5.               :BIT FROM5
BIT_FROM6.               :BIT FROM6
BIT_TO1.                 :BIT TO1
BIT_TO2.                 :BIT TO2
BIT_TO3.                 :BIT TO3
BIT_TO4.                 :BIT TO4
BIT_TO5.                 :BIT TO5
BIT_TO6.                 :BIT TO6
BIT1.                    :BIT1
BIT2.                    :BIT2
BIT3.                    :BIT3
BIT4.                    :BIT4
BIT5.                    :BIT5
BIT6.                    :BIT6
BTM_LOGGED_INTERVAL.     :BTM LOGGED INTERVAL
CASING_FROM1.            :CASING FROM1
CASING_FROM2.            :CASING FROM2
CASING_FROM3.            :CASING FROM3
CASING_FROM4.            :CASING FROM4
CASING_FROM5.            :CASING FROM5
CASING_FROM6.            :CASING FROM6
CASING_SIZE1.            :CASING SIZE1
CASING_SIZE2.            :CASING SIZE2
CASING_SIZE3.            :CASING SIZE3
CASING_SIZE4.            :CASING SIZE4
CASING_SIZE5.            :CASING SIZE5
CASING_SIZE6.            :CASING SIZE6
CASING_TO1.              :CASING TO1
CASING_TO2.              :CASING TO2
CASING_TO3.              :CASING TO3
CASING_TO4.              :CASING TO4
CASING_TO5.              :CASING TO5
CASING_TO6.              :CASING TO6
CO.                      :CO
CTY.                     :CTY
D_F_.                    :D.F.
DENSITY.                 :DENSITY
DEPTH-DRILLER.           :DEPTH-DRILLER
DEPTH-LOGGER.            :DEPTH-LOGGER
DRILLING_MEAS__FROM.     :DRILLING MEAS. FROM
ELEVATION.               :ELEVATION
FIELD.                   :FIELD
FILING_No.               :FILING No
G_L_.                    :G.L.
K_B_.                    :K.B.
LEVEL.                   :LEVEL
LOG_MEAS__FROM.          :LOG MEAS. FROM
MAX__REC__TEMP_.         :MAX. REC. TEMP.
OPERATING_RIG_TIME.      :OPERATING RIG TIME
OTHER_SERVICES.          :OTHER SERVICES
PERMANENT_DATUM.         :PERMANENT DATUM
RECORDED_BY.             :RECORDED BY
RGE.                     :RGE
RUN_No.                  :RUN No
RUN1.                    :RUN1
RUN2.                    :RUN2
RUN3.                    :RUN3
RUN4.                    :RUN4
RUN5.                    :RUN5
RUN6.                    :RUN6
SALINITY.                :SALINITY
SEC.                     :SEC
STE.                     :STE
TITLE.                   :TITLE
TOP_LOGGED_INTERVAL.     :TOP LOGGED INTERVAL
TWP.                     :TWP
TYPE_FLUID_IN_HOLE.      :TYPE FLUID IN HOLE
TYPE_LOG.                :TYPE LOG
WELL_ID.                 :WELL ID
WGT1.                    :WGT1
WGT2.                    :WGT2
WGT3.                    :WGT3
WGT4.                    :WGT4
WGT5.                    :WGT5
WGT6.                    :WGT6
WITNESSED_BY.            :WITNESSED BY
#------------------------------------------------------------
~OTHER
#------------------------------------------------------------
~A
   10.7196
    -99999.0    -99999.0    -99999.0    -99999.0    -99999.0
    -99999.0    -99999.0    -99999.0     4.38185
   10.7696
    -99999.0    -99999.0    -99999.0    -99999.0    -99999.0
    -99999.0    -99999.0    -99999.0     4.36559
   10.8196
    -99999.0    -99999.0    -99999.0    -99999.0    -99999.0
    -99999.0    -99999.0     228.777     4.49971
   10.8696
    -99999.0    -99999.0    -99999.0    -99999.0    -99999.0
    -99999.0    -99999.0     224.557     4.56321
   10.9196
    -99999.0    -99999.0    -99999.0    -99999.0    -99999.0
    -99999.0    -99999.0     220.188     4.26980
   10.9696
    -99999.0    -99999.0    -99999.0    -99999.0    -99999.0
    -99999.0    -99999.0     229.079     3.81162
   11.0196
    -99999.0    -99999.0    -99999.0    -99999.0    -99999.0
    -99999.0    -99999.0     252.793     3.78588
   11.0696
    -99999.0    -99999.0    -99999.0    -99999.0    -99999.0
    -99999.0    -99999.0     263.534     3.78704
   11.1196
    -99999.0    -99999.0    -99999.0    -99999.0    -99999.0
    -99999.0    -99999.0     264.088     3.85389
   11.1696
    -99999.0    -99999.0    -99999.0    -99999.0    -99999.0
    -99999.0    -99999.0     261.038     3.99357
   11.2196
    -99999.0    -99999.0    -99999.0    -99999.0    -99999.0
    -99999.0    -99999.0     253.487     4.07695
   11.2696
    -99999.0    -99999.0    -99999.0    -99999.0    -99999.0
    -99999.0    -99999.0     247.023     4.17887
   11.3196
    -99999.0    -99999.0    -99999.0    -99999.0    -99999.0
    -99999.0    -99999.0     241.338     4.58447
   11.3696
    -99999.0    -99999.0    -99999.0    -99999.0    -99999.0
    -99999.0    -99999.0     225.778     25.3256
   11.4196
    -99999.0    -99999.0    -99999.0    -99999.0    -99999.0
    -99999.0    -99999.0     100.413     123.771
   11.4696
    -99999.0    -99999.0    -99999.0    -99999.0    -99999.0
    -99999.0     361.560     18.7726     124.988
   11.5196
    -99999.0    -99999.0    -99999.0    -99999.0    -99999.0
    -99999.0     361.782     8.02821     158.853
   11.5696
    -99999.0    -99999.0    -99999.0    -99999.0    -99999.0
    -99999.0     361.699     6.87442     139.893
   11.6196
    -99999.0    -99999.0    -99999.0    -99999.0    -99999.0
    -99999.0     354.158     6.85863     139.891
   11.6696
    -99999.0    -99999.0    -99999.0    -99999.0    -99999.0
    -99999.0     274.298     7.14833     136.933
   11.7196
    -99999.0    -99999.0    -99999.0    -99999.0    -99999.0
    -99999.0     52.5071     7.25084     158.746
   11.7696
    -99999.0    -99999.0    -99999.0    -99999.0    -99999.0
    -99999.0     4.87306     6.63725    -65.7783
   11.8196
     5.77500    0.500000     5907.40     307.600    0.499896
    0.498881     1.20770    -7.90073    -29.5672
   11.8696
     5.75999    0.500000     5910.20     303.196    0.499935
    0.498694    0.549636    -27.5004    -29.5389
   11.9196
     5.75000    0.530026     6256.29     315.613    0.529842
    0.527736    0.362405    -33.8213     15.3364
   11.9696
     5.75000    0.519977     5800.88     318.795    0.519848
    0.518268    0.301842     31.5817     8.85636
   12.0196
     5.75000    0.500000     2787.91     333.813    0.498798
    0.498501    0.255874     96.7598     20.0139
   12.0696
     5.78002    0.530017     525.283     369.213    0.526708
    0.528873    0.239016     71.3737     33.1260
   12.1196
     5.80000    0.519978     100.962     362.984    0.514854
    0.518836    0.203193     36.9097     42.3784
   12.1696
     5.80000    0.530026     62.7964     366.415    0.520520
    0.528222    0.255874     25.8366     46.1729
   12.2196
     5.80000    0.519977     54.5959     350.980    0.509599
    0.518402    0.226665     22.3169     48.7943
   12.2696
     5.78499    0.500000     50.3996     329.398    0.491241
    0.498580    0.140371     20.8896     50.1222
   12.3196
     5.77500    0.530017     52.4014     342.008    0.520665
    0.528184    0.189699     20.1358     50.7132
   12.3696
     5.80502    0.519978     50.9978     318.375    0.511026
    0.518560    0.191948     19.7976     50.1234
   12.4196
     5.82500    0.500000     48.3995     169.893    0.486527
    0.492700    0.186301     19.8723     52.3623
   12.4696
     5.87003    0.530023     51.6027     66.7855    0.521679
    0.523857    0.142619     19.3875     52.7908
   12.5196
     5.90000    0.519980     50.9980     50.9980    0.513950
    0.513950    0.186305     18.9953     52.3620
   12.5696
     5.86998    0.500000     47.7993     47.7993    0.484736
    0.484736    0.131384     19.0451     52.3623
   12.6196
     5.85000    0.500000     47.6004     47.6004    0.486219
    0.486219    0.153829     19.0978     52.7907
   12.6696
     5.80496    0.500000     48.0000     48.0000    0.491702
    0.491702    0.202065     18.9953     52.3623
   12.7196
     5.77500    0.530023     51.0023     51.0023    0.523744
    0.523744    0.241275     19.0451     52.7908
   12.7696
     5.75999    0.519980     49.3976     49.3976    0.506608
    0.506608    0.211030     18.9953     52.3622
   12.8196
     5.75000    0.530017     50.6020     33.1922    0.520648
    0.337358    0.241265     19.0451     52.7924
   12.8696
     5.76501    0.519978     49.3973     9.58929    0.508083
   0.0964712    0.211036     18.9953     54.8104
   12.9196
     5.74497    0.530026     50.0026     0.00000    0.515909
     0.00000    0.241272     18.4813     52.7922
   12.9696
     5.72500    0.519977     49.5982     69.6527    0.509286
    0.157241    0.198668     18.7056     54.8107
   13.0196
     5.72500    0.500000     48.6004     149.622    0.493172
    0.403593    0.191947     18.4814     52.7919
   13.0696
     5.72500    0.530017     51.4014     133.578    0.520541
    0.526812    0.211040     18.7055     54.8100
   13.1196
     5.72500    0.519978     50.5982     88.1853    0.511800
    0.513789    0.239020     18.4813     52.3637
   13.1696
     5.72500    0.530026     51.4020     74.3995    0.519105
    0.520383    0.191948     18.8081     55.0443
   13.2196
     5.74001    0.519977     50.5982     68.5959    0.510773
    0.511208    0.198668     18.4827     52.3620
   13.2696
     5.75000    0.530020     51.4016     68.0020    0.519897
    0.522111    0.189699     18.7817     52.3622
   13.3196
     5.82504    0.519983     49.9983     65.7976    0.505853
    0.511815    0.191949     19.0978     52.7924
   13.3696
     5.87500    0.530022     51.0022     66.6027    0.517836
    0.522535    0.198667     18.9953     54.8104
   13.4196
     5.79994    0.519974     50.5980     65.3969    0.514333
    0.515815    0.191948     18.4813     52.7908
   13.4696
     5.75000    0.500000     48.3995     62.3995    0.492261
    0.493920    0.198668     18.7056     52.3634
   13.5196
     5.73499    0.530020     51.0020     65.6024    0.518850
    0.521093    0.203186     19.0451     55.0446
   13.5696
     5.72500    0.519983     49.9983     64.3980    0.508460
    0.511812    0.243499     18.4828     52.3609
   13.6196
     5.72500    0.500000     48.0000     62.0000    0.489617
    0.492460    0.191948     18.7818     50.7147
   13.6696
     5.72500    0.530026     51.0026     65.6031    0.518979
    0.521546    0.211033     19.5079     52.3611
   13.7196
     5.72500    0.519977     49.9977     64.3973    0.508273
    0.511814    0.241275     19.3085     50.7133
   13.7696
     5.72500    0.530020     51.0020     65.6024    0.518994
    0.521698    0.211030     19.5078     50.1222
   13.8196
     5.74001    0.519983     49.9983     64.3980    0.507039
    0.512146    0.239016     19.8723     50.7132
   13.8696
     5.75000    0.530022     51.6027     65.6027    0.522610
    0.522573    0.180703     19.7976     50.1223
   13.9196
     5.76501    0.519974     50.3969     63.7964    0.510600
    0.508989    0.153827     19.8723     50.7133
   13.9696
     5.77500    0.530023     51.0023     65.2032    0.517063
    0.521604    0.189699     19.7976     50.1219
   14.0196
     5.75999    0.519980     50.5984     63.7972    0.512506
    0.511311    0.191947     19.8723     50.1222
