#------------------------------------------------------------
~VERSION INFORMATION
VERS.               2.0  :CWLS LOG ASCII STANDARD - VERSION 2.0
WRAP.               YES  :MULTIPLE LINES PER DEPTH STEP
#------------------------------------------------------------
~WELL INFORMATION
STRT.M          10.7196  :FIRST INDEX VALUE
STOP.M          246.770  :LAST INDEX VALUE
STEP.M          0.00000  :STEP
NULL.            -99999  :NULL VALUE
COMP.                    :COMPANY
WELL.                    :WELL
FLD.                     :FLD
LOC.                     :LOCATION
SRVC.                    :
CTRY.                    :COUNTRY
STAT.                    :STATE
CNTY.                    :
DATE.                    :DATE
API.                     :API
#------------------------------------------------------------
~CURVE INFORMATION
DEPT.M                   :DEPTH
SPEED.MT/MIN             :Speed
TIME.SEC                 :Time
POSCOUNT.COUNT           :Poscount
NEGCOUNT.COUNT           :Negcount
POSDT.SEC                :Posdt
NEGDT.SEC                :Negdt
MAG_SUSC.10E-3_SI_UNITS   :Mag Susc
INDUCTION.MS/M           :Induction
IND_RES.OHM-M            :Ind Res
#------------------------------------------------------------
~PARAMETER INFORMATION
BIT_FROM1.               :BIT FROM1
BIT_FROM2.               :BIT FROM2
BIT_FROM3.               :BIT FROM3
BIT_FROM4.               :BIT FROM4
BIT_FROM5.               :BIT FROM5
BIT_FROM6.               :BIT FROM6
BIT_TO1.                 :BIT TO1
BIT_TO2.                 :BIT TO2
BIT_TO3.                 :BIT TO3
BIT_TO4.                 :BIT TO4
BIT_TO5.                 :BIT TO5
BIT_TO6.                 :BIT TO6
BIT1.                    :BIT1
BIT2.                    :BIT2
BIT3.                    :BIT3
BIT4.                    :BIT4
BIT5.                    :BIT5
BIT6.                    :BIT6
BTM_LOGGED_INTERVAL.     :BTM LOGGED INTERVAL
CASING_FROM1.            :CASING FROM1
CASING_FROM2.            :CASING FROM2
CASING_FROM3.            :CASING FROM3
CASING_FROM4.            :CASING FROM4
CASING_FROM5.            :CASING FROM5
CASING_FROM6.            :CASING FROM6
CASING_SIZE1.            :CASING SIZE1
CASING_SIZE2.            :CASING SIZE2
CASING_SIZE3.            :CASING SIZE3
CASING_SIZE4.            :CASING SIZE4
CASING_SIZE5.            :CASING SIZE5
CASING_SIZE6.            :CASING SIZE6
CASING_TO1.              :CASING TO1
CASING_TO2.              :CASING TO2
CASING_TO3.              :CASING TO3
CASING_TO4.              :CASING TO4
CASING_TO5.              :CASING TO5
CASING_TO6.              :CASING TO6
CO.                      :CO
CTY.                     :CTY
D_F_.                    :D.F.
DENSITY.                 :DENSITY
DEPTH-DRILLER.           :DEPTH-DRILLER
DEPTH-LOGGER.            :DEPTH-LOGGER
DRILLING_MEAS__FROM.     :DRILLING MEAS. FROM
ELEVATION.               :ELEVATION
FIELD.                   :FIELD
FILING_No.               :FILING No
G_L_.                    :G.L.
K_B_.                    :K.B.
LEVEL.                   :LEVEL
LOG_MEAS__FROM.          :LOG MEAS. FROM
MAX__REC__TEMP_.         :MAX. REC. TEMP.
OPERATING_RIG_TIME.      :OPERATING RIG TIME
OTHER_SERVICES.          :OTHER SERVICES
PERMANENT_DATUM.         :PERMANENT DATUM
RECORDED_BY.             :RECORDED BY
RGE.                     :RGE
RUN_No.                  :RUN No
RUN1.                    :RUN1
RUN2.                    :RUN2
RUN3.                    :RUN3
RUN4.                    :RUN4
RUN5.                    :RUN5
RUN6.                    :RUN6
SALINITY.                :SALINITY
SEC.                     :SEC
STE.                     :STE
TITLE.                   :TITLE
TOP_LOGGED_INTERVAL.     :TOP LOGGED INTERVAL
TWP.                     :TWP
TYPE_FLUID_IN_HOLE.      :TYPE FLUID IN HOLE
TYPE_LOG.                :TYPE LOG
WELL_ID.                 :WELL ID
WGT1.                    :WGT1
WGT2.                    :WGT2
WGT3.                    :WGT3
WGT4.                    :WGT4
WGT5.                    :WGT5
WGT6.                    :WGT6
WITNESSED_BY.            :WITNESSED BY
#------------------------------------------------------------
~OTHER
#------------------------------------------------------------
~A
# ...
   181.570
     5.60000    0.519979     53.9979     62.3974    0.507309
    0.513389    0.470086     16.8783     57.5019
   181.620
     5.56998    0.530018     55.6022     63.0018    0.522919
    0.518202    0.427490     17.1274     57.5019
   181.670
     5.55000    0.550000     57.3996     65.6004    0.542098
    0.539768    0.434212     17.3907     60.1873
   181.720
     5.55000    0.550000     57.0000     66.0000    0.538649
    0.543076    0.425244     16.8782     57.5019
   181.770
     5.55000    0.519973     53.9973     62.3967    0.508521
    0.513053    0.436492     17.1274     57.5019
   181.820
     5.56501    0.530021     55.0021     63.6026    0.518265
    0.523153    0.472334     17.3907     60.1873
   181.870
     5.57500    0.550000     57.6004     66.0000    0.542840
    0.543163    0.434215     16.8782     57.5019
   181.920
     5.57500    0.550000     57.3996     65.3996    0.541829
    0.538201    0.415125     17.1274     57.5019
   181.970
     5.57500    0.519973     53.9973     61.9973    0.510794
    0.510068    0.396134     17.3907     57.5019
   182.020
     5.57500    0.530027     55.0027     63.6033    0.518735
    0.523499    0.470079     17.3907     60.4697
   182.070
     5.62003    0.550000     57.0000     66.0000    0.538127
    0.543366    0.425244     16.8271     57.5019
   182.120
     5.65000    0.550000     57.6004     66.0000    0.542929
    0.543457    0.415137     17.1010     57.5019
   182.170
     5.66501    0.519979     54.3974     61.7970    0.512761
    0.508383    0.396134     17.3907     60.1873
   182.220
     5.67500    0.530027     55.0027     63.2038    0.521014
    0.520064    0.470083     16.8781     57.5019
   182.270
     5.62996    0.519973     53.3967     62.3967    0.505977
    0.513213    0.425244     17.1274     57.5019
   182.320
     5.60000    0.530021     55.2030     63.6026    0.522265
    0.523255    0.427492     17.3907     57.5019
   182.370
     5.58499    0.550000     57.3996     65.3996    0.543349
    0.538791    0.434215     17.3907     60.1873
   182.420
     5.57500    0.550000     57.0000     65.6004    0.539893
    0.540797    0.436488     16.8781     57.5019
   182.470
     5.55999    0.519973     53.3967     62.3967    0.506070
    0.514030    0.470083     17.1274     57.5019
   182.520
     5.55000    0.530027     55.2038     63.6033    0.520610
    0.524160    0.425244     17.3907     60.1873
   182.570
     5.58002    0.550000     57.3996     65.3996    0.540377
    0.539326    0.427493     16.8783     57.5019
   182.620
     5.55497    0.550000     57.0000     65.6004    0.538822
    0.541176    0.434212     17.1274     57.5019
   182.670
     5.52500    0.519979     53.9979     62.3974    0.509722
    0.514343    0.425244     17.3907     57.5019
   182.720
     5.55503    0.530027     55.0027     63.0027    0.519376
    0.519370    0.427493     17.3907     60.1873
   182.770
     5.57500    0.550000     57.6005     65.6005    0.541616
    0.541101    0.434211     16.8781     57.5019
   182.820
     5.60501    0.550000     57.3998     66.0000    0.540797
    0.544279    0.414001     17.1272     57.5019
   182.870
     5.62500    0.550000     57.0000     65.3998    0.539086
    0.539300    0.380406     17.3907     60.1873
   182.920
     5.64001    0.519979     53.9979     61.9979    0.511833
    0.510899    0.427493     16.8781     57.5019
   182.970
     5.65000    0.530027     55.0027     63.6033    0.520860
    0.523722    0.434212     17.1274     57.5019
   183.020
     5.61997    0.550000     57.0000     66.0000    0.539884
    0.543377    0.413997     17.3907     60.1873
   183.070
     5.60000    0.519988     53.9988     61.7983    0.511146
    0.508629    0.380406     16.8783     57.5019
   183.120
     5.56999    0.530012     55.0012     63.2017    0.523718
    0.520730    0.425244     17.1274     57.5019
   183.170
     5.55000    0.550000     56.3996     66.0000    0.538529
    0.543684    0.427493     17.3907     60.1873
   183.220
     5.53499    0.550000     56.6005     65.3995    0.538546
    0.538715    0.434212     16.8781     57.5019
   183.270
     5.52500    0.519973     53.9973     61.9973    0.512353
    0.510592    0.425244     17.1274     57.5019
   183.320
     5.55501    0.530012     55.0012     63.6015    0.523095
    0.523740    0.414001     17.3907     60.1873
   183.370
     5.55999    0.550000     56.3998     66.0000    0.538386
    0.543630    0.382655     16.8782     57.5019
   183.420
     5.55000    0.550000     56.6004     65.3996    0.539036
    0.538979    0.434212     17.1274     57.5019
   183.470
     5.56501    0.550000     57.0000     65.6005    0.541539
    0.540891    0.425244     17.3907     60.1873
   183.520
     5.57500    0.519973     53.9973     62.3967    0.511348
    0.514091    0.427494     16.8781     57.5019
   183.570
     5.57500    0.530012     55.0012     63.0012    0.521670
    0.519258    0.434212     17.1272     57.5019
   183.620
     5.57500    0.550000     57.0000     65.6002    0.541008
    0.541126    0.425244     17.3907     60.1873
   183.670
     5.59001    0.550000     56.3996     66.0000    0.535765
    0.544481    0.436488     16.8781     57.5019
   183.720
     5.60000    0.519973     53.5978     62.3967    0.509580
    0.513986    0.470083     17.1274     57.5019
   183.770
     5.63003    0.530027     55.0027     63.0027    0.524208
    0.519034    0.427494     17.3907     60.1873
   183.820
     5.65000    0.550000     57.0000     65.6002    0.540280
    0.541031    0.434212     16.8783     57.5019
   183.870
     5.60498    0.519988     53.9988     62.3985    0.509711
    0.514159    0.436488     17.1274     57.5019
   183.920
     5.57500    0.530021     55.0021     63.0021    0.520020
    0.519160    0.470083     17.3907     60.4697
   183.970
     5.54497    0.550000     57.0000     65.6005    0.536690
    0.540887    0.425244     16.8268     57.5019
   184.020
     5.52500    0.550000     57.6005     66.0000    0.541723
    0.544027    0.425244     17.1011     57.5019
   184.070
     5.52500    0.550000     57.3998     65.3998    0.540525
    0.538961    0.427493     17.3907     60.4697
   184.120
     5.54001    0.519988     53.9988     61.9988    0.510045
    0.510802    0.434212     16.8269     57.5019
   184.170
     5.55000    0.530021     55.0021     63.6026    0.519073
    0.524411    0.425244     17.1011     57.5019
   184.220
     5.55000    0.550000     57.6005     65.3995    0.542311
    0.539290    0.427493     17.3907     60.1873
   184.270
     5.55000    0.550000     57.3995     65.6005    0.540903
    0.541061    0.434211     16.8781     57.5019
   184.320
     5.56501    0.550000     57.0000     66.0000    0.537771
    0.544604    0.425244     17.1272     57.5019
   184.370
     5.57500    0.550000     57.0000     65.3998    0.539109
    0.539593    0.415125     17.3907     60.1873
   184.420
     5.60502    0.519979     53.9979     61.9979    0.511007
    0.511074    0.384890     16.8781     57.5019
   184.470
     5.62500    0.530027     55.0027     63.6033    0.521839
    0.524479    0.436488     17.1274     57.5019
   184.520
     5.60999    0.550000     57.0000     65.3995    0.541116
    0.539517    0.470079     17.3907     57.5019
   184.570
     5.60000    0.519988     53.9988     61.9988    0.511833
    0.511130    0.425244     17.3907     60.1873
   184.620
     5.61501    0.530012     55.0012     63.6015    0.522590
    0.524611    0.439861     16.8782     57.5019
   184.670
     5.59498    0.550000     57.0000     65.3996    0.540962
    0.539580    0.494778     17.1274     57.5019
   184.720
     5.57500    0.519973     53.3967     61.9973    0.506604
    0.510982    0.492570     17.3907     57.5019
   184.770
     5.55999    0.530027     54.6033     63.6033    0.516970
    0.524369    0.529536     17.3907     57.5019
   184.820
     5.55000    0.550000     57.6002     65.3998    0.543647
    0.539358    0.506022     17.3907     57.5019
   184.870
     5.58001    0.550000     57.3998     65.6002    0.541643
    0.540957    0.537409     17.3907     60.4697
