#------------------------------------------------------------
~VERSION INFORMATION
VERS.               2.0  :CWLS LOG ASCII STANDARD - VERSION 2.0
WRAP.               YES  :MULTIPLE LINES PER DEPTH STEP
#------------------------------------------------------------
~WELL INFORMATION
STRT.M          10.7196  :FIRST INDEX VALUE
STOP.M          246.770  :LAST INDEX VALUE
STEP.M          0.00000  :STEP
NULL.            -99999  :NULL VALUE
COMP.                    :COMPANY
WELL.                    :WELL
FLD.                     :FLD
LOC.                     :LOCATION
SRVC.                    :
CTRY.                    :COUNTRY
STAT.                    :STATE
CNTY.                    :
DATE.                    :DATE
API.                     :API
#------------------------------------------------------------
~CURVE INFORMATION
DEPT.M                   :DEPTH
SPEED.MT/MIN             :Speed
TIME.SEC                 :Time
POSCOUNT.COUNT           :Poscount
NEGCOUNT.COUNT           :Negcount
POSDT.SEC                :Posdt
NEGDT.SEC                :Negdt
MAG_SUSC.10E-3_SI_UNITS   :Mag Susc
INDUCTION.MS/M           :Induction
IND_RES.OHM-M            :Ind Res
#------------------------------------------------------------
~PARAMETER INFORMATION
BIT_FROM1.               :BIT FROM1
BIT_FROM2.               :BIT FROM2
BIT_FROM3.               :BIT FROM3
BIT_FROM4.               :BIT FROM4
BIT_FROM5.               :BIT FROM5
BIT_FROM6.               :BIT FROM6
BIT_TO1.                 :BIT TO1
BIT_TO2.                 :BIT TO2
BIT_TO3.                 :BIT TO3
BIT_TO4.                 :BIT TO4
BIT_TO5.                 :BIT TO5
BIT_TO6.                 :BIT TO6
BIT1.                    :BIT1
BIT2.                    :BIT2
BIT3.                    :BIT3
BIT4.                    :BIT4
BIT5.                    :BIT5
BIT6.                    :BIT6
BTM_LOGGED_INTERVAL.     :BTM LOGGED INTERVAL
CASING_FROM1.            :CASING FROM1
CASING_FROM2.            :CASING FROM2
CASING_FROM3.            :CASING FROM3
CASING_FROM4.            :CASING FROM4
CASING_FROM5.            :CASING FROM5
CASING_FROM6.            :CASING FROM6
CASING_SIZE1.            :CASING SIZE1
CASING_SIZE2.            :CASING SIZE2
CASING_SIZE3.            :CASING SIZE3
CASING_SIZE4.            :CASING SIZE4
CASING_SIZE5.            :CASING SIZE5
CASING_SIZE6.            :CASING SIZE6
CASING_TO1.              :CASING TO1
CASING_TO2.              :CASING TO2
CASING_TO3.              :CASING TO3
CASING_TO4.              :CASING TO4
CASING_TO5.              :CASING TO5
CASING_TO6.              :CASING TO6
CO.                      :CO
CTY.                     :CTY
D_F_.                    :D.F.
DENSITY.                 :DENSITY
DEPTH-DRILLER.           :DEPTH-DRILLER
DEPTH-LOGGER.            :DEPTH-LOGGER
DRILLING_MEAS__FROM.     :DRILLING MEAS. FROM
ELEVATION.               :ELEVATION
FIELD.                   :FIELD
FILING_No.               :FILING No
G_L_.                    :G.L.
K_B_.                    :K.B.
LEVEL.                   :LEVEL
LOG_MEAS__FROM.          :LOG MEAS. FROM
MAX__REC__TEMP_.         :MAX. REC. TEMP.
OPERATING_RIG_TIME.      :OPERATING RIG TIME
OTHER_SERVICES.          :OTHER SERVICES
PERMANENT_DATUM.         :PERMANENT DATUM
RECORDED_BY.             :RECORDED BY
RGE.                     :RGE
RUN_No.                  :RUN No
RUN1.                    :RUN1
RUN2.                    :RUN2
RUN3.                    :RUN3
RUN4.                    :RUN4
RUN5.                    :RUN5
RUN6.                    :RUN6
SALINITY.                :SALINITY
SEC.                     :SEC
STE.                     :STE
TITLE.                   :TITLE
TOP_LOGGED_INTERVAL.     :TOP LOGGED INTERVAL
TWP.                     :TWP
TYPE_FLUID_IN_HOLE.      :TYPE FLUID IN HOLE
TYPE_LOG.                :TYPE LOG
WELL_ID.                 :WELL ID
WGT1.                    :WGT1
WGT2.                    :WGT2
WGT3.                    :WGT3
WGT4.                    :WGT4
WGT5.                    :WGT5
WGT6.                    :WGT6
WITNESSED_BY.            :WITNESSED BY
#------------------------------------------------------------
~OTHER
#------------------------------------------------------------
~A
# ...
   241.870
     5.40999    0.580012     60.6015     69.0012    0.570857
    0.573124    0.425244     16.8783     60.1873
   241.920
     5.40000    0.569979     59.3974     67.3974    0.559905
    0.559534    0.425244     16.6148     60.1873
   241.970
     5.41501    0.550000     57.6005     65.0000    0.540305
    0.539499    0.425244     16.6148     60.1873
   242.020
     5.44001    0.550000     58.0000     65.6005    0.543077
    0.544529    0.436488     16.6148     57.5019
   242.070
     5.45000    0.550000     57.3995     65.3995    0.538447
    0.542548    0.470079     17.1274     60.1873
   242.120
     5.45000    0.550000     57.6002     65.0000    0.542426
    0.539331    0.425244     16.8783     60.1873
   242.170
     5.45000    0.550000     57.3996     65.0000    0.541588
    0.539500    0.436488     16.6148     60.1873
   242.220
     5.46501    0.550000     57.0000     65.6005    0.537027
    0.544688    0.470083     16.6148     57.5019
   242.270
     5.47500    0.550000     57.0000     65.3995    0.538884
    0.542832    0.436488     17.1274     60.1873
   242.320
     5.49001    0.550000     57.0000     65.0000    0.539569
    0.539422    0.481327     16.8781     60.1873
   242.370
     5.50000    0.550000     57.6002     65.0000    0.544056
    0.539470    0.481327     16.6148     57.5019
   242.420
     5.50000    0.550000     57.3996     65.6004    0.540524
    0.544317    0.481327     17.1274     60.1873
   242.470
     5.50000    0.550000     57.0000     65.3995    0.536870
    0.542519    0.481327     16.8781     60.1873
   242.520
     5.45496    0.550000     57.6005     65.0000    0.542689
    0.539340    0.481327     16.6148     60.1873
   242.570
     5.42500    0.550000     57.3995     65.0000    0.540624
    0.539440    0.481327     16.6148     60.1873
   242.620
     5.42500    0.550000     57.6002     65.6002    0.540675
    0.544512    0.481327     16.6148     57.5019
   242.670
     5.42500    0.550000     58.0000     65.3996    0.543054
    0.542682    0.481327     17.1274     60.1873
   242.720
     5.42500    0.550000     58.0000     65.0000    0.540297
    0.539408    0.481327     16.8781     60.1873
   242.770
     5.42500    0.550000     58.0000     65.0000    0.538792
    0.539533    0.470083     16.6148     60.1873
   242.820
     5.42500    0.550000     58.0000     65.6005    0.540151
    0.544979    0.436492     16.6148     60.1873
   242.870
     5.44001    0.550000     58.0000     65.3998    0.538886
    0.543568    0.481327     16.6148     57.5019
   242.920
     5.45000    0.550000     58.0000     65.0000    0.539419
    0.540168    0.470083     17.1274     60.1873
   242.970
     5.45000    0.550000     58.0000     65.0000    0.540471
    0.539885    0.436488     16.8781     60.4697
   243.020
     5.48003    0.550000     58.0000     65.0000    0.541808
    0.539662    0.470083     16.5635     60.1873
   243.070
     5.50000    0.550000     58.0000     65.6005    0.543983
    0.544828    0.425244     16.5885     57.5019
   243.120
     5.51501    0.550000     57.3998     65.3998    0.539104
    0.542906    0.425244     17.1272     60.1873
   243.170
     5.52500    0.550000     57.6004     65.0000    0.540779
    0.539314    0.425244     16.8782     59.9540
   243.220
     5.49497    0.550000     58.0000     65.0000    0.542201
    0.539243    0.425244     16.6575     60.1873
   243.270
     5.47500    0.550000     57.3995     65.6005    0.537187
    0.544231    0.414001     16.6367     57.5019
   243.320
     5.44497    0.550000     57.6005     65.3995    0.540978
    0.542522    0.380409     17.1274     60.1873
   243.370
     5.42500    0.550000     57.3998     65.0000    0.539913
    0.539172    0.425244     16.8783     60.1873
   243.420
     5.44001    0.550000     57.0000     65.6004    0.537762
    0.544166    0.414001     16.6148     57.5019
   243.470
     5.45000    0.550000     57.0000     65.3995    0.541057
    0.542666    0.380406     17.1274     60.1873
   243.520
     5.43499    0.550000     57.0000     65.0000    0.543235
    0.539646    0.425244     16.8781     60.1873
   243.570
     5.42500    0.550000     57.0000     65.0000    0.542577
    0.539788    0.425244     16.6148     60.1873
   243.620
     5.42500    0.550000     56.3998     65.0000    0.536616
    0.539872    0.414001     16.6148     57.5019
   243.670
     5.42500    0.550000     56.6004     65.6004    0.539508
    0.544853    0.370287     17.1274     60.4697
   243.720
     5.42500    0.550000     57.0000     65.3995    0.544352
    0.543125    0.384890     16.8268     60.1873
   243.770
     5.47004    0.550000     56.3995     65.0000    0.538372
    0.539987    0.425244     16.5885     57.5019
   243.820
     5.50000    0.550000     56.6005     65.0000    0.539295
    0.539967    0.413997     17.1274     60.1873
   243.870
     5.50000    0.550000     57.0000     65.0000    0.542798
    0.539578    0.378532     16.8783     60.1873
   243.920
     5.50000    0.550000     57.0000     65.6004    0.541848
    0.544509    0.417771     16.6148     57.5019
   243.970
     5.50000    0.550000     56.3995     65.3995    0.538126
    0.543167    0.414001     17.1274     60.1873
   244.020
     5.50000    0.519973     52.9973     61.3967    0.506147
    0.509544    0.380406     16.8781     60.1873
   244.070
     5.46997    0.530027     54.6033     62.6033    0.520942
    0.519693    0.425244     16.6148     57.5019
   244.120
     5.43499    0.550000     57.0000     65.6002    0.543841
    0.544872    0.425244     17.1272     60.1873
   244.170
     5.42500    0.550000     56.3996     65.3996    0.539174
    0.543177    0.425244     16.8782     60.1873
   244.220
     5.42500    0.580027     59.6033     68.6033    0.569669
    0.569809    0.425244     16.6148     60.1873
   244.270
     5.42500    0.569973     58.9973     67.3967    0.561422
    0.559354    0.414001     16.6148     57.5019
   244.320
     5.44001    0.550000     56.3995     65.6005    0.537164
    0.544121    0.380409     17.1274     60.1873
   244.370
     5.45000    0.550000     56.6002     65.3998    0.538194
    0.542326    0.415125     16.8783     60.1873
   244.420
     5.45000    0.550000     57.0000     65.0000    0.541049
    0.539013    0.384890     16.6148     57.5019
   244.470
     5.45000    0.550000     57.0000     65.6005    0.541348
    0.544095    0.436488     17.1274     60.1873
   244.520
     5.45000    0.550000     57.0000     65.3995    0.540803
    0.542367    0.470083     16.8781     60.1873
   244.570
     5.48003    0.550000     57.0000     65.0000    0.542090
    0.538922    0.425244     16.6148     57.5019
   244.620
     5.50000    0.550000     56.3998     65.0000    0.538719
    0.538946    0.425244     17.1272     60.1873
   244.670
     5.50000    0.550000     56.6004     65.6004    0.541097
    0.544050    0.436488     16.8782     60.1873
   244.720
     5.50000    0.519973     53.3967     61.7962    0.508861
    0.512097    0.470083     16.6148     57.5019
   244.770
     5.48499    0.530027     54.6033     62.6033    0.518951
    0.518860    0.423370     17.1274     60.1873
   244.820
     5.47500    0.550000     57.6005     65.6005    0.543811
    0.544046    0.429019     16.8781     59.9540
   244.870
     5.45999    0.550000     57.3998     65.3998    0.541405
    0.542289    0.470083     16.6575     60.1873
   244.920
     5.45000    0.550000     57.0000     65.0000    0.538900
    0.538948    0.425244     16.6367     57.5019
   244.970
     5.43499    0.550000     57.0000     65.6005    0.538410
    0.543941    0.436488     17.1274     60.1873
   245.020
     5.42500    0.550000     57.6005     65.3995    0.543950
    0.542285    0.470083     16.8781     60.4697
   245.070
     5.42500    0.550000     57.3995     65.0000    0.541870
    0.538916    0.436492     16.5635     57.5019
   245.120
     5.44001    0.580012     60.0012     69.2017    0.566634
    0.574328    0.472331     17.1008     60.1873
   245.170
     5.45000    0.569979     59.5983     67.7970    0.563266
    0.562504    0.445456     16.8782     60.1873
