#------------------------------------------------------------
~VERSION INFORMATION
VERS.               2.0  :CWLS LOG ASCII STANDARD - VERSION 2.0
WRAP.               YES  :MULTIPLE LINES PER DEPTH STEP
#------------------------------------------------------------
~WELL INFORMATION
STRT.M          10.7196  :FIRST INDEX VALUE
STOP.M          246.770  :LAST INDEX VALUE
STEP.M          0.00000  :STEP
NULL.            -99999  :NULL VALUE
COMP.                    :COMPANY
WELL.                    :WELL
FLD.                     :FLD
LOC.                     :LOCATION
SRVC.                    :
CTRY.                    :COUNTRY
STAT.                    :STATE
CNTY.                    :
DATE.                    :DATE
API.                     :API
#------------------------------------------------------------
~CURVE INFORMATION
DEPT.M                   :DEPTH
SPEED.MT/MIN             :Speed
TIME.SEC                 :Time
POSCOUNT.COUNT           :Poscount
NEGCOUNT.COUNT           :Negcount
POSDT.SEC                :Posdt
NEGDT.SEC                :Negdt
MAG_SUSC.10E-3_SI_UNITS   :Mag Susc
INDUCTION.MS/M           :Induction
IND_RES.OHM-M            :Ind Res
#------------------------------------------------------------
~PARAMETER INFORMATION
BIT_FROM1.               :BIT FROM1
BIT_FROM2.               :BIT FROM2
BIT_FROM3.               :BIT FROM3
BIT_FROM4.               :BIT FROM4
BIT_FROM5.               :BIT FROM5
BIT_FROM6.               :BIT FROM6
BIT_TO1.                 :BIT TO1
BIT_TO2.                 :BIT TO2
BIT_TO3.                 :BIT TO3
BIT_TO4.                 :BIT TO4
BIT_TO5.                 :BIT TO5
BIT_TO6.                 :BIT TO6
BIT1.                    :BIT1
BIT2.                    :BIT2
BIT3.                    :BIT3
BIT4.                    :BIT4
BIT5.                    :BIT5
BIT6.                    :BIT6
BTM_LOGGED_INTERVAL.     :BTM LOGGED INTERVAL
CASING_FROM1.            :CASING FROM1
CASING_FROM2.            :CASING FROM2
CASING_FROM3.            :CASING FROM3
CASING_FROM4.            :CASING FROM4
CASING_FROM5.            :CASING FROM5
CASING_FROM6.            :CASING FROM6
CASING_SIZE1.            :CASING SIZE1
CASING_SIZE2.            :CASING SIZE2
CASING_SIZE3.            :CASING SIZE3
CASING_SIZE4.            :CASING SIZE4
CASING_SIZE5.            :CASING SIZE5
CASING_SIZE6.            :CASING SIZE6
CASING_TO1.              :CASING TO1
CASING_TO2.              :CASING TO2
CASING_TO3.              :CASING TO3
CASING_TO4.              :CASING TO4
CASING_TO5.              :CASING TO5
CASING_TO6.              :CASING TO6
CO.                      :CO
CTY.                     :CTY
D_F_.                    :D.F.
DENSITY.                 :DENSITY
DEPTH-DRILLER.           :DEPTH-DRILLER
DEPTH-LOGGER.            :DEPTH-LOGGER
DRILLING_MEAS__FROM.     :DRILLING MEAS. FROM
ELEVATION.               :ELEVATION
FIELD.                   :FIELD
FILING_No.               :FILING No
G_L_.                    :G.L.
K_B_.                    :K.B.
LEVEL.                   :LEVEL
LOG_MEAS__FROM.          :LOG MEAS. FROM
MAX__REC__TEMP_.         :MAX. REC. TEMP.
OPERATING_RIG_TIME.      :OPERATING RIG TIME
OTHER_SERVICES.          :OTHER SERVICES
PERMANENT_DATUM.         :PERMANENT DATUM
RECORDED_BY.             :RECORDED BY
RGE.                     :RGE
RUN_No.                  :RUN No
RUN1.                    :RUN1
RUN2.                    :RUN2
RUN3.                    :RUN3
RUN4.                    :RUN4
RUN5.                    :RUN5
RUN6.                    :RUN6
SALINITY.                :SALINITY
SEC.                     :SEC
STE.                     :STE
TITLE.                   :TITLE
TOP_LOGGED_INTERVAL.     :TOP LOGGED INTERVAL
TWP.                     :TWP
TYPE_FLUID_IN_HOLE.      :TYPE FLUID IN HOLE
TYPE_LOG.                :TYPE LOG
WELL_ID.                 :WELL ID
WGT1.                    :WGT1
WGT2.                    :WGT2
WGT3.                    :WGT3
WGT4.                    :WGT4
WGT5.                    :WGT5
WGT6.                    :WGT6
WITNESSED_BY.            :WITNESSED BY
#------------------------------------------------------------
~OTHER
#------------------------------------------------------------
~A
# ...
   87.7696
     5.90999    0.500000     45.6004     59.6004    0.489664
    0.489619   0.0663184     17.3907     60.4697
   87.8196
     5.90000    0.500000     45.3996     60.0000    0.486545
    0.493757   0.0663184     16.8270     57.5019
   87.8696
     5.90000    0.500000     46.2009     60.0000    0.491235
    0.494372   0.0663184     17.1010     57.5019
   87.9196
     5.90000    0.500000     45.7989     59.3995    0.488228
    0.489308   0.0595721     17.3907     60.1873
   87.9696
     5.88499    0.530027     48.0027     63.2038    0.515686
    0.521448   0.0270472     16.8781     57.5019
   88.0196
     5.87500    0.519980     47.5984     62.3976    0.510949
    0.514798  0.00462800     17.1273     60.4697
   88.0696
     5.89001    0.500000     46.0000     59.3996    0.491675
    0.489382   0.0170056     16.8270     57.5019
   88.1196
     5.90000    0.500000     46.0000     59.6004    0.490826
    0.490685   0.0539502     17.1010     57.5019
   88.1696
     5.91501    0.500000     46.0000     60.0000    0.489932
    0.494213   0.0169962     17.3907     60.4697
   88.2196
     5.92500    0.500000     46.0000     59.3995    0.489592
    0.489203   0.0539502     16.8268     57.5019
   88.2696
     5.92500    0.530020     48.4016     63.2028    0.516378
    0.521047   0.0169906     17.1010     57.5019
   88.3196
     5.92500    0.519980     46.9980     62.3976    0.505732
    0.514421   0.0663184     17.3907     60.4697
   88.3696
     5.95502    0.500000     45.0000     59.3996    0.486877
    0.489326   0.0820597     16.8269     57.5019
   88.4196
     5.97500    0.500000     45.6005     59.6005    0.491937
    0.491078    0.129092     17.1011     57.5019
   88.4696
     5.97500    0.500000     45.3995     60.0000    0.488448
    0.494453   0.0663184     17.3907     60.4697
   88.5196
     5.97500    0.500000     45.6004     59.3996    0.492716
    0.489358   0.0663184     16.8270     57.5019
   88.5696
     5.91496    0.500000     45.3996     59.6004    0.490137
    0.490999   0.0786960     17.1010     57.5019
   88.6196
     5.87500    0.500000     45.6004     60.0000    0.486200
    0.494323    0.120138     17.3907     60.4697
   88.6696
     5.87500    0.500000     46.0000     59.3995    0.487212
    0.489292   0.0842537     16.8268     57.5019
   88.7196
     5.87500    0.530027     49.6033     63.2038    0.522748
    0.521220   0.0663184     17.1011     57.5019
   88.7696
     5.89001    0.519980     48.3976     62.3976    0.509593
    0.514457   0.0786810     17.3907     60.4697
   88.8196
     5.90000    0.500000     46.0000     59.3996    0.484853
    0.489267    0.115631     16.8270     57.5019
   88.8696
     5.88499    0.500000     46.0000     59.6004    0.487117
    0.490815   0.0539502     17.1010     57.5019
   88.9196
     5.87500    0.500000     46.6005     60.0000    0.493857
    0.494190   0.0169962     17.3907     60.4697
   88.9696
     5.89001    0.530027     49.4022     63.0027    0.520972
    0.519654   0.0663184     16.8268     57.5019
   89.0196
     5.90000    0.519980     47.9980     61.9980    0.506074
    0.511882   0.0663184     17.1010     57.5019
   89.0696
     5.91501    0.500000     46.0000     59.3996    0.486472
    0.490257   0.0539408     17.3907     60.4697
   89.1196
     5.95502    0.500000     46.6004     59.6004    0.494356
    0.491391   0.0214937     16.8269     57.5019
   89.1696
     5.97500    0.500000     46.3995     60.0000    0.492874
    0.494405   0.0842537     17.1011     57.5019
   89.2196
     5.99001    0.500000     45.3995     59.3995    0.485289
    0.489344   0.0663184     17.3907     60.4697
   89.2696
     6.00000    0.500000     45.6004     59.6004    0.485473
    0.491041   0.0663184     16.8270     57.5019
   89.3196
     5.95497    0.500000     46.0000     60.0000    0.489290
    0.494397   0.0539408     17.1010     57.5019
   89.3696
     5.92500    0.500000     46.0000     59.3996    0.492283
    0.489433   0.0214937     17.3907     60.4697
   89.4196
     5.89497    0.500000     45.3995     59.6005    0.487248
    0.490918   0.0842537     16.8268     57.5019
   89.4696
     5.87500    0.530027     48.6033     63.6033    0.520324
    0.524422   0.0786866     17.1011     57.5019
   89.5196
     5.87500    0.519980     47.9980     61.7972    0.510548
    0.509862    0.115646     17.3907     60.4697
   89.5696
     5.87500    0.500000     46.0000     59.6004    0.487996
    0.491596   0.0663184     16.8270     57.5019
   89.6196
     5.87500    0.500000     46.0000     60.0000    0.488177
    0.494587   0.0663184     17.1010     57.5019
   89.6696
     5.87500    0.500000     45.3995     59.3995    0.486286
    0.489307   0.0708159     17.3907     60.4697
   89.7196
     5.89001    0.530027     48.6033     63.2038    0.521372
    0.521140   0.0842537     16.8268     57.5019
   89.7696
     5.90000    0.519980     47.9980     62.3976    0.510131
    0.514424   0.0539558     17.1010     57.5019
   89.8196
     5.91501    0.500000     46.6004     59.3996    0.491221
    0.489322   0.0170056     17.3907     57.5019
   89.8696
     5.92500    0.500000     46.3996     59.6004    0.492236
    0.491175   0.0663184     17.3907     57.5019
   89.9196
     5.94001    0.500000     46.0000     60.0000    0.489457
    0.494795   0.0663184     17.3907     57.5019
   89.9696
     5.95000    0.500000     46.0000     59.3995    0.487419
    0.489574   0.0539502     17.3907     60.4697
   90.0196
     5.96501    0.530020     49.0020     63.2028    0.518043
    0.521249   0.0169906     16.8270     57.5019
   90.0696
     5.97500    0.519980     47.9980     62.3976    0.508741
    0.514730   0.0663184     17.1010     57.5019
   90.1196
     5.97500    0.500000     45.3996     59.3996    0.486133
    0.489518   0.0595721     17.3907     57.5019
   90.1696
     5.97500    0.500000     45.6005     59.6005    0.489312
    0.490983   0.0394154     17.3907     57.5019
   90.2196
     5.91495    0.500000     46.0000     60.0000    0.492267
    0.494302   0.0539502     17.3907     57.5019
   90.2696
     5.87500    0.500000     46.0000     59.3996    0.490830
    0.489260   0.0169906     17.3907     60.4697
   90.3196
     5.87500    0.500000     45.3996     59.6004    0.483825
    0.490910   0.0663184     16.8270     57.5019
   90.3696
     5.87500    0.500000     45.6004     60.0000    0.488457
    0.494421   0.0663184     17.1010     57.5019
   90.4196
     5.89001    0.500000     46.0000     59.3995    0.494218
    0.489448   0.0595721     17.3907     57.5019
   90.4696
     5.90000    0.530027     48.4022     63.2038    0.518433
    0.521113   0.0394154     17.3907     57.5019
   90.5196
     5.90000    0.519980     47.5984     62.3976    0.508616
    0.514324   0.0663184     17.3907     60.1873
   90.5696
     5.90000    0.500000     45.3996     59.3996    0.485445
    0.489220   0.0786960     16.8782     57.5019
   90.6196
     5.91501    0.500000     45.6004     59.6004    0.489484
    0.490811    0.128009     17.1274     57.5019
   90.6696
     5.92500    0.500000     46.0000     60.0000    0.491477
    0.494055    0.140377     17.3907     57.5019
   90.7196
     5.92500    0.500000     46.0000     59.3995    0.489065
    0.489031    0.189699     17.3907     60.4697
   90.7696
     5.92500    0.530020     48.4016     63.2028    0.516073
    0.520383    0.214424     16.8270     57.5019
   90.8196
     5.97003    0.519980     47.5984     62.3976    0.508825
    0.513217    0.300702     17.1010     57.5019
   90.8696
     6.00000    0.500000     46.0000     60.0000    0.488414
    0.493096    0.276126     17.3907     57.5019
   90.9196
     5.98499    0.500000     46.6005     60.0000    0.489042
    0.493002    0.373646     17.3907     57.5019
   90.9696
     5.97500    0.500000     47.0000     60.0000    0.491306
    0.492549    0.382655     17.3907     57.5019
   91.0196
     5.92997    0.500000     47.6004     59.3996    0.491636
    0.487475    0.424098     17.3907     60.4697
   91.0696
     5.90000    0.500000     48.0000     59.6004    0.486689
    0.489494    0.399526     16.8270     57.5019
