#------------------------------------------------------------
~VERSION INFORMATION
VERS.               2.0  :CWLS LOG ASCII STANDARD - VERSION 2.0
WRAP.               YES  :MULTIPLE LINES PER DEPTH STEP
#------------------------------------------------------------
~WELL INFORMATION
STRT.M          10.7196  :FIRST INDEX VALUE
STOP.M          246.770  :LAST INDEX VALUE
STEP.M          0.00000  :STEP
NULL.            -99999  :NULL VALUE
COMP.                    :COMPANY
WELL.                    :WELL
FLD.                     :FLD
LOC.                     :LOCATION
SRVC.                    :
CTRY.                    :COUNTRY
STAT.                    :STATE
CNTY.                    :
DATE.                    :DATE
API.                     :API
#------------------------------------------------------------
~CURVE INFORMATION
DEPT.M                   :DEPTH
SPEED.MT/MIN             :Speed
TIME.SEC                 :Time
POSCOUNT.COUNT           :Poscount
NEGCOUNT.COUNT           :Negcount
POSDT.SEC                :Posdt
NEGDT.SEC                :Negdt
MAG_SUSC.10E-3_SI_UNITS   :Mag Susc
INDUCTION.MS/M           :Induction
IND_RES.OHM-M            :Ind Res
#------------------------------------------------------------
~PARAMETER INFORMATION
BIT_FROM1.               :BIT FROM1
BIT_FROM2.               :BIT FROM2
BIT_FROM3.               :BIT FROM3
BIT_FROM4.               :BIT FROM4
BIT_FROM5.               :BIT FROM5
BIT_FROM6.               :BIT FROM6
BIT_TO1.                 :BIT TO1
BIT_TO2.                 :BIT TO2
BIT_TO3.                 :BIT TO3
BIT_TO4.                 :BIT TO4
BIT_TO5.                 :BIT TO5
BIT_TO6.                 :BIT TO6
BIT1.                    :BIT1
BIT2.                    :BIT2
BIT3.                    :BIT3
BIT4.                    :BIT4
BIT5.                    :BIT5
BIT6.                    :BIT6
BTM_LOGGED_INTERVAL.     :BTM LOGGED INTERVAL
CASING_FROM1.            :CASING FROM1
CASING_FROM2.            :CASING FROM2
CASING_FROM3.            :CASING FROM3
CASING_FROM4.            :CASING FROM4
CASING_FROM5.            :CASING FROM5
CASING_FROM6.            :CASING FROM6
CASING_SIZE1.            :CASING SIZE1
CASING_SIZE2.            :CASING SIZE2
CASING_SIZE3.            :CASING SIZE3
CASING_SIZE4.            :CASING SIZE4
CASING_SIZE5.            :CASING SIZE5
CASING_SIZE6.            :CASING SIZE6
CASING_TO1.              :CASING TO1
CASING_TO2.              :CASING TO2
CASING_TO3.              :CASING TO3
CASING_TO4.              :CASING TO4
CASING_TO5.              :CASING TO5
CASING_TO6.              :CASING TO6
CO.                      :CO
CTY.                     :CTY
D_F_.                    :D.F.
DENSITY.                 :DENSITY
DEPTH-DRILLER.           :DEPTH-DRILLER
DEPTH-LOGGER.            :DEPTH-LOGGER
DRILLING_MEAS__FROM.     :DRILLING MEAS. FROM
ELEVATION.               :ELEVATION
FIELD.                   :FIELD
FILING_No.               :FILING No
G_L_.                    :G.L.
K_B_.                    :K.B.
LEVEL.                   :LEVEL
LOG_MEAS__FROM.          :LOG MEAS. FROM
MAX__REC__TEMP_.         :MAX. REC. TEMP.
OPERATING_RIG_TIME.      :OPERATING RIG TIME
OTHER_SERVICES.          :OTHER SERVICES
PERMANENT_DATUM.         :PERMANENT DATUM
RECORDED_BY.             :RECORDED BY
RGE.                     :RGE
RUN_No.                  :RUN No
RUN1.                    :RUN1
RUN2.                    :RUN2
RUN3.                    :RUN3
RUN4.                    :RUN4
RUN5.                    :RUN5
RUN6.                    :RUN6
SALINITY.                :SALINITY
SEC.                     :SEC
STE.                     :STE
TITLE.                   :TITLE
TOP_LOGGED_INTERVAL.     :TOP LOGGED INTERVAL
TWP.                     :TWP
TYPE_FLUID_IN_HOLE.      :TYPE FLUID IN HOLE
TYPE_LOG.                :TYPE LOG
WELL_ID.                 :WELL ID
WGT1.                    :WGT1
WGT2.                    :WGT2
WGT3.                    :WGT3
WGT4.                    :WGT4
WGT5.                    :WGT5
WGT6.                    :WGT6
WITNESSED_BY.            :WITNESSED BY
#------------------------------------------------------------
~OTHER
#------------------------------------------------------------
~A
# ...
   71.0196
     5.95502    0.530020     54.6024     63.6024    0.522621
    0.524384    0.485789     16.8270     57.5019
   71.0696
     5.97500    0.519980     53.3976     61.7972    0.510649
    0.510015    0.411706     17.1010     57.5019
   71.1196
     5.99001    0.500000     51.6004     59.6004    0.490185
    0.490984    0.325448     17.3907     57.5019
   71.1696
     6.00000    0.500000     51.3995     60.0000    0.488105
    0.494404    0.387139     17.3907     60.4697
   71.2196
     5.98499    0.500000     51.6004     59.3996    0.489291
    0.489393    0.434214     16.8270     57.5019
   71.2696
     5.97500    0.500000     52.0000     59.6004    0.491667
    0.490193    0.402767     17.1010     57.5019
   71.3196
     5.92997    0.500000     52.6004     60.0000    0.491698
    0.494345    0.325458     17.3907     57.5019
   71.3696
     5.90000    0.500000     52.3996     60.0000    0.491646
    0.494452    0.399507     17.3907     57.5019
   71.4196
     5.90000    0.500000     50.7989     59.3995    0.492671
    0.488463    0.485783     17.3907     60.4697
   71.4696
     5.90000    0.500000     50.6004     59.6004    0.490610
    0.490103    0.436461     16.8270     57.5019
   71.5196
     5.90000    0.500000     51.6004     60.0000    0.488968
    0.493720    0.436461     17.1010     57.5019
   71.5696
     5.90000    0.530020     55.0020     63.6024    0.520011
    0.523798    0.436461     17.3907     57.5019
   71.6196
     5.91501    0.519979     52.7970     61.7970    0.508639
    0.508275    0.448829     17.3907     57.5019
   71.6696
     5.92500    0.500000     50.6005     59.6005    0.488011
    0.489590    0.473415     17.3907     57.5019
   71.7196
     5.92500    0.500000     52.2008     60.0000    0.490360
    0.492940    0.387129     17.3907     57.5019
   71.7696
     5.92500    0.500000     52.3996     60.0000    0.491042
    0.493061    0.448823     17.3907     57.5019
   71.8196
     5.94001    0.500000     52.0000     60.0000    0.493713
    0.493049    0.494776     17.3907     60.4697
   71.8696
     5.95000    0.500000     52.0000     60.0000    0.492418
    0.492618    0.484700     16.8269     57.5019
   71.9196
     5.99504    0.500000     52.0000     60.0000    0.487266
    0.492310    0.485783     17.1011     57.5019
   71.9696
     6.02500    0.500000     52.6004     60.0000    0.490687
    0.492478    0.436461     17.3907     57.5019
   72.0196
     5.99498    0.500000     51.7992     59.3996    0.488976
    0.487249    0.424098     17.3907     57.5019
   72.0696
     5.97500    0.500000     51.6004     59.6004    0.487965
    0.489500    0.384898     17.3907     57.5019
   72.1196
     5.94498    0.500000     52.6004     60.0000    0.491263
    0.494644    0.415125     17.3907     57.5019
   72.1696
     5.92500    0.530027     56.0027     63.6033    0.521684
    0.524495    0.387139     17.3907     60.4697
   72.2196
     5.89498    0.519980     54.9980     61.7972    0.513519
    0.508327    0.424102     16.8270     57.5019
   72.2696
     5.87500    0.500000     52.3996     59.6004    0.492668
    0.489717    0.362408     17.1010     57.5019
   72.3196
     5.87500    0.500000     52.0000     60.0000    0.490010
    0.492987    0.325458     17.3907     57.5019
   72.3696
     5.90502    0.500000     51.3996     60.0000    0.485403
    0.492926    0.387139     17.3907     60.4697
   72.4196
     5.92500    0.530027     54.6033     63.6033    0.520599
    0.523313    0.424093     16.8268     57.5019
   72.4696
     5.92500    0.519980     53.3976     61.7972    0.510473
    0.508612    0.374770     17.1010     57.5019
   72.5196
     5.92500    0.500000     51.6004     59.6004    0.489934
    0.488980    0.374770     17.3907     57.5019
   72.5696
     5.94001    0.500000     51.3996     60.0000    0.488788
    0.492155    0.387148     17.3907     57.5019
   72.6196
     5.95000    0.500000     50.3996     60.0000    0.488217
    0.493328    0.424093     17.3907     57.5019
   72.6696
     5.95000    0.500000     50.6005     60.0000    0.490334
    0.492872    0.384890     17.3907     57.5019
   72.7196
     5.95000    0.500000     51.6004     60.0000    0.494740
    0.492447    0.415133     17.3907     60.4697
   72.7696
     5.99503    0.500000     51.3996     60.0000    0.489345
    0.492802    0.374770     16.8270     57.5019
   72.8196
     6.02500    0.500000     51.0000     60.0000    0.488276
    0.492949    0.387148     17.1010     57.5019
   72.8696
     5.96496    0.500000     51.0000     59.3996    0.492940
    0.487746    0.424093     17.3907     57.5019
   72.9196
     5.92500    0.500000     51.6005     59.6005    0.492571
    0.488870    0.387139     17.3907     57.5019
   72.9696
     5.90999    0.500000     51.3996     60.0000    0.487133
    0.492447    0.422978     17.3907     60.4697
   73.0196
     5.90000    0.530020     54.6024     63.6024    0.518361
    0.523039    0.382649     16.8270     57.5019
   73.0696
     5.90000    0.519980     53.3976     62.3976    0.511076
    0.513192    0.424083     17.1010     57.5019
   73.1196
     5.90000    0.500000     51.0000     60.0000    0.489721
    0.493122    0.399507     17.3907     57.5019
   73.1696
     5.91501    0.500000     51.6005     60.0000    0.492124
    0.492969    0.485783     17.3907     57.5019
   73.2196
     5.92500    0.500000     51.3996     59.3996    0.488859
    0.487974    0.448820     17.3907     57.5019
   73.2696
     5.90999    0.500000     51.6004     59.6004    0.490179
    0.489922    0.485789     17.3907     57.5019
   73.3196
     5.90000    0.530020     54.4016     63.6024    0.520782
    0.524101    0.436461     17.3907     60.4697
   73.3696
     5.90000    0.519979     53.5983     62.3974    0.513015
    0.513828    0.448829     16.8269     57.5019
   73.4196
     5.90000    0.500000     51.3995     59.3995    0.487232
    0.488478    0.485783     17.1011     57.5019
   73.4696
     5.94503    0.500000     52.2008     59.6004    0.492235
    0.490236    0.436461     17.3907     57.5019
   73.5196
     5.97500    0.500000     52.3996     60.0000    0.491302
    0.493040    0.436461     17.3907     57.5019
   73.5696
     5.99001    0.500000     52.6004     60.0000    0.491496
    0.492822    0.445463     17.3907     60.4697
   73.6196
     6.00000    0.500000     52.3996     60.0000    0.490176
    0.492975    0.459963     16.8269     57.5019
   73.6696
     5.98499    0.500000     52.0000     60.0000    0.487631
    0.492990    0.387139     17.1011     57.5019
   73.7196
     5.97500    0.500000     52.6004     60.0000    0.492867
    0.492331    0.436461     17.3907     57.5019
   73.7696
     5.94498    0.500000     52.3996     59.3996    0.489933
    0.487569    0.448823     17.3907     57.5019
   73.8196
     5.92500    0.500000     52.0000     59.6004    0.486663
    0.490420    0.485774     17.3907     57.5019
   73.8696
     5.92500    0.500000     52.0000     60.0000    0.488798
    0.493675    0.436461     17.3907     60.1873
   73.9196
     5.92500    0.530027     55.6033     63.6033    0.525552
    0.523529    0.436461     16.8781     57.5019
   73.9696
     5.90999    0.519980     53.7972     62.3976    0.510358
    0.513054    0.436461     17.1273     57.5019
   74.0196
     5.90000    0.500000     51.6004     59.3996    0.488028
    0.487800    0.436461     17.3907     57.5019
   74.0696
     5.94503    0.500000     52.0000     59.6004    0.488773
    0.489616    0.436461     17.3907     57.5019
   74.1196
     5.97500    0.500000     52.6004     60.0000    0.493720
    0.492949    0.434212     17.3907     57.5019
   74.1696
     5.97500    0.500000     52.3995     60.0000    0.490659
    0.492421    0.443984     17.3907     60.1873
   74.2196
     5.97500    0.500000     52.0000     60.0000    0.490420
    0.491960    0.502236     16.8782     57.5019
   74.2696
     5.95999    0.500000     52.0000     60.0000    0.492043
    0.492395    0.436461     17.1273     57.5019
   74.3196
     5.95000    0.500000     52.0000     60.0000    0.488474
    0.492887    0.448838     17.3907     57.5019
