#------------------------------------------------------------
~VERSION INFORMATION
VERS.               2.0  :CWLS LOG ASCII STANDARD - VERSION 2.0
WRAP.               YES  :MULTIPLE LINES PER DEPTH STEP
#------------------------------------------------------------
~WELL INFORMATION
STRT.M          10.7196  :FIRST INDEX VALUE
STOP.M          246.770  :LAST INDEX VALUE
STEP.M          0.00000  :STEP
NULL.            -99999  :NULL VALUE
COMP.                    :COMPANY
WELL.                    :WELL
FLD.                     :FLD
LOC.                     :LOCATION
SRVC.                    :
CTRY.                    :COUNTRY
STAT.                    :STATE
CNTY.                    :
DATE.                    :DATE
API.                     :API
#------------------------------------------------------------
~CURVE INFORMATION
DEPT.M                   :DEPTH
SPEED.MT/MIN             :Speed
TIME.SEC                 :Time
POSCOUNT.COUNT           :Poscount
NEGCOUNT.COUNT           :Negcount
POSDT.SEC                :Posdt
NEGDT.SEC                :Negdt
MAG_SUSC.10E-3_SI_UNITS   :Mag Susc
INDUCTION.MS/M           :Induction
IND_RES.OHM-M            :Ind Res
#------------------------------------------------------------
~PARAMETER INFORMATION
BIT_FROM1.               :BIT FROM1
BIT_FROM2.               :BIT FROM2
BIT_FROM3.               :BIT FROM3
BIT_FROM4.               :BIT FROM4
BIT_FROM5.               :BIT FROM5
BIT_FROM6.               :BIT FROM6
BIT_TO1.                 :BIT TO1
BIT_TO2.                 :BIT TO2
BIT_TO3.                 :BIT TO3
BIT_TO4.                 :BIT TO4
BIT_TO5.                 :BIT TO5
BIT_TO6.                 :BIT TO6
BIT1.                    :BIT1
BIT2.                    :BIT2
BIT3.                    :BIT3
BIT4.                    :BIT4
BIT5.                    :BIT5
BIT6.                    :BIT6
BTM_LOGGED_INTERVAL.     :BTM LOGGED INTERVAL
CASING_FROM1.            :CASING FROM1
CASING_FROM2.            :CASING FROM2
CASING_FROM3.            :CASING FROM3
CASING_FROM4.            :CASING FROM4
CASING_FROM5.            :CASING FROM5
CASING_FROM6.            :CASING FROM6
CASING_SIZE1.            :CASING SIZE1
CASING_SIZE2.            :CASING SIZE2
CASING_SIZE3.            :CASING SIZE3
CASING_SIZE4.            :CASING SIZE4
CASING_SIZE5.            :CASING SIZE5
CASING_SIZE6.            :CASING SIZE6
CASING_TO1.              :CASING TO1
CASING_TO2.              :CASING TO2
CASING_TO3.              :CASING TO3
CASING_TO4.              :CASING TO4
CASING_TO5.              :CASING TO5
CASING_TO6.              :CASING TO6
CO.                      :CO
CTY.                     :CTY
D_F_.                    :D.F.
DENSITY.                 :DENSITY
DEPTH-DRILLER.           :DEPTH-DRILLER
DEPTH-LOGGER.            :DEPTH-LOGGER
DRILLING_MEAS__FROM.     :DRILLING MEAS. FROM
ELEVATION.               :ELEVATION
FIELD.                   :FIELD
FILING_No.               :FILING No
G_L_.                    :G.L.
K_B_.                    :K.B.
LEVEL.                   :LEVEL
LOG_MEAS__FROM.          :LOG MEAS. FROM
MAX__REC__TEMP_.         :MAX. REC. TEMP.
OPERATING_RIG_TIME.      :OPERATING RIG TIME
OTHER_SERVICES.          :OTHER SERVICES
PERMANENT_DATUM.         :PERMANENT DATUM
RECORDED_BY.             :RECORDED BY
RGE.                     :RGE
RUN_No.                  :RUN No
RUN1.                    :RUN1
RUN2.                    :RUN2
RUN3.                    :RUN3
RUN4.                    :RUN4
RUN5.                    :RUN5
RUN6.                    :RUN6
SALINITY.                :SALINITY
SEC.                     :SEC
STE.                     :STE
TITLE.                   :TITLE
TOP_LOGGED_INTERVAL.     :TOP LOGGED INTERVAL
TWP.                     :TWP
TYPE_FLUID_IN_HOLE.      :TYPE FLUID IN HOLE
TYPE_LOG.                :TYPE LOG
WELL_ID.                 :WELL ID
WGT1.                    :WGT1
WGT2.                    :WGT2
WGT3.                    :WGT3
WGT4.                    :WGT4
WGT5.                    :WGT5
WGT6.                    :WGT6
WITNESSED_BY.            :WITNESSED BY
#------------------------------------------------------------
~OTHER
#------------------------------------------------------------
~A
# ...
   211.720
     5.50000    0.550000     57.0000     65.3995    0.541149
    0.540012    0.425244     17.1274     60.1873
   211.770
     5.48499    0.550000     56.3995     65.6005    0.536786
    0.542653    0.427494     16.8781     60.1873
   211.820
     5.50501    0.550000     56.6002     65.3998    0.539424
    0.541210    0.434212     16.6148     57.5019
   211.870
     5.52500    0.550000     57.0000     65.6002    0.541764
    0.542487    0.436488     17.1274     60.1873
   211.920
     5.50999    0.550000     57.0000     65.3996    0.540617
    0.540117    0.470083     16.8781     60.1873
   211.970
     5.50000    0.550000     57.0000     65.6005    0.541680
    0.541482    0.425244     16.6148     57.5019
   212.020
     5.53003    0.550000     57.0000     65.3995    0.540782
    0.540072    0.427494     17.1274     60.4697
   212.070
     5.55000    0.550000     57.0000     65.6002    0.541108
    0.542097    0.434212     16.8271     60.1873
   212.120
     5.58001    0.519988     53.9988     62.3985    0.511146
    0.515253    0.425244     16.5885     57.5019
   212.170
     5.60000    0.530021     55.0021     63.0021    0.518084
    0.520584    0.425244     17.1274     60.1873
   212.220
     5.55496    0.550000     57.6005     65.6005    0.541577
    0.542610    0.414001     16.8781     60.1873
   212.270
     5.52500    0.550000     57.3995     65.3995    0.539639
    0.540935    0.380409     16.6148     57.5019
   212.320
     5.50999    0.550000     57.0000     65.0000    0.536887
    0.537743    0.425244     17.1272     60.1873
   212.370
     5.50000    0.519988     53.9988     61.9988    0.510396
    0.512573    0.425244     16.8782     57.5019
   212.420
     5.50000    0.530021     55.0021     63.0021    0.521130
    0.520933    0.425244     17.1274     60.1873
   212.470
     5.50000    0.550000     57.0000     65.6005    0.540488
    0.542958    0.436488     16.8781     57.5019
   212.520
     5.50000    0.550000     57.0000     65.3995    0.541994
    0.541477    0.472329     17.1274     60.1873
   212.570
     5.50000    0.550000     56.3998     65.6002    0.537803
    0.543012    0.434212     16.8783     57.5019
   212.620
     5.50000    0.550000     56.6002     65.3998    0.539670
    0.541669    0.436488     17.1274     60.1873
   212.670
     5.50000    0.550000     57.0000     65.0000    0.542622
    0.538723    0.481327     16.8781     60.1873
   212.720
     5.50000    0.550000     57.0000     65.6005    0.540679
    0.543970    0.472331     16.6148     57.5019
   212.770
     5.53003    0.550000     57.0000     65.3995    0.538953
    0.542195    0.434211     17.1274     60.4697
   212.820
     5.55000    0.550000     57.6002     65.0000    0.543260
    0.538846    0.436488     16.8271     57.5019
   212.870
     5.56501    0.519988     54.3985     61.9988    0.511051
    0.513666    0.481327     17.1010     60.1873
   212.920
     5.57500    0.530021     55.0021     63.0021    0.515629
    0.522067    0.470083     16.8781     57.5019
   212.970
     5.57500    0.550000     57.6005     65.0000    0.540911
    0.539051    0.436488     17.1274     60.1873
   213.020
     5.54497    0.550000     58.0000     65.6005    0.544944
    0.544192    0.470079     16.8781     57.5019
   213.070
     5.52500    0.519988     54.3985     61.7983    0.509651
    0.512146    0.436488     17.1272     60.1873
   213.120
     5.50999    0.530012     55.0012     62.6015    0.515703
    0.518883    0.470083     16.8782     60.1873
   213.170
     5.50000    0.550000     57.6004     65.6004    0.541065
    0.544065    0.425244     16.6148     57.5019
   213.220
     5.48499    0.550000     58.0000     65.3995    0.544412
    0.541892    0.436488     17.1274     60.1873
   213.270
     5.47500    0.550000     57.3995     65.0000    0.537184
    0.538206    0.472329     16.8781     57.5019
   213.320
     5.49001    0.550000     57.6002     65.6002    0.540579
    0.543290    0.434212     17.1272     60.1873
   213.370
     5.50000    0.550000     57.3998     65.3998    0.539841
    0.541291    0.425244     16.8782     59.9540
   213.420
     5.50000    0.550000     57.6004     65.6004    0.542118
    0.542951    0.425244     16.6575     57.5019
   213.470
     5.50000    0.550000     57.3995     65.3995    0.541580
    0.541219    0.427493     17.1494     60.1873
   213.520
     5.50000    0.550000     57.0000     65.6005    0.536589
    0.542714    0.434211     16.8781     57.5019
   213.570
     5.53001    0.550000     57.6002     65.3998    0.542503
    0.541077    0.425244     17.1272     60.1873
   213.620
     5.55000    0.519988     54.3985     61.9988    0.514061
    0.512685    0.425244     16.8782     57.5019
   213.670
     5.58002    0.530021     55.0021     63.0021    0.521017
    0.521343    0.425244     17.1274     60.1873
   213.720
     5.60000    0.550000     57.0000     65.0000    0.540003
    0.537903    0.436488     16.8781     59.9540
   213.770
     5.55496    0.550000     57.0000     65.6005    0.537934
    0.542712    0.470079     16.6575     57.5019
   213.820
     5.52500    0.519988     53.9988     61.7983    0.508507
    0.510779    0.414001     17.1492     60.1873
   213.870
     5.50999    0.530012     55.0012     63.2017    0.520116
    0.522723    0.380406     16.8783     57.5019
   213.920
     5.50000    0.550000     57.0000     65.3996    0.541322
    0.541283    0.436488     17.1274     60.1873
   213.970
     5.48499    0.550000     57.0000     65.6005    0.540088
    0.543096    0.470083     16.8781     57.5019
   214.020
     5.47500    0.550000     57.0000     65.3995    0.537568
    0.541273    0.413997     17.1274     60.1873
   214.070
     5.49001    0.550000     57.6002     65.6002    0.542858
    0.542909    0.378532     16.8783     57.5019
   214.120
     5.50000    0.550000     57.3998     65.3998    0.542747
    0.541390    0.417771     17.1272     60.1873
   214.170
     5.50000    0.550000     56.3996     65.0000    0.537336
    0.538344    0.425244     16.8782     60.1873
   214.220
     5.40992    0.550000     56.6005     65.6005    0.537942
    0.543321    0.436488     16.6148     57.5019
   214.270
     5.35000    0.550000     57.6005     65.3995    0.543884
    0.541420    0.470079     17.1274     60.1873
   214.320
     5.35000    0.550000     57.3998     65.6002    0.542903
    0.543081    0.436488     16.8783     57.5019
   214.370
     5.35000    0.550000     56.3998     65.3998    0.537962
    0.541805    0.470083     17.1272     59.9540
   214.420
     5.38002    0.580021     59.6026     68.6026    0.572328
    0.569012    0.433677     16.9209     60.1873
   214.470
     5.40000    0.569973     58.9973     67.9973    0.562110
    0.563580    0.458873     16.6367     57.5019
   214.520
     5.41501    0.550000     57.0000     65.3995    0.535917
    0.541222    0.425244     17.1274     60.1873
   214.570
     5.36498    0.550000     57.6002     65.6002    0.540211
    0.542724    0.423373     16.8783     57.5019
   214.620
     5.32500    0.550000     57.3998     65.3998    0.539969
    0.541026    0.429015     17.1272     60.1873
   214.670
     5.30999    0.550000     57.6004     65.6004    0.542401
    0.542653    0.470083     16.8782     57.5019
   214.720
     5.30000    0.550000     57.3995     65.3995    0.539759
    0.540868    0.425244     17.1274     60.1873
   214.770
     5.31501    0.580027     60.6033     68.6033    0.571603
    0.567763    0.423370     16.8781     59.9540
   214.820
     5.32500    0.569988     59.3985     67.9988    0.560710
    0.562774    0.417769     16.6575     57.5019
   214.870
     5.32500    0.550000     57.0000     65.3998    0.539185
    0.541128    0.425244     17.1492     60.1873
   214.920
     5.32500    0.580021     60.0021     69.2030    0.568537
    0.573271    0.425244     16.8782     57.5019
   214.970
     5.32500    0.569973     59.5978     67.7962    0.563506
    0.561268    0.425244     17.1274     59.9540
   215.020
     5.35503    0.550000     57.3995     65.6005    0.542151
    0.542636    0.425244     16.9208     57.5019
