#------------------------------------------------------------
~VERSION INFORMATION
VERS.               2.0  :CWLS LOG ASCII STANDARD - VERSION 2.0
WRAP.               YES  :MULTIPLE LINES PER DEPTH STEP
#------------------------------------------------------------
~WELL INFORMATION
STRT.M          10.7196  :FIRST INDEX VALUE
STOP.M          246.770  :LAST INDEX VALUE
STEP.M          0.00000  :STEP
NULL.            -99999  :NULL VALUE
COMP.                    :COMPANY
WELL.                    :WELL
FLD.                     :FLD
LOC.                     :LOCATION
SRVC.                    :
CTRY.                    :COUNTRY
STAT.                    :STATE
CNTY.                    :
DATE.                    :DATE
API.                     :API
#------------------------------------------------------------
~CURVE INFORMATION
DEPT.M                   :DEPTH
SPEED.MT/MIN             :Speed
TIME.SEC                 :Time
POSCOUNT.COUNT           :Poscount
NEGCOUNT.COUNT           :Negcount
POSDT.SEC                :Posdt
NEGDT.SEC                :Negdt
MAG_SUSC.10E-3_SI_UNITS   :Mag Susc
INDUCTION.MS/M           :Induction
IND_RES.OHM-M            :Ind Res
#------------------------------------------------------------
~PARAMETER INFORMATION
BIT_FROM1.               :BIT FROM1
BIT_FROM2.               :BIT FROM2
BIT_FROM3.               :BIT FROM3
BIT_FROM4.               :BIT FROM4
BIT_FROM5.               :BIT FROM5
BIT_FROM6.               :BIT FROM6
BIT_TO1.                 :BIT TO1
BIT_TO2.                 :BIT TO2
BIT_TO3.                 :BIT TO3
BIT_TO4.                 :BIT TO4
BIT_TO5.                 :BIT TO5
BIT_TO6.                 :BIT TO6
BIT1.                    :BIT1
BIT2.                    :BIT2
BIT3.                    :BIT3
BIT4.                    :BIT4
BIT5.                    :BIT5
BIT6.                    :BIT6
BTM_LOGGED_INTERVAL.     :BTM LOGGED INTERVAL
CASING_FROM1.            :CASING FROM1
CASING_FROM2.            :CASING FROM2
CASING_FROM3.            :CASING FROM3
CASING_FROM4.            :CASING FROM4
CASING_FROM5.            :CASING FROM5
CASING_FROM6.            :CASING FROM6
CASING_SIZE1.            :CASING SIZE1
CASING_SIZE2.            :CASING SIZE2
CASING_SIZE3.            :CASING SIZE3
CASING_SIZE4.            :CASING SIZE4
CASING_SIZE5.            :CASING SIZE5
CASING_SIZE6.            :CASING SIZE6
CASING_TO1.              :CASING TO1
CASING_TO2.              :CASING TO2
CASING_TO3.              :CASING TO3
CASING_TO4.              :CASING TO4
CASING_TO5.              :CASING TO5
CASING_TO6.              :CASING TO6
CO.                      :CO
CTY.                     :CTY
D_F_.                    :D.F.
DENSITY.                 :DENSITY
DEPTH-DRILLER.           :DEPTH-DRILLER
DEPTH-LOGGER.            :DEPTH-LOGGER
DRILLING_MEAS__FROM.     :DRILLING MEAS. FROM
ELEVATION.               :ELEVATION
FIELD.                   :FIELD
FILING_No.               :FILING No
G_L_.                    :G.L.
K_B_.                    :K.B.
LEVEL.                   :LEVEL
LOG_MEAS__FROM.          :LOG MEAS. FROM
MAX__REC__TEMP_.         :MAX. REC. TEMP.
OPERATING_RIG_TIME.      :OPERATING RIG TIME
OTHER_SERVICES.          :OTHER SERVICES
PERMANENT_DATUM.         :PERMANENT DATUM
RECORDED_BY.             :RECORDED BY
RGE.                     :RGE
RUN_No.                  :RUN No
RUN1.                    :RUN1
RUN2.                    :RUN2
RUN3.                    :RUN3
RUN4.                    :RUN4
RUN5.                    :RUN5
RUN6.                    :RUN6
SALINITY.                :SALINITY
SEC.                     :SEC
STE.                     :STE
TITLE.                   :TITLE
TOP_LOGGED_INTERVAL.     :TOP LOGGED INTERVAL
TWP.                     :TWP
TYPE_FLUID_IN_HOLE.      :TYPE FLUID IN HOLE
TYPE_LOG.                :TYPE LOG
WELL_ID.                 :WELL ID
WGT1.                    :WGT1
WGT2.                    :WGT2
WGT3.                    :WGT3
WGT4.                    :WGT4
WGT5.                    :WGT5
WGT6.                    :WGT6
WITNESSED_BY.            :WITNESSED BY
#------------------------------------------------------------
~OTHER
#------------------------------------------------------------
~A
# ...
   225.120
     5.46501    0.550000     58.0000     65.6002    0.543133
    0.543116    0.425244     17.1272     60.1873
   225.170
     5.47500    0.550000     57.3996     65.3996    0.541345
    0.541404    0.436488     16.8782     57.5019
   225.220
     5.47500    0.550000     57.0000     65.6005    0.542180
    0.543423    0.481327     17.1274     60.1873
   225.270
     5.49001    0.550000     57.0000     65.3995    0.542048
    0.542095    0.481327     16.8781     57.5019
   225.320
     5.50000    0.550000     57.0000     65.0000    0.537988
    0.538905    0.481327     17.1272     60.1873
   225.370
     5.53001    0.519988     53.9988     61.9988    0.508092
    0.513580    0.481327     16.8783     60.1873
   225.420
     5.55000    0.530021     55.0021     63.0021    0.521540
    0.522084    0.481327     16.6148     57.5019
   225.470
     5.50496    0.550000     57.0000     65.0000    0.541352
    0.538886    0.481327     17.1274     60.1873
   225.520
     5.47500    0.550000     57.6005     65.0000    0.541111
    0.538832    0.470083     16.8781     60.1873
   225.570
     5.45999    0.550000     58.0000     65.6002    0.541890
    0.543922    0.436475     16.6148     57.5019
   225.620
     5.45000    0.550000     58.0000     65.3998    0.540653
    0.541893    0.470083     17.1272     60.1873
   225.670
     5.43499    0.550000     58.0000     65.6004    0.539827
    0.543370    0.436488     16.8782     57.5019
   225.720
     5.42500    0.550000     58.0000     65.3995    0.540245
    0.541806    0.481327     17.1274     60.1873
   225.770
     5.44001    0.550000     58.0000     65.0000    0.540457
    0.538731    0.481327     16.8781     57.5019
   225.820
     5.45000    0.550000     58.0000     65.6002    0.541999
    0.543924    0.481327     17.1272     60.1873
   225.870
     5.45000    0.550000     57.3998     65.3998    0.538037
    0.542230    0.492570     16.8783     57.5019
   225.920
     5.45000    0.550000     57.6004     65.0000    0.540791
    0.538943    0.526165     17.1274     60.1873
   225.970
     5.45000    0.550000     57.3995     65.6005    0.538315
    0.543811    0.484700     16.8781     60.1873
   226.020
     5.46501    0.550000     57.6005     65.3995    0.539468
    0.541538    0.506022     16.6148     57.5019
   226.070
     5.47500    0.550000     58.0000     65.0000    0.541464
    0.538025    0.526179     17.1272     60.1873
   226.120
     5.52002    0.550000     58.0000     65.6002    0.540103
    0.543141    0.481327     16.8783     57.5019
   226.170
     5.55000    0.550000     58.0000     65.3996    0.540066
    0.541315    0.492570     17.1274     60.1873
   226.220
     5.55000    0.550000     58.6005     65.6005    0.543211
    0.543362    0.526165     16.8781     60.1873
   226.270
     5.55000    0.550000     58.3995     65.3995    0.540015
    0.541648    0.492570     16.6148     57.5019
   226.320
     5.48998    0.519988     54.9988     61.9988    0.509040
    0.512583    0.537409     17.1272     60.1873
   226.370
     5.43499    0.530012     56.6015     63.0012    0.523055
    0.521132    0.537409     16.8783     60.1873
   226.420
     5.42500    0.550000     58.3996     65.0000    0.542424
    0.538618    0.537409     16.6148     57.5019
   226.470
     5.45503    0.550000     58.0000     65.6005    0.537399
    0.544031    0.526165     17.1274     60.1873
   226.520
     5.47500    0.550000     58.6005     65.3995    0.541169
    0.542007    0.503814     16.8781     60.1873
   226.570
     5.47500    0.550000     58.3998     65.0000    0.539708
    0.538537    0.582261     16.6148     57.5019
   226.620
     5.47500    0.550000     58.6002     65.6002    0.538792
    0.543342    0.537409     17.1272     60.1873
   226.670
     5.47500    0.550000     59.0000     65.3996    0.541573
    0.541210    0.537409     16.8782     60.1873
   226.720
     5.47500    0.550000     59.0000     65.6005    0.542650
    0.542757    0.529538     16.6148     60.1873
   226.770
     5.49001    0.550000     59.0000     65.3995    0.542381
    0.541094    0.506022     16.6148     57.5019
   226.820
     5.51501    0.550000     58.3998     65.6002    0.537080
    0.542735    0.537409     17.1272     60.1873
   226.870
     5.52500    0.550000     59.2005     65.3998    0.542441
    0.541012    0.537409     16.8783     60.1873
   226.920
     5.52500    0.550000     59.3996     65.6004    0.542516
    0.542757    0.537409     16.6148     57.5019
   226.970
     5.52500    0.550000     59.0000     65.3995    0.538532
    0.541068    0.548653     17.1274     60.1873
   227.020
     5.49497    0.550000     59.0000     65.0000    0.540685
    0.537746    0.571003     16.8781     60.1873
   227.070
     5.47500    0.519988     55.3985     61.9988    0.508347
    0.512574    0.492557     16.6148     57.5019
   227.120
     5.47500    0.530012     56.6015     63.0012    0.518986
    0.521105    0.526165     17.1272     60.1873
   227.170
     5.47500    0.550000     59.0000     65.6004    0.541186
    0.543373    0.492570     16.8782     60.1873
   227.220
     5.45999    0.550000     59.0000     65.3995    0.541607
    0.541912    0.526165     16.6148     60.1873
   227.270
     5.45000    0.550000     59.0000     65.0000    0.540849
    0.538745    0.492570     16.6148     57.5019
   227.320
     5.45000    0.550000     59.6002     65.6002    0.544600
    0.543976    0.526179     17.1272     60.1873
   227.370
     5.46501    0.550000     58.7995     65.3998    0.539298
    0.542606    0.481327     16.8783     60.1873
   227.420
     5.47500    0.550000     58.6004     65.0000    0.538735
    0.539301    0.470083     16.6148     57.5019
   227.470
     5.45999    0.550000     58.3995     65.6005    0.539208
    0.544142    0.425244     17.1274     60.1873
   227.520
     5.45000    0.550000     58.6005     65.3995    0.542044
    0.542372    0.436488     16.8781     60.1873
   227.570
     5.48001    0.550000     58.3998     65.0000    0.541410
    0.538978    0.492557     16.6148     57.5019
   227.620
     5.50000    0.550000     58.6002     65.6002    0.543353
    0.544034    0.548653     17.1272     60.4697
   227.670
     5.51501    0.550000     58.3996     65.3996    0.540727
    0.542313    0.593491     16.8269     57.5019
   227.720
     5.52500    0.550000     58.0000     65.0000    0.540006
    0.538970    0.604735     17.1011     57.5019
   227.770
     5.50999    0.550000     57.3995     65.0000    0.539304
    0.538940    0.649573     17.3907     60.1873
   227.820
     5.50000    0.550000     57.0000     65.6002    0.538524
    0.543960    0.649573     16.8783     57.5019
   227.870
     5.45498    0.550000     57.6002     65.3998    0.538774
    0.542224    0.660817     17.1272     60.1873
   227.920
     5.44001    0.550000     58.6004     65.0000    0.539418
    0.538514    0.705655     16.8782     57.5019
   227.970
     5.45000    0.550000     59.6005     65.6005    0.543022
    0.543537    0.694411     17.1274     60.1873
   228.020
     5.43499    0.550000     60.0000     65.3995    0.541357
    0.542269    0.649573     16.8781     57.5019
   228.070
     5.42500    0.550000     60.6002     65.0000    0.540898
    0.539306    0.649573     17.1272     60.1873
   228.120
     5.42500    0.550000     61.0000     65.6002    0.542701
    0.544728    0.660817     16.8783     57.5019
   228.170
     5.42500    0.550000     61.0000     65.3996    0.540466
    0.543390    0.716899     17.1274     60.4697
   228.220
     5.44001    0.550000     61.6005     65.0000    0.541050
    0.539870    0.761737     16.8268     57.5019
   228.270
     5.45000    0.550000     62.0000     65.0000    0.542880
    0.539363    0.761737     17.1011     60.1873
   228.320
     5.46501    0.550000     61.3995     65.6005    0.540823
    0.544130    0.770735     16.8781     57.5019
   228.370
     5.50501    0.550000     61.0000     65.3998    0.541858
    0.542314    0.808852     17.1272     60.1873
   228.420
     5.52500    0.550000     61.0000     65.0000    0.539753
    0.539002    0.819694     16.8782     57.5019
