#------------------------------------------------------------
~VERSION INFORMATION
VERS.               2.0  :CWLS LOG ASCII STANDARD - VERSION 2.0
WRAP.               YES  :MULTIPLE LINES PER DEPTH STEP
#------------------------------------------------------------
~WELL INFORMATION
STRT.M          10.7196  :FIRST INDEX VALUE
STOP.M          246.770  :LAST INDEX VALUE
STEP.M          0.00000  :STEP
NULL.            -99999  :NULL VALUE
COMP.                    :COMPANY
WELL.                    :WELL
FLD.                     :FLD
LOC.                     :LOCATION
SRVC.                    :
CTRY.                    :COUNTRY
STAT.                    :STATE
CNTY.                    :
DATE.                    :DATE
API.                     :API
#------------------------------------------------------------
~CURVE INFORMATION
DEPT.M                   :DEPTH
SPEED.MT/MIN             :Speed
TIME.SEC                 :Time
POSCOUNT.COUNT           :Poscount
NEGCOUNT.COUNT           :Negcount
POSDT.SEC                :Posdt
NEGDT.SEC                :Negdt
MAG_SUSC.10E-3_SI_UNITS   :Mag Susc
INDUCTION.MS/M           :Induction
IND_RES.OHM-M            :Ind Res
#------------------------------------------------------------
~PARAMETER INFORMATION
BIT_FROM1.               :BIT FROM1
BIT_FROM2.               :BIT FROM2
BIT_FROM3.               :BIT FROM3
BIT_FROM4.               :BIT FROM4
BIT_FROM5.               :BIT FROM5
BIT_FROM6.               :BIT FROM6
BIT_TO1.                 :BIT TO1
BIT_TO2.                 :BIT TO2
BIT_TO3.                 :BIT TO3
BIT_TO4.                 :BIT TO4
BIT_TO5.                 :BIT TO5
BIT_TO6.                 :BIT TO6
BIT1.                    :BIT1
BIT2.                    :BIT2
BIT3.                    :BIT3
BIT4.                    :BIT4
BIT5.                    :BIT5
BIT6.                    :BIT6
BTM_LOGGED_INTERVAL.     :BTM LOGGED INTERVAL
CASING_FROM1.            :CASING FROM1
CASING_FROM2.            :CASING FROM2
CASING_FROM3.            :CASING FROM3
CASING_FROM4.            :CASING FROM4
CASING_FROM5.            :CASING FROM5
CASING_FROM6.            :CASING FROM6
CASING_SIZE1.            :CASING SIZE1
CASING_SIZE2.            :CASING SIZE2
CASING_SIZE3.            :CASING SIZE3
CASING_SIZE4.            :CASING SIZE4
CASING_SIZE5.            :CASING SIZE5
CASING_SIZE6.            :CASING SIZE6
CASING_TO1.              :CASING TO1
CASING_TO2.              :CASING TO2
CASING_TO3.              :CASING TO3
CASING_TO4.              :CASING TO4
CASING_TO5.              :CASING TO5
CASING_TO6.              :CASING TO6
CO.                      :CO
CTY.                     :CTY
D_F_.                    :D.F.
DENSITY.                 :DENSITY
DEPTH-DRILLER.           :DEPTH-DRILLER
DEPTH-LOGGER.            :DEPTH-LOGGER
DRILLING_MEAS__FROM.     :DRILLING MEAS. FROM
ELEVATION.               :ELEVATION
FIELD.                   :FIELD
FILING_No.               :FILING No
G_L_.                    :G.L.
K_B_.                    :K.B.
LEVEL.                   :LEVEL
LOG_MEAS__FROM.          :LOG MEAS. FROM
MAX__REC__TEMP_.         :MAX. REC. TEMP.
OPERATING_RIG_TIME.      :OPERATING RIG TIME
OTHER_SERVICES.          :OTHER SERVICES
PERMANENT_DATUM.         :PERMANENT DATUM
RECORDED_BY.             :RECORDED BY
RGE.                     :RGE
RUN_No.                  :RUN No
RUN1.                    :RUN1
RUN2.                    :RUN2
RUN3.                    :RUN3
RUN4.                    :RUN4
RUN5.                    :RUN5
RUN6.                    :RUN6
SALINITY.                :SALINITY
SEC.                     :SEC
STE.                     :STE
TITLE.                   :TITLE
TOP_LOGGED_INTERVAL.     :TOP LOGGED INTERVAL
TWP.                     :TWP
TYPE_FLUID_IN_HOLE.      :TYPE FLUID IN HOLE
TYPE_LOG.                :TYPE LOG
WELL_ID.                 :WELL ID
WGT1.                    :WGT1
WGT2.                    :WGT2
WGT3.                    :WGT3
WGT4.                    :WGT4
WGT5.                    :WGT5
WGT6.                    :WGT6
WITNESSED_BY.            :WITNESSED BY
#------------------------------------------------------------
~OTHER
#------------------------------------------------------------
~A
# ...
   104.520
     5.85999    0.500000     49.3996     59.3996    0.493003
    0.489595    0.436461     17.3907     57.5019
   104.570
     5.86501    0.500000     49.6004     59.6004    0.492201
    0.491300    0.434210     17.3907     57.5019
   104.620
     5.87500    0.530021     54.2030     63.6026    0.516648
    0.524531    0.439861     17.3907     57.5019
   104.670
     5.89001    0.519973     53.3967     61.7962    0.507276
    0.509056    0.485783     17.3907     60.4697
   104.720
     5.90000    0.500000     51.6005     59.6005    0.493886
    0.490232    0.436461     16.8268     57.5019
   104.770
     5.93002    0.500000     51.3996     60.0000    0.491258
    0.493402    0.436461     17.1010     57.5019
   104.820
     5.95000    0.500000     51.6004     60.0000    0.488937
    0.493314    0.445463     17.3907     57.5019
   104.870
     5.93499    0.500000     52.0000     59.3996    0.491341
    0.488385    0.484700     17.3907     57.5019
   104.920
     5.92500    0.530027     55.0027     63.2038    0.519172
    0.519371    0.485783     17.3907     57.5019
   104.970
     5.87996    0.519973     54.5978     62.3967    0.512321
    0.512782    0.448829     17.3907     57.5019
   105.020
     5.85000    0.500000     52.3996     60.0000    0.489605
    0.493751    0.483541     17.3907     57.5019
   105.070
     5.85000    0.500000     52.0000     60.0000    0.490991
    0.493844    0.439872     17.3907     57.5019
   105.120
     5.85000    0.500000     52.0000     59.3996    0.490037
    0.489659    0.485783     17.3907     57.5019
   105.170
     5.85000    0.530027     55.6033     63.2038    0.519464
    0.521625    0.436461     17.3907     60.4697
   105.220
     5.85000    0.519973     54.9973     62.3967    0.511376
    0.514003    0.448829     16.8268     57.5019
   105.270
     5.85000    0.500000     52.3996     60.0000    0.488701
    0.492951    0.483541     17.1010     57.5019
   105.320
     5.85000    0.500000     52.6004     59.3996    0.492753
    0.487544    0.439872     17.3907     57.5019
   105.370
     5.85000    0.530021     55.4017     63.2030    0.518827
    0.519683    0.485783     17.3907     57.5019
   105.420
     5.85000    0.519973     54.5978     62.3967    0.510925
    0.511934    0.448829     17.3907     57.5019
   105.470
     5.88003    0.500000     52.3995     60.0000    0.491151
    0.492574    0.485783     17.3907     57.5019
   105.520
     5.90000    0.500000     52.0000     60.0000    0.487691
    0.494142    0.461186     17.3907     60.4697
   105.570
     5.91501    0.500000     52.6004     60.0000    0.492450
    0.493124    0.535086     16.8270     57.5019
   105.620
     5.92500    0.530021     55.4017     63.6026    0.520088
    0.522031    0.422968     17.1010     57.5019
   105.670
     5.95503    0.519973     54.5978     62.3967    0.512487
    0.511832    0.395023     17.3907     57.5019
   105.720
     5.97500    0.500000     52.3995     59.3995    0.491876
    0.487408    0.485783     17.3907     57.5019
   105.770
     5.89995    0.500000     52.6004     59.6004    0.490908
    0.489578    0.434213     17.3907     57.5019
   105.820
     5.85000    0.500000     52.3996     60.0000    0.486409
    0.492735    0.415117     17.3907     57.5019
   105.870
     5.85000    0.500000     53.2009     60.0000    0.492538
    0.492662    0.387139     17.3907     60.4697
   105.920
     5.85000    0.500000     52.7989     60.0000    0.494069
    0.492670    0.436461     16.8268     57.5019
   105.970
     5.83499    0.530027     54.4022     63.6033    0.516197
    0.522169    0.445456     17.1011     57.5019
   106.020
     5.82500    0.519980     54.1988     62.3976    0.511789
    0.512156    0.472336     17.3907     57.5019
   106.070
     5.84001    0.500000     52.3996     60.0000    0.491817
    0.492704    0.411706     17.3907     57.5019
   106.120
     5.85000    0.530021     55.0021     63.6026    0.517690
    0.522928    0.325448     17.3907     57.5019
   106.170
     5.85000    0.519973     53.3967     62.3967    0.509712
    0.512439    0.387139     17.3907     57.5019
   106.220
     5.85000    0.500000     51.6005     59.3995    0.493163
    0.487168    0.436461     17.3907     57.5019
   106.270
     5.86501    0.500000     52.0000     59.6004    0.488549
    0.489317    0.434213     17.3907     57.5019
   106.320
     5.87500    0.530020     55.6024     63.6024    0.517647
    0.522999    0.402740     17.3907     60.4697
   106.370
     5.87500    0.519979     54.3974     62.3974    0.509116
    0.512907    0.350185     16.8269     57.5019
   106.420
     5.87500    0.500000     50.7989     60.0000    0.491050
    0.492866    0.510519     17.1011     57.5019
   106.470
     5.92004    0.500000     50.6005     60.0000    0.493790
    0.492820    0.555344     17.3907     57.5019
   106.520
     5.95000    0.500000     51.6004     60.0000    0.492155
    0.492558    0.529542     17.3907     57.5019
   106.570
     5.93499    0.500000     52.0000     59.3996    0.489311
    0.487567    0.461018     17.3907     57.5019
   106.620
     5.92500    0.530021     55.0021     63.2030    0.520157
    0.519664    0.337816     17.3907     60.4697
   106.670
     5.86494    0.519973     52.7962     62.3967    0.507267
    0.513100    0.434212     16.8268     57.5019
   106.720
     5.82500    0.500000     51.8016     60.0000    0.488123
    0.492807    0.415125     17.1011     57.5019
   106.770
     5.82500    0.500000     53.6004     60.0000    0.491406
    0.492377    0.350045     17.3907     57.5019
   106.820
     5.82500    0.530020     57.0020     63.6024    0.519894
    0.522599    0.263767     17.3907     57.5019
   106.870
     5.84001    0.519979     55.3974     62.3974    0.513304
    0.512798    0.346811     17.3907     60.1873
   106.920
     5.83499    0.500000     51.1984     59.3995    0.489075
    0.487927    0.472331     16.8781     54.8117
   106.970
     5.82500    0.500000     51.2011     59.6005    0.490684
    0.489343    0.436461     17.6913     57.5019
   107.020
     5.85502    0.530020     55.0020     63.6024    0.521731
    0.522165    0.411736     17.6805     57.5019
   107.070
     5.87500    0.519980     53.3976     62.3976    0.512659
    0.511770    0.337835     17.3907     60.1873
   107.120
     5.87500    0.500000     49.7991     60.0000    0.490169
    0.492982    0.461197     16.8782     57.5019
   107.170
     5.87500    0.500000     49.6005     60.0000    0.486535
    0.493987    0.544100     17.1274     57.5019
   107.220
     5.90503    0.530027     54.8044     63.6033    0.520887
    0.523395    0.484700     17.3907     57.5019
   107.270
     5.92500    0.519980     54.3976     62.3976    0.511842
    0.512259    0.485789     17.3907     57.5019
   107.320
     5.94001    0.500000     52.0000     60.0000    0.492179
    0.491753    0.448838     17.3907     57.5019
   107.370
     5.95000    0.500000     50.7991     59.3996    0.488400
    0.487226    0.494778     17.3907     57.5019
   107.420
     5.88995    0.500000     51.2011     59.6005    0.487270
    0.489501    0.484700     17.3907     60.4697
   107.470
     5.85000    0.500000     53.2011     60.0000    0.493255
    0.492833    0.485783     16.8268     57.5019
   107.520
     5.85000    0.530020     56.4016     63.6024    0.518679
    0.521868    0.448823     17.1010     57.5019
   107.570
     5.85000    0.519980     54.9980     62.3976    0.512679
    0.511921    0.483523     17.3907     57.5019
   107.620
     5.85000    0.500000     52.3996     60.0000    0.490294
    0.493930    0.439861     17.3907     60.4697
   107.670
     5.85000    0.500000     52.6005     59.3995    0.488413
    0.489752    0.485783     16.8268     57.5019
   107.720
     5.83499    0.530027     56.0027     63.2038    0.519208
    0.521012    0.424093     17.1011     57.5019
   107.770
     5.82500    0.519980     54.9980     62.3976    0.509825
    0.513654    0.384885     17.3907     57.5019
   107.820
     5.85502    0.500000     52.3996     60.0000    0.490495
    0.492936    0.427495     17.3907     57.5019
