#------------------------------------------------------------
~VERSION INFORMATION
VERS.               2.0  :CWLS LOG ASCII STANDARD - VERSION 2.0
WRAP.               YES  :MULTIPLE LINES PER DEPTH STEP
#------------------------------------------------------------
~WELL INFORMATION
STRT.M          418.770  :FIRST INDEX VALUE
STOP.M          496.370  :LAST INDEX VALUE
STEP.M        0.0500000  :STEP
NULL.            -99999  :NULL VALUE
COMP.                    :COMPANY
WELL.                    :WELL
FLD.                     :FLD
LOC.                     :LOCATION
SRVC.                    :
CTRY.                    :COUNTRY
STAT.                    :STATE
CNTY.                    :
DATE.                    :DATE
API.                     :API
#------------------------------------------------------------
~CURVE INFORMATION
DEPT.M                   :DEPTH
SP.MV                    :SP
VSPR.V                   :VSPR
SPR.OHM                  :SPR
N8.OHM.M                 :N8
N16.OHM.M                :N16
N32.OHM.M                :N32
N64.OHM.M                :N64
IPLIN161.MV/V            :IPlin161
IPLIN165.MV/V            :IPlin165
IPLIN1610.MV/V           :IPlin1610
IPLIN641.MV/V            :IPlin641
IPLIN645.MV/V            :IPlin645
IPLIN6410.MV/V           :IPlin6410
SPEED.MT/MIN             :Speed
MAG_SUSC.10E-3_SI_UNITS   :Mag Susc
INDUCTION.MS/M           :Induction
IND_RES.OHM-M            :Ind Res
K.%                      :K
U.PPM                    :U
TH.PPM                   :Th
TILT.DEG                 :Tilt
MAGNFIELD.UT             :MagnField
AZIMUTH.DEG              :Azimuth
GRAVITY.G                :Gravity
GR.API                   :GR
CALIPER.CM               :Caliper
VP.M/S                   :Vp
VS.M/S                   :Vs
RHO_ND.                  :rho_ND
POISSON_RATIO.           :Poisson_ratio
#------------------------------------------------------------
~PARAMETER INFORMATION
API_Well_Number_. Yorbeau(Astoria)  :API Well Number:
Acquisition_dates_from_.   :Acquisition dates from:
Acquisition_dates_to_.   :Acquisition dates to:
BIT_FROM1.               :BIT FROM1
BIT_FROM2.               :BIT FROM2
BIT_FROM3.               :BIT FROM3
BIT_FROM4.               :BIT FROM4
BIT_FROM5.               :BIT FROM5
BIT_FROM6.               :BIT FROM6
BIT_TO1.                 :BIT TO1
BIT_TO2.                 :BIT TO2
BIT_TO3.                 :BIT TO3
BIT_TO4.                 :BIT TO4
BIT_TO5.                 :BIT TO5
BIT_TO6.                 :BIT TO6
BIT1.                    :BIT1
BIT2.                    :BIT2
BIT3.                    :BIT3
BIT4.                    :BIT4
BIT5.                    :BIT5
BIT6.                    :BIT6
BTM_LOGGED_INTERVAL.     :BTM LOGGED INTERVAL
CASING_FROM1.            :CASING FROM1
CASING_FROM2.            :CASING FROM2
CASING_FROM3.            :CASING FROM3
CASING_FROM4.            :CASING FROM4
CASING_FROM5.            :CASING FROM5
CASING_FROM6.            :CASING FROM6
CASING_SIZE1.            :CASING SIZE1
CASING_SIZE2.            :CASING SIZE2
CASING_SIZE3.            :CASING SIZE3
CASING_SIZE4.            :CASING SIZE4
CASING_SIZE5.            :CASING SIZE5
CASING_SIZE6.            :CASING SIZE6
CASING_TO1.              :CASING TO1
CASING_TO2.              :CASING TO2
CASING_TO3.              :CASING TO3
CASING_TO4.              :CASING TO4
CASING_TO5.              :CASING TO5
CASING_TO6.              :CASING TO6
CO.                      :CO
CTY.                     :CTY
Country_.        Canada  :Country:
Customer_.  Metal Earth  :Customer:
D_F_.                    :D.F.
DENSITY.                 :DENSITY
DEPTH-DRILLER.           :DEPTH-DRILLER
DEPTH-LOGGER.            :DEPTH-LOGGER
DRILLING_MEAS__FROM.     :DRILLING MEAS. FROM
Depth_unit_.     meters  :Depth unit:
Drilling_measured_from_.   :Drilling measured from:
ELEVATION.               :ELEVATION
FIELD.                   :FIELD
FILING_No.               :FILING No
File_Name_. AS-14-639-petrophysics.WCL  :File Name:
G_L_.                    :G.L.
Height_above_drilling_datum_.   :Height above drilling datum:
Height_above_log_datum_.   :Height above log datum:
K_B_.                    :K.B.
LEVEL.                   :LEVEL
LOG_MEAS__FROM.          :LOG MEAS. FROM
Location_Description_.   :Location Description:
Log_interval_is_from_. 1.36 m  :Log interval is from:
Log_interval_to_. 559.86  :Log interval to:
Log_is_measured_from_. TOP OF COLLAR  :Log is measured from:
MAX__REC__TEMP_.         :MAX. REC. TEMP.
OPERATING_RIG_TIME.      :OPERATING RIG TIME
OTHER_SERVICES.          :OTHER SERVICES
Operator_.      FG, JCD  :Operator:
Other_Services_.         :Other Services:
PERMANENT_DATUM.         :PERMANENT DATUM
Permanent_datum_elevation_#1.   :Permanent datum elevation:#1
Permanent_datum_is_#1. NQ  :Permanent datum is:#1
Permanent_datum_is_#2.   :Permanent datum is:#2
Permanent_datum_is_#3.   :Permanent datum is:#3
Permanent_datum_is__.    :Permanent datum is::
Print_type_is_.          :Print type is:
RECORDED_BY.             :RECORDED BY
RGE.                     :RGE
RUN_No.                  :RUN No
RUN1.                    :RUN1
RUN2.                    :RUN2
RUN3.                    :RUN3
RUN4.                    :RUN4
RUN5.                    :RUN5
RUN6.                    :RUN6
SALINITY.                :SALINITY
SEC.                     :SEC
STE.                     :STE
Scale_ratio_.            :Scale ratio:
Scaled_depth_is_.        :Scaled depth is:
Service_Company_. Université Laval  :Service Company:
State_/_Province_.   QC  :State / Province:
TITLE.                   :TITLE
TOP_LOGGED_INTERVAL.     :TOP LOGGED INTERVAL
TWP.                     :TWP
TYPE_FLUID_IN_HOLE.      :TYPE FLUID IN HOLE
TYPE_LOG.                :TYPE LOG
WELL_ID.                 :WELL ID
WGT1.                    :WGT1
WGT2.                    :WGT2
WGT3.                    :WGT3
WGT4.                    :WGT4
WGT5.                    :WGT5
WGT6.                    :WGT6
WITNESSED_BY.            :WITNESSED BY
Well_Name_.   AS-14-639  :Well Name:
#------------------------------------------------------------
~OTHER
#------------------------------------------------------------
~A
# ...
   495.770
     115.032     16.0318     1380.61     3264.48     5319.31
     7934.32     8057.31     91.9410     53.6754     40.0446
     120.511     63.5771     44.9747     4.27500    0.499394
     8.40123     119.800    0.354500     1.91788     5.13088
     40.4297     56.1078     207.412    0.991993     5.94398
    -99999.0     5494.88    -99999.0     2.61809    0.500000
   495.820
     127.680     16.0326     1379.06     3264.06     5275.51
     7906.04     7977.77     92.9195     53.7240     40.3840
     121.607     61.3687     43.9149     4.26919    0.453328
     8.36662     119.531   0.0571983    0.507244     4.51277
     40.4451     56.1155     207.600    0.992620     8.64882
    -99999.0     5555.56    -99999.0     2.62727    0.500000
   495.870
     133.397     16.0390     1376.05     3244.84     5248.63
     7859.11     7973.24     92.1371     53.6409     39.7997
     121.643     61.3913     43.9324     4.25582    0.438406
     8.34484     118.881     0.00000     0.00000     0.00000
     40.5458     56.0900     207.533    0.989568     7.85399
    -99999.0     5597.41    -99999.0     2.63702    0.500000
   495.920
     150.805     16.0408     1375.31     3219.40     5244.78
     7854.03     7709.75     91.9485     53.6203     39.6734
     123.758     62.7385     44.9573     4.27500    0.461082
     8.39959     118.878    0.290966     1.65192     1.54598
     40.0270     56.1154     206.827     1.00124     16.1181
    -99999.0     5703.84    -99999.0     2.65636    0.500000
   495.970
     160.437     16.0403     1364.99     3200.02     5216.18
     7794.56     7528.65     92.5709     53.9349     39.8215
     127.435     65.4753     46.0075     4.27500    0.472633
     8.41895     118.986    0.856772    0.789536     1.43569
     41.1000     56.1200     208.500    0.979600     11.4361
    -99999.0     5769.23    -99999.0     2.66794    0.500000
   496.020
     161.637     16.0331     1353.89     3196.43     5175.97
     7719.70     7411.37     92.6146     53.4290     39.9423
     125.187     62.3269     43.7275     4.27500    0.415178
     8.40442     118.238     1.16870     1.45456     7.70928
     39.9630     56.0936     206.772     1.00229     13.0440
    -99999.0     5814.40    -99999.0     2.67935    0.500000
   496.070
     164.264     16.0306     1350.75     3170.38     5127.74
     7645.33     7405.51     93.5428     54.0181     39.7340
     125.254     62.3445     43.7407     4.29825    0.424350
     8.42895     117.418    0.607203     1.96470     4.24811
     40.4339     56.1066     207.302    0.992493     20.4025
    -99999.0     5882.35    -99999.0     2.69075    0.397207
   496.120
     172.410     16.0304     1350.52     3147.65     5119.63
     7637.68     7050.44     93.7273     54.1550     39.6898
     129.244     63.4509     44.5629     4.37500    0.517299
     8.50164     115.543    0.316755     1.47064     1.35107
     40.3017     56.1051     207.153    0.996515     18.8284
    -99999.0     5929.33     3324.56     2.70306    0.282124
   496.170
     181.680     16.0304     1346.55     3135.98     5083.18
     7547.80     6743.43     94.1258     53.9556     39.4568
     130.944     66.5955     46.5752     4.35757    0.685311
     8.58964     112.616     1.91699     2.85209     3.29161
     40.5551     56.0803     207.548    0.989912     22.3839
    -99999.0     6000.00     3382.15     2.71546    0.266910
   496.220
     185.432     16.0301     1340.43     3134.04     5044.32
     7410.77     6488.47     93.4840     53.1807     39.1750
     128.521     63.1960     44.6467     4.29418    0.810879
     8.79844     112.546     1.60065    0.460940     1.62333
     40.3121     56.0900     207.206    0.994914     42.7707
    -99999.0     6048.94     3407.10     2.72876    0.268390
   496.270
     194.102     16.0297     1332.91     3123.17     5010.46
     7396.20     6481.50     94.7503     53.7332     38.9139
     128.588     63.2277     44.6608     4.27500    0.763796
     8.93155     113.659     1.94865     5.41727     11.8304
     40.3000     56.0800     207.400    0.995000     50.2426
    -99999.0     6122.45     3429.30     2.74216    0.270580
   496.320
     193.323     16.0296     1331.16     3106.40     5005.07
     7115.34     6075.35     95.0252     53.8692     38.8718
     132.682     65.1121     45.5487     4.26919    0.805145
     8.81884     112.468     1.79238     1.85616     3.53173
     40.0127     56.0826     206.838    0.999934     40.9340
    -99999.0     6122.45     3497.54     2.74350    0.256501
   496.370
     192.480     16.0295     1323.65     3079.16     4958.96
     6878.02     5744.77     94.6818     53.6107     38.5580
     137.178     64.6962     48.2698     4.25582    0.934941
     8.82987     110.148     2.59880     3.68878     8.50099
     40.1029     56.0971     206.776    0.998200     47.3639
    -99999.0     6122.45     3571.43     2.74350    0.243382
