#------------------------------------------------------------
~VERSION INFORMATION
VERS.               2.0  :CWLS LOG ASCII STANDARD - VERSION 2.0
WRAP.               YES  :MULTIPLE LINES PER DEPTH STEP
#------------------------------------------------------------
~WELL INFORMATION
STRT.M          418.770  :FIRST INDEX VALUE
STOP.M          496.370  :LAST INDEX VALUE
STEP.M        0.0500000  :STEP
NULL.            -99999  :NULL VALUE
COMP.                    :COMPANY
WELL.                    :WELL
FLD.                     :FLD
LOC.                     :LOCATION
SRVC.                    :
CTRY.                    :COUNTRY
STAT.                    :STATE
CNTY.                    :
DATE.                    :DATE
API.                     :API
#------------------------------------------------------------
~CURVE INFORMATION
DEPT.M                   :DEPTH
SP.MV                    :SP
VSPR.V                   :VSPR
SPR.OHM                  :SPR
N8.OHM.M                 :N8
N16.OHM.M                :N16
N32.OHM.M                :N32
N64.OHM.M                :N64
IPLIN161.MV/V            :IPlin161
IPLIN165.MV/V            :IPlin165
IPLIN1610.MV/V           :IPlin1610
IPLIN641.MV/V            :IPlin641
IPLIN645.MV/V            :IPlin645
IPLIN6410.MV/V           :IPlin6410
SPEED.MT/MIN             :Speed
MAG_SUSC.10E-3_SI_UNITS   :Mag Susc
INDUCTION.MS/M           :Induction
IND_RES.OHM-M            :Ind Res
K.%                      :K
U.PPM                    :U
TH.PPM                   :Th
TILT.DEG                 :Tilt
MAGNFIELD.UT             :MagnField
AZIMUTH.DEG              :Azimuth
GRAVITY.G                :Gravity
GR.API                   :GR
CALIPER.CM               :Caliper
VP.M/S                   :Vp
VS.M/S                   :Vs
RHO_ND.                  :rho_ND
POISSON_RATIO.           :Poisson_ratio
#------------------------------------------------------------
~PARAMETER INFORMATION
API_Well_Number_. Yorbeau(Astoria)  :API Well Number:
Acquisition_dates_from_.   :Acquisition dates from:
Acquisition_dates_to_.   :Acquisition dates to:
BIT_FROM1.               :BIT FROM1
BIT_FROM2.               :BIT FROM2
BIT_FROM3.               :BIT FROM3
BIT_FROM4.               :BIT FROM4
BIT_FROM5.               :BIT FROM5
BIT_FROM6.               :BIT FROM6
BIT_TO1.                 :BIT TO1
BIT_TO2.                 :BIT TO2
BIT_TO3.                 :BIT TO3
BIT_TO4.                 :BIT TO4
BIT_TO5.                 :BIT TO5
BIT_TO6.                 :BIT TO6
BIT1.                    :BIT1
BIT2.                    :BIT2
BIT3.                    :BIT3
BIT4.                    :BIT4
BIT5.                    :BIT5
BIT6.                    :BIT6
BTM_LOGGED_INTERVAL.     :BTM LOGGED INTERVAL
CASING_FROM1.            :CASING FROM1
CASING_FROM2.            :CASING FROM2
CASING_FROM3.            :CASING FROM3
CASING_FROM4.            :CASING FROM4
CASING_FROM5.            :CASING FROM5
CASING_FROM6.            :CASING FROM6
CASING_SIZE1.            :CASING SIZE1
CASING_SIZE2.            :CASING SIZE2
CASING_SIZE3.            :CASING SIZE3
CASING_SIZE4.            :CASING SIZE4
CASING_SIZE5.            :CASING SIZE5
CASING_SIZE6.            :CASING SIZE6
CASING_TO1.              :CASING TO1
CASING_TO2.              :CASING TO2
CASING_TO3.              :CASING TO3
CASING_TO4.              :CASING TO4
CASING_TO5.              :CASING TO5
CASING_TO6.              :CASING TO6
CO.                      :CO
CTY.                     :CTY
Country_.        Canada  :Country:
Customer_.  Metal Earth  :Customer:
D_F_.                    :D.F.
DENSITY.                 :DENSITY
DEPTH-DRILLER.           :DEPTH-DRILLER
DEPTH-LOGGER.            :DEPTH-LOGGER
DRILLING_MEAS__FROM.     :DRILLING MEAS. FROM
Depth_unit_.     meters  :Depth unit:
Drilling_measured_from_.   :Drilling measured from:
ELEVATION.               :ELEVATION
FIELD.                   :FIELD
FILING_No.               :FILING No
File_Name_. AS-14-639-petrophysics.WCL  :File Name:
G_L_.                    :G.L.
Height_above_drilling_datum_.   :Height above drilling datum:
Height_above_log_datum_.   :Height above log datum:
K_B_.                    :K.B.
LEVEL.                   :LEVEL
LOG_MEAS__FROM.          :LOG MEAS. FROM
Location_Description_.   :Location Description:
Log_interval_is_from_. 1.36 m  :Log interval is from:
Log_interval_to_. 559.86  :Log interval to:
Log_is_measured_from_. TOP OF COLLAR  :Log is measured from:
MAX__REC__TEMP_.         :MAX. REC. TEMP.
OPERATING_RIG_TIME.      :OPERATING RIG TIME
OTHER_SERVICES.          :OTHER SERVICES
Operator_.      FG, JCD  :Operator:
Other_Services_.         :Other Services:
PERMANENT_DATUM.         :PERMANENT DATUM
Permanent_datum_elevation_#1.   :Permanent datum elevation:#1
Permanent_datum_is_#1. NQ  :Permanent datum is:#1
Permanent_datum_is_#2.   :Permanent datum is:#2
Permanent_datum_is_#3.   :Permanent datum is:#3
Permanent_datum_is__.    :Permanent datum is::
Print_type_is_.          :Print type is:
RECORDED_BY.             :RECORDED BY
RGE.                     :RGE
RUN_No.                  :RUN No
RUN1.                    :RUN1
RUN2.                    :RUN2
RUN3.                    :RUN3
RUN4.                    :RUN4
RUN5.                    :RUN5
RUN6.                    :RUN6
SALINITY.                :SALINITY
SEC.                     :SEC
STE.                     :STE
Scale_ratio_.            :Scale ratio:
Scaled_depth_is_.        :Scaled depth is:
Service_Company_. Université Laval  :Service Company:
State_/_Province_.   QC  :State / Province:
TITLE.                   :TITLE
TOP_LOGGED_INTERVAL.     :TOP LOGGED INTERVAL
TWP.                     :TWP
TYPE_FLUID_IN_HOLE.      :TYPE FLUID IN HOLE
TYPE_LOG.                :TYPE LOG
WELL_ID.                 :WELL ID
WGT1.                    :WGT1
WGT2.                    :WGT2
WGT3.                    :WGT3
WGT4.                    :WGT4
WGT5.                    :WGT5
WGT6.                    :WGT6
WITNESSED_BY.            :WITNESSED BY
Well_Name_.   AS-14-639  :Well Name:
#------------------------------------------------------------
~OTHER
#------------------------------------------------------------
~A
# ...
   459.470
     73.8217     16.0264     1274.42     2758.96     4249.94
     5883.01     6342.79     84.7997     48.4405     36.5161
     107.263     57.1668     44.4840     4.10000    0.528508
     8.19630     122.327     0.00000     0.00000     0.00000
     39.8777     55.8624     208.780    0.989510     1.44465
    -99999.0     5882.35     2808.17     2.69314    0.352860
   459.520
     64.9393     16.0205     1280.59     2784.37     4304.97
     5960.24     6362.39     84.1960     47.9303     36.2569
     108.991     59.5810     42.7144     4.10000    0.521106
     8.18584     122.478     0.00000     0.00000     0.00000
     40.0566     55.9148     208.831    0.987676     0.00000
    -99999.0     5837.19     2786.97     2.68165    0.351981
   459.570
     58.0961     16.0187     1281.94     2816.74     4314.46
     6037.69     6407.37     84.0775     47.8190     36.2004
     107.145     57.6690     43.7988     4.08838    0.513810
     8.16377     122.274     0.00000     0.00000     0.00000
     39.2428     55.8721     207.664     1.00392     0.00000
    -99999.0     5725.80     2774.34     2.66063    0.346325
   459.620
     53.8800     16.0189     1286.63     2853.32     4375.59
     6045.65     6408.01     84.2170     48.1593     36.3816
     107.131     57.6681     43.7844     4.05000    0.505192
     8.17162     122.074   0.0610422    0.575694    0.951797
     39.6917     55.8800     208.129    0.994870     1.84606
    -99999.0     5618.53     2770.19     2.64004    0.339401
   459.670
     52.2745     16.0199     1290.78     2860.94     4454.15
     6116.17     6445.53     84.4343     48.3652     36.2748
     106.380     57.6507     42.9069     4.03838    0.525529
     8.18849     121.908     0.00000     0.00000     0.00000
     39.8676     55.8984     208.313    0.991657    0.792267
    -99999.0     5555.56     2755.75     2.62918    0.337260
   459.720
     50.0878     16.0205     1295.27     2887.05     4529.02
     6220.20     6499.04     84.2135     48.1734     36.6647
     110.054     59.4609     40.0252     4.00582    0.539657
     8.19881     121.808  0.00371633    0.248553     1.56155
     39.7455     55.9018     208.345    0.993082     1.36299
    -99999.0     5476.26     2735.31     2.61227    0.332780
   459.770
     55.8423     16.0205     1296.32     2914.04     4592.94
     6333.05     6571.04     84.0626     48.2416     36.3668
     106.074     56.3900     43.8102     4.01919    0.545423
     8.20837     121.813     0.00000     0.00000     0.00000
     39.6187     55.8819     207.978    0.998214     0.00000
    -99999.0     5357.14     2723.15     2.59458    0.326454
   459.820
     60.4800     16.0205     1298.94     2939.47     4603.05
     6344.77     6658.93     84.0429     48.2633     36.2927
     108.243     59.6214     40.7791     4.00000    0.534925
     8.21019     121.956     0.00000     0.00000     0.00000
     39.1688     55.8742     207.711     1.00494    0.242236
    -99999.0     5319.64     2734.78     2.58570    0.319505
   459.870
     60.8373     16.0211     1300.47     2954.62     4643.06
     6439.32     6660.69     83.7315     48.1529     36.3899
     108.192     59.5562     40.8190     4.00582    0.540527
     8.20432     122.044     0.00000     0.00000     0.00000
     39.7000     55.8600     208.400    0.994000    0.450265
    -99999.0     5263.16     2742.30     2.57770    0.314571
   459.920
     61.6800     16.0214     1300.97     2957.16     4682.13
     6549.16     6763.73     83.6739     48.5092     36.5466
     105.207     55.8503     43.1023     4.01919    0.568856
     8.19425     121.812     0.00000     0.00000     0.00000
     39.7355     55.9111     208.353    0.992205     2.01825
    -99999.0     5226.93     2737.26     2.57015    0.309961
   459.970
     63.1092     16.0213     1299.86     2959.04     4710.82
     6647.67     6867.98     84.0358     48.1448     36.3243
     105.132     58.4758     42.1299     4.00582    0.563593
     8.20068     121.008     0.00000     0.00000     0.00000
     39.6670     55.8834     208.334    0.995426    0.461912
    -99999.0     5172.41     2762.48     2.56274    0.300861
   460.020
     66.4800     16.0213     1299.51     2963.46     4715.22
     6657.68     6967.77     84.1062     48.0594     36.2758
     105.652     55.5771     40.9332     4.02500    0.546347
     8.23969     120.693     0.00000     0.00000     0.00000
     39.5477     55.9000     208.049    0.996586    0.255165
    -99999.0     5172.41     2820.43     2.56200    0.287219
   460.070
     67.9071     16.0216     1298.51     2965.13     4727.38
     6712.47     6969.03     83.9046     48.2538     36.4755
     105.657     55.6031     40.9214     4.02500    0.547540
     8.28806     121.445    0.326406     2.34922     3.36004
     39.5857     55.8800     208.126    0.996741     1.35339
    -99999.0     5172.41     2831.82     2.56200    0.288138
   460.120
     72.1732     16.0220     1298.39     2965.30     4733.23
     6765.67     7045.49     84.1476     48.5428     36.3471
     105.975     57.1593     40.2085     4.03082    0.563255
     8.26038     121.077     0.00000     0.00000     0.00000
     39.4763     55.8657     207.853    0.999007     0.00000
    -99999.0     5137.41     2794.16     2.55570    0.286150
   460.170
     76.7774     16.0218     1297.19     2962.12     4732.76
     6804.50     7112.20     84.2777     48.4141     36.4313
     105.437     57.6535     39.8783     4.06162    0.581675
     8.23078     119.873    0.164849     1.17734     3.36890
     40.4445     55.8903     209.224    0.978569    0.960651
    -99999.0     5084.75     2815.28     2.54870    0.281491
   460.220
     82.6800     16.0217     1296.82     2961.68     4732.54
     6831.93     7166.99     84.2924     48.3794     36.4542
     104.109     54.2431     38.8236     4.10000    0.579780
     8.31438     119.754     0.00000     0.00000     0.00000
     40.2497     55.8887     209.075    0.982369    0.586723
    -99999.0     5119.78     2752.29     2.55430    0.296029
   460.270
     84.6423     16.0213     1294.56     2960.10     4730.22
     6834.64     7167.39     84.0940     48.2732     36.2009
     104.123     54.2598     38.8362     4.10000    0.574801
     8.36238     120.327    0.437233     1.47734     1.47824
     39.6719     55.8756     208.100    0.995863    0.542542
    -99999.0     5172.41     2732.49     2.56130    0.306423
   460.320
     90.3503     16.0210     1292.55     2959.67     4723.45
     6849.43     7190.25     84.3457     48.4350     35.6910
     104.917     55.2820     39.5778     4.07675    0.570420
     8.32519     121.291     0.00000     0.00000     0.00000
     39.6711     55.9168     208.191    0.995107     0.00000
    -99999.0     5172.41     2712.51     2.56200    0.309558
   460.370
     94.3092     16.0209     1289.92     2950.23     4711.40
     6843.28     7177.93     84.1873     48.0509     36.0830
     103.089     57.1252     38.8992     4.00582    0.564496
     8.27186     121.086     0.00000     0.00000     0.00000
     39.6803     55.8901     208.161    0.995316     2.05859
    -99999.0     5208.65     2737.26     2.56866    0.309620
   460.420
     97.6800     16.0209     1289.27     2939.52     4694.77
     6812.26     7139.50     84.1330     48.3064     35.6227
     104.573     55.8931     38.1010     4.02500    0.567273
     8.23552     120.533     0.00000     0.00000     0.00000
     39.4958     55.8951     208.020    0.998536     1.25481
    -99999.0     5263.16     2762.47     2.57615    0.309420
   460.470
     98.9305     16.0204     1285.85     2927.15     4691.94
     6808.80     7138.13     84.1307     48.3724     35.5142
     104.560     55.8682     38.1436     4.01919    0.594383
     8.28966     120.386     0.00000     0.00000     0.00000
     39.6653     55.8835     208.248    0.994606     0.00000
    -99999.0     5300.72     2788.15     2.58410    0.309220
   460.520
     103.129     16.0193     1282.45     2914.44     4671.39
     6753.60     7057.77     84.5226     47.9123     35.5270
     103.774     54.4455     40.6015     4.00000    0.600634
     8.30516     120.185     0.00000     0.00000     0.00000
     39.9501     55.9079     208.443    0.988862    0.832893
    -99999.0     5396.03     2803.74     2.59974    0.395985
