#------------------------------------------------------------
~VERSION INFORMATION
VERS.               2.0  :CWLS LOG ASCII STANDARD - VERSION 2.0
WRAP.               YES  :MULTIPLE LINES PER DEPTH STEP
#------------------------------------------------------------
~WELL INFORMATION
STRT.M          418.770  :FIRST INDEX VALUE
STOP.M          496.370  :LAST INDEX VALUE
STEP.M        0.0500000  :STEP
NULL.            -99999  :NULL VALUE
COMP.                    :COMPANY
WELL.                    :WELL
FLD.                     :FLD
LOC.                     :LOCATION
SRVC.                    :
CTRY.                    :COUNTRY
STAT.                    :STATE
CNTY.                    :
DATE.                    :DATE
API.                     :API
#------------------------------------------------------------
~CURVE INFORMATION
DEPT.M                   :DEPTH
SP.MV                    :SP
VSPR.V                   :VSPR
SPR.OHM                  :SPR
N8.OHM.M                 :N8
N16.OHM.M                :N16
N32.OHM.M                :N32
N64.OHM.M                :N64
IPLIN161.MV/V            :IPlin161
IPLIN165.MV/V            :IPlin165
IPLIN1610.MV/V           :IPlin1610
IPLIN641.MV/V            :IPlin641
IPLIN645.MV/V            :IPlin645
IPLIN6410.MV/V           :IPlin6410
SPEED.MT/MIN             :Speed
MAG_SUSC.10E-3_SI_UNITS   :Mag Susc
INDUCTION.MS/M           :Induction
IND_RES.OHM-M            :Ind Res
K.%                      :K
U.PPM                    :U
TH.PPM                   :Th
TILT.DEG                 :Tilt
MAGNFIELD.UT             :MagnField
AZIMUTH.DEG              :Azimuth
GRAVITY.G                :Gravity
GR.API                   :GR
CALIPER.CM               :Caliper
VP.M/S                   :Vp
VS.M/S                   :Vs
RHO_ND.                  :rho_ND
POISSON_RATIO.           :Poisson_ratio
#------------------------------------------------------------
~PARAMETER INFORMATION
API_Well_Number_. Yorbeau(Astoria)  :API Well Number:
Acquisition_dates_from_.   :Acquisition dates from:
Acquisition_dates_to_.   :Acquisition dates to:
BIT_FROM1.               :BIT FROM1
BIT_FROM2.               :BIT FROM2
BIT_FROM3.               :BIT FROM3
BIT_FROM4.               :BIT FROM4
BIT_FROM5.               :BIT FROM5
BIT_FROM6.               :BIT FROM6
BIT_TO1.                 :BIT TO1
BIT_TO2.                 :BIT TO2
BIT_TO3.                 :BIT TO3
BIT_TO4.                 :BIT TO4
BIT_TO5.                 :BIT TO5
BIT_TO6.                 :BIT TO6
BIT1.                    :BIT1
BIT2.                    :BIT2
BIT3.                    :BIT3
BIT4.                    :BIT4
BIT5.                    :BIT5
BIT6.                    :BIT6
BTM_LOGGED_INTERVAL.     :BTM LOGGED INTERVAL
CASING_FROM1.            :CASING FROM1
CASING_FROM2.            :CASING FROM2
CASING_FROM3.            :CASING FROM3
CASING_FROM4.            :CASING FROM4
CASING_FROM5.            :CASING FROM5
CASING_FROM6.            :CASING FROM6
CASING_SIZE1.            :CASING SIZE1
CASING_SIZE2.            :CASING SIZE2
CASING_SIZE3.            :CASING SIZE3
CASING_SIZE4.            :CASING SIZE4
CASING_SIZE5.            :CASING SIZE5
CASING_SIZE6.            :CASING SIZE6
CASING_TO1.              :CASING TO1
CASING_TO2.              :CASING TO2
CASING_TO3.              :CASING TO3
CASING_TO4.              :CASING TO4
CASING_TO5.              :CASING TO5
CASING_TO6.              :CASING TO6
CO.                      :CO
CTY.                     :CTY
Country_.        Canada  :Country:
Customer_.  Metal Earth  :Customer:
D_F_.                    :D.F.
DENSITY.                 :DENSITY
DEPTH-DRILLER.           :DEPTH-DRILLER
DEPTH-LOGGER.            :DEPTH-LOGGER
DRILLING_MEAS__FROM.     :DRILLING MEAS. FROM
Depth_unit_.     meters  :Depth unit:
Drilling_measured_from_.   :Drilling measured from:
ELEVATION.               :ELEVATION
FIELD.                   :FIELD
FILING_No.               :FILING No
File_Name_. AS-14-639-petrophysics.WCL  :File Name:
G_L_.                    :G.L.
Height_above_drilling_datum_.   :Height above drilling datum:
Height_above_log_datum_.   :Height above log datum:
K_B_.                    :K.B.
LEVEL.                   :LEVEL
LOG_MEAS__FROM.          :LOG MEAS. FROM
Location_Description_.   :Location Description:
Log_interval_is_from_. 1.36 m  :Log interval is from:
Log_interval_to_. 559.86  :Log interval to:
Log_is_measured_from_. TOP OF COLLAR  :Log is measured from:
MAX__REC__TEMP_.         :MAX. REC. TEMP.
OPERATING_RIG_TIME.      :OPERATING RIG TIME
OTHER_SERVICES.          :OTHER SERVICES
Operator_.      FG, JCD  :Operator:
Other_Services_.         :Other Services:
PERMANENT_DATUM.         :PERMANENT DATUM
Permanent_datum_elevation_#1.   :Permanent datum elevation:#1
Permanent_datum_is_#1. NQ  :Permanent datum is:#1
Permanent_datum_is_#2.   :Permanent datum is:#2
Permanent_datum_is_#3.   :Permanent datum is:#3
Permanent_datum_is__.    :Permanent datum is::
Print_type_is_.          :Print type is:
RECORDED_BY.             :RECORDED BY
RGE.                     :RGE
RUN_No.                  :RUN No
RUN1.                    :RUN1
RUN2.                    :RUN2
RUN3.                    :RUN3
RUN4.                    :RUN4
RUN5.                    :RUN5
RUN6.                    :RUN6
SALINITY.                :SALINITY
SEC.                     :SEC
STE.                     :STE
Scale_ratio_.            :Scale ratio:
Scaled_depth_is_.        :Scaled depth is:
Service_Company_. Université Laval  :Service Company:
State_/_Province_.   QC  :State / Province:
TITLE.                   :TITLE
TOP_LOGGED_INTERVAL.     :TOP LOGGED INTERVAL
TWP.                     :TWP
TYPE_FLUID_IN_HOLE.      :TYPE FLUID IN HOLE
TYPE_LOG.                :TYPE LOG
WELL_ID.                 :WELL ID
WGT1.                    :WGT1
WGT2.                    :WGT2
WGT3.                    :WGT3
WGT4.                    :WGT4
WGT5.                    :WGT5
WGT6.                    :WGT6
WITNESSED_BY.            :WITNESSED BY
Well_Name_.   AS-14-639  :Well Name:
#------------------------------------------------------------
~OTHER
#------------------------------------------------------------
~A
# ...
   480.370
    -20.7627     16.0205     1350.12     3241.94     5431.83
     8560.28     10462.3     95.6520     58.1922     47.6217
     124.798     69.4725     56.9559     4.01337    0.485707
     8.19052     122.138    0.674816    0.906311     1.03199
     40.4387     56.0276     208.770    0.989107     2.96803
    -99999.0     5929.33     3571.43     2.70306    0.216019
   480.420
    -19.2064     16.0211     1348.52     3239.86     5433.27
     8560.93     10466.9     95.4732     58.1291     47.4162
     123.640     69.1800     57.8195     3.97500    0.517994
     8.19092     122.387     0.00000     0.00000     0.00000
     39.8424     56.0317     207.842     1.00116     1.33954
    -99999.0     6000.00     3571.43     2.71546    0.224729
   480.470
    -17.5200     16.0212     1348.00     3238.87     5433.52
     8560.94     10461.8     95.4316     58.1155     47.3696
     124.643     69.6733     56.7003     3.97500    0.488420
     8.17775     122.179    0.134119     1.71861     4.60653
     39.9301     56.0008     208.030    0.999034     2.91387
    -99999.0     6048.94     3554.64     2.72876    0.237119
   480.520
    -17.5200     16.0212     1346.77     3237.57     5431.90
     8576.96     10461.3     95.8156     58.0872     47.5295
     124.649     69.6778     56.7013     3.96918    0.502246
     8.17321     122.043     0.00000     0.00000     0.00000
     40.3073     56.0300     208.484    0.993037     2.08703
    -99999.0     6073.56     3546.19     2.73010    0.238400
   480.570
    -16.9848     16.0211     1345.51     3237.27     5429.83
     8575.45     10433.0     96.1181     58.1495     47.5506
     124.977     69.9312     56.7751     3.95000    0.551163
     8.19562     122.106     0.00000     0.00000     0.00000
     40.2000     56.0022     208.339    0.994234    0.941460
    -99999.0     6000.00     3588.60     2.71805    0.222212
   480.620
    -14.8268     16.0213     1344.62     3239.00     5427.28
     8555.47     10395.9     95.6855     57.9281     47.3416
     123.710     68.8454     57.6952     3.95000    0.583418
     8.19082     122.067     0.00000     0.00000     0.00000
     40.1934     56.0355     208.268    0.994676    0.356577
    -99999.0     6000.00     3632.06     2.71670    0.210681
   480.670
    -11.4713     16.0214     1344.44     3235.33     5426.84
     8553.22     10345.2     95.5923     57.8823     47.3011
     125.105     69.6330     56.7756     3.95000    0.550315
     8.19015     122.071     0.00000     0.00000     0.00000
     40.3705     56.0400     208.600    0.989584     1.31412
    -99999.0     6000.00     3623.76     2.71670    0.214369
   480.720
    -8.52000     16.0210     1344.36     3228.76     5423.32
     8526.50     10344.1     95.8713     57.9424     47.4195
     125.092     69.6276     56.7913     3.95581    0.512783
     8.19333     122.210   0.0328762    0.354606    0.975253
     40.0270     56.0500     207.981    0.997439     1.31764
    -99999.0     6000.00     3588.62     2.71670    0.219850
   480.770
    -8.34161     16.0209     1342.87     3227.36     5416.86
     8490.20     10283.5     95.9713     58.0589     47.5134
     124.376     69.3322     57.6916     3.96918    0.550923
     8.18682     122.179     0.00000     0.00000     0.00000
     40.0000     56.0300     208.100    0.997100    0.871868
    -99999.0     6048.89     3614.46     2.72876    0.223550
   480.820
    -7.38484     16.0210     1341.27     3227.79     5403.30
     8466.43     10238.3     95.7277     57.8338     47.3246
     124.832     70.0530     57.5083     3.95000    0.576449
     8.18115     121.931   0.0900623    0.971420     2.67164
     39.7688     56.0364     207.576     1.00452    0.655865
    -99999.0     6073.59     3614.46     2.73010    0.223900
   480.870
    -6.29865     16.0211     1340.94     3223.40     5400.87
     8434.80     10187.4     95.6784     57.7857     47.2850
     125.333     69.7044     56.7245     3.95000    0.546908
     8.19447     121.877     0.00000     0.00000     0.00000
     40.3954     56.0167     208.659    0.990130     0.00000
    -99999.0     6048.89     3614.46     2.73010    0.223900
   480.920
    -6.72000     16.0209     1341.58     3214.05     5381.03
     8431.43     10186.4     95.6892     57.8414     47.3282
     125.325     69.6932     56.7405     3.96162    0.522842
     8.20704     122.245    0.157741     1.45639     4.02354
     40.0534     56.0401     208.205    0.995931     1.07017
    -99999.0     6122.45     3597.28     2.74216    0.235958
   480.970
    -7.25594     16.0209     1340.84     3211.96     5357.11
     8378.12     10128.7     95.6590     57.7120     47.1999
     124.883     69.0515     57.6835     4.01163    0.520704
     8.19243     122.577     0.00000     0.00000     0.00000
     40.2838     56.0269     208.280    0.992385     0.00000
    -99999.0     6122.45     3571.43     2.74350    0.241620
   481.020
    -7.62806     16.0208     1338.77     3202.42     5334.20
     8323.27     10088.7     95.5056     57.6155     47.2865
     125.873     70.4803     57.2477     4.03837    0.508918
     8.16306     122.372     0.00000     0.00000     0.00000
     40.5566     56.0238     208.857    0.986513     2.50662
    -99999.0     6122.45     3554.65     2.74350    0.246149
   481.070
    -4.80645     16.0207     1338.25     3189.17     5310.26
     8263.35     10040.2     95.8635     57.7633     47.1572
     126.876     69.8872     56.1980     4.00000    0.508884
     8.16160     121.789     0.00000     0.00000     0.00000
     40.0967     56.0293     208.103    0.998113     1.34577
    -99999.0     6122.45     3546.18     2.74350    0.246600
   481.120
    -3.12000     16.0206     1336.21     3182.22     5306.31
     8257.10     10039.1     95.9392     57.7948     47.1276
     126.861     69.8996     56.2163     3.98837    0.482220
     8.19584     121.430    0.383422    0.484075    0.682651
     40.0000     56.0487     208.275    0.998662     1.49571
    -99999.0     6122.45     3571.43     2.74350    0.242551
   481.170
    -2.58484     16.0202     1333.92     3176.71     5284.77
     8200.86     9974.87     95.8830     57.7730     47.0772
     126.039     70.6087     57.2549     3.95000    0.505711
     8.23094     121.697    0.305165     1.98659     5.90049
     40.2859     56.0343     208.357    0.993454     2.69470
    -99999.0     6122.45     3571.43     2.74350    0.242100
   481.220
    -1.32000     16.0199     1334.11     3175.58     5257.49
     8159.81     9930.68     95.3637     57.5145     47.1566
     126.920     70.2710     56.3167     3.95000    0.513881
     8.22935     121.507    0.511233    0.606434    0.960721
     40.1898     56.0433     208.301    0.994937     2.05144
    -99999.0     6122.45     3538.24     2.74350    0.250019
   481.270
   -0.784835     16.0201     1334.49     3165.61     5230.53
     8109.73     9888.64     95.7539     57.6105     46.9995
     127.236     70.3892     56.6324     3.95000    0.513182
     8.21603     120.778  0.000921316    0.311364    0.608926
     39.9803     56.0280     208.020    0.999753     1.08219
    -99999.0     6073.56     3472.36     2.73144    0.255939
   481.320
    0.480000     16.0202     1334.54     3156.74     5226.15
     8104.42     9832.49     95.8495     57.6390     46.9653
     126.537     70.7268     56.7358     3.95000    0.508247
     8.26113     121.310     0.00000     0.00000     0.00000
     40.8543     56.0300     209.509    0.980747     1.22408
    -99999.0     6000.00     3448.28     2.71805    0.253712
   481.370
    0.837291     16.0206     1333.10     3148.23     5208.46
     8058.08     9831.74     95.3803     57.5154     47.0762
     126.551     70.7302     56.7270     3.95581    0.508647
     8.27382     122.007    0.343307    0.406804     1.22112
     39.6828     56.0683     207.716     1.00525     3.04109
    -99999.0     6048.89     3448.28     2.72876    0.259879
   481.420
     1.68000     16.0204     1331.86     3146.47     5193.38
     8035.03     9787.92     95.6282     57.5404     47.0796
     127.341     70.9192     56.2341     3.96919    0.510526
     8.20414     122.095  0.000733140   0.0680972    0.397087
     40.1707     56.0215     208.263    0.994472     2.68574
    -99999.0     6073.56     3464.29     2.73010    0.256641
