#------------------------------------------------------------
~VERSION INFORMATION
VERS.               2.0  :CWLS LOG ASCII STANDARD - VERSION 2.0
WRAP.               YES  :MULTIPLE LINES PER DEPTH STEP
#------------------------------------------------------------
~WELL INFORMATION
STRT.M          418.770  :FIRST INDEX VALUE
STOP.M          496.370  :LAST INDEX VALUE
STEP.M        0.0500000  :STEP
NULL.            -99999  :NULL VALUE
COMP.                    :COMPANY
WELL.                    :WELL
FLD.                     :FLD
LOC.                     :LOCATION
SRVC.                    :
CTRY.                    :COUNTRY
STAT.                    :STATE
CNTY.                    :
DATE.                    :DATE
API.                     :API
#------------------------------------------------------------
~CURVE INFORMATION
DEPT.M                   :DEPTH
SP.MV                    :SP
VSPR.V                   :VSPR
SPR.OHM                  :SPR
N8.OHM.M                 :N8
N16.OHM.M                :N16
N32.OHM.M                :N32
N64.OHM.M                :N64
IPLIN161.MV/V            :IPlin161
IPLIN165.MV/V            :IPlin165
IPLIN1610.MV/V           :IPlin1610
IPLIN641.MV/V            :IPlin641
IPLIN645.MV/V            :IPlin645
IPLIN6410.MV/V           :IPlin6410
SPEED.MT/MIN             :Speed
MAG_SUSC.10E-3_SI_UNITS   :Mag Susc
INDUCTION.MS/M           :Induction
IND_RES.OHM-M            :Ind Res
K.%                      :K
U.PPM                    :U
TH.PPM                   :Th
TILT.DEG                 :Tilt
MAGNFIELD.UT             :MagnField
AZIMUTH.DEG              :Azimuth
GRAVITY.G                :Gravity
GR.API                   :GR
CALIPER.CM               :Caliper
VP.M/S                   :Vp
VS.M/S                   :Vs
RHO_ND.                  :rho_ND
POISSON_RATIO.           :Poisson_ratio
#------------------------------------------------------------
~PARAMETER INFORMATION
API_Well_Number_. Yorbeau(Astoria)  :API Well Number:
Acquisition_dates_from_.   :Acquisition dates from:
Acquisition_dates_to_.   :Acquisition dates to:
BIT_FROM1.               :BIT FROM1
BIT_FROM2.               :BIT FROM2
BIT_FROM3.               :BIT FROM3
BIT_FROM4.               :BIT FROM4
BIT_FROM5.               :BIT FROM5
BIT_FROM6.               :BIT FROM6
BIT_TO1.                 :BIT TO1
BIT_TO2.                 :BIT TO2
BIT_TO3.                 :BIT TO3
BIT_TO4.                 :BIT TO4
BIT_TO5.                 :BIT TO5
BIT_TO6.                 :BIT TO6
BIT1.                    :BIT1
BIT2.                    :BIT2
BIT3.                    :BIT3
BIT4.                    :BIT4
BIT5.                    :BIT5
BIT6.                    :BIT6
BTM_LOGGED_INTERVAL.     :BTM LOGGED INTERVAL
CASING_FROM1.            :CASING FROM1
CASING_FROM2.            :CASING FROM2
CASING_FROM3.            :CASING FROM3
CASING_FROM4.            :CASING FROM4
CASING_FROM5.            :CASING FROM5
CASING_FROM6.            :CASING FROM6
CASING_SIZE1.            :CASING SIZE1
CASING_SIZE2.            :CASING SIZE2
CASING_SIZE3.            :CASING SIZE3
CASING_SIZE4.            :CASING SIZE4
CASING_SIZE5.            :CASING SIZE5
CASING_SIZE6.            :CASING SIZE6
CASING_TO1.              :CASING TO1
CASING_TO2.              :CASING TO2
CASING_TO3.              :CASING TO3
CASING_TO4.              :CASING TO4
CASING_TO5.              :CASING TO5
CASING_TO6.              :CASING TO6
CO.                      :CO
CTY.                     :CTY
Country_.        Canada  :Country:
Customer_.  Metal Earth  :Customer:
D_F_.                    :D.F.
DENSITY.                 :DENSITY
DEPTH-DRILLER.           :DEPTH-DRILLER
DEPTH-LOGGER.            :DEPTH-LOGGER
DRILLING_MEAS__FROM.     :DRILLING MEAS. FROM
Depth_unit_.     meters  :Depth unit:
Drilling_measured_from_.   :Drilling measured from:
ELEVATION.               :ELEVATION
FIELD.                   :FIELD
FILING_No.               :FILING No
File_Name_. AS-14-639-petrophysics.WCL  :File Name:
G_L_.                    :G.L.
Height_above_drilling_datum_.   :Height above drilling datum:
Height_above_log_datum_.   :Height above log datum:
K_B_.                    :K.B.
LEVEL.                   :LEVEL
LOG_MEAS__FROM.          :LOG MEAS. FROM
Location_Description_.   :Location Description:
Log_interval_is_from_. 1.36 m  :Log interval is from:
Log_interval_to_. 559.86  :Log interval to:
Log_is_measured_from_. TOP OF COLLAR  :Log is measured from:
MAX__REC__TEMP_.         :MAX. REC. TEMP.
OPERATING_RIG_TIME.      :OPERATING RIG TIME
OTHER_SERVICES.          :OTHER SERVICES
Operator_.      FG, JCD  :Operator:
Other_Services_.         :Other Services:
PERMANENT_DATUM.         :PERMANENT DATUM
Permanent_datum_elevation_#1.   :Permanent datum elevation:#1
Permanent_datum_is_#1. NQ  :Permanent datum is:#1
Permanent_datum_is_#2.   :Permanent datum is:#2
Permanent_datum_is_#3.   :Permanent datum is:#3
Permanent_datum_is__.    :Permanent datum is::
Print_type_is_.          :Print type is:
RECORDED_BY.             :RECORDED BY
RGE.                     :RGE
RUN_No.                  :RUN No
RUN1.                    :RUN1
RUN2.                    :RUN2
RUN3.                    :RUN3
RUN4.                    :RUN4
RUN5.                    :RUN5
RUN6.                    :RUN6
SALINITY.                :SALINITY
SEC.                     :SEC
STE.                     :STE
Scale_ratio_.            :Scale ratio:
Scaled_depth_is_.        :Scaled depth is:
Service_Company_. Université Laval  :Service Company:
State_/_Province_.   QC  :State / Province:
TITLE.                   :TITLE
TOP_LOGGED_INTERVAL.     :TOP LOGGED INTERVAL
TWP.                     :TWP
TYPE_FLUID_IN_HOLE.      :TYPE FLUID IN HOLE
TYPE_LOG.                :TYPE LOG
WELL_ID.                 :WELL ID
WGT1.                    :WGT1
WGT2.                    :WGT2
WGT3.                    :WGT3
WGT4.                    :WGT4
WGT5.                    :WGT5
WGT6.                    :WGT6
WITNESSED_BY.            :WITNESSED BY
Well_Name_.   AS-14-639  :Well Name:
#------------------------------------------------------------
~OTHER
#------------------------------------------------------------
~A
# ...
   449.570
     57.9664     16.0223     1348.35     3126.04     5061.37
     7470.92     8230.91     89.3556     52.0751     41.1377
     114.090     62.4489     52.1081     4.05000    0.549055
     8.27654     120.423     0.00000     0.00000     0.00000
     39.2383     55.8851     208.034    0.999699     0.00000
    -99999.0     5555.56     2782.83     2.62919    0.333161
   449.620
     55.3868     16.0225     1352.72     3142.04     5061.87
     7471.09     8228.71     89.4663     52.1446     41.1000
     116.110     64.6461     50.1211     4.06745    0.538145
     8.30408     120.237     0.00000     0.00000     0.00000
     39.8299     55.8970     208.660    0.988553     0.00000
    -99999.0     5555.56     2763.95     2.62820    0.335250
   449.670
     53.2800     16.0224     1359.06     3152.40     5068.44
     7473.14     8228.27     89.3800     52.2090     41.2828
     116.099     64.6286     50.1490     4.11338    0.535652
     8.31002     120.070     0.00000     0.00000     0.00000
     39.8228     55.9061     208.723    0.988229    0.651616
    -99999.0     5515.23     2763.95     2.61992    0.331811
   449.720
     52.9227     16.0225     1365.16     3154.19     5074.64
     7481.60     8202.58     88.6887     52.0614     41.4763
     115.409     63.6002     51.8235     4.07500    0.549874
     8.32630     120.124    0.231861     1.66876     2.38679
     40.0688     55.9097     209.351    0.982235    0.961378
    -99999.0     5454.55     2763.95     2.61081    0.327710
   449.770
     51.5448     16.0234     1367.70     3154.64     5085.04
     7501.30     8187.33     89.3960     52.3327     41.3865
     114.786     64.4987     52.3519     4.07500    0.561122
     8.32801     120.252     0.00000     0.00000     0.00000
     39.0233     55.8686     207.660     1.00740     0.00000
    -99999.0     5454.55     2763.95     2.60990    0.327300
   449.820
     49.2097     16.0237     1368.05     3157.11     5086.88
     7503.46     8194.92     89.5599     52.3919     41.3629
     117.214     64.9131     49.3024     4.06338    0.551495
     8.31872     120.635     0.00000     0.00000     0.00000
     39.3000     55.9228     208.072    0.998965    0.814179
    -99999.0     5454.55     2763.95     2.60990    0.327300
   449.870
     46.6800     16.0241     1367.42     3161.96     5100.77
     7516.00     8194.87     89.6601     52.3771     41.5468
     117.215     64.9019     49.3329     4.03082    0.534208
     8.30205     120.830     0.00000     0.00000     0.00000
     39.5590     55.9068     208.366    0.993645     0.00000
    -99999.0     5415.66     2763.95     2.60225    0.323341
   449.920
     46.1448     16.0235     1367.36     3163.04     5117.42
     7542.28     8192.14     89.7627     52.6071     41.7758
     117.207     64.2724     51.1194     4.05581    0.517294
     8.27605     121.009     0.00000     0.00000     0.00000
     39.4879     55.8881     208.312    0.996012     0.00000
    -99999.0     5357.14     2763.95     2.59366    0.319031
   449.970
     43.6295     16.0232     1367.69     3165.25     5131.40
     7595.87     8196.97     89.6609     52.4584     41.8654
     115.038     65.1862     52.7705     4.07500    0.502212
     8.27046     120.973     0.00000     0.00000     0.00000
     39.4755     55.9027     208.351    0.995496     0.00000
    -99999.0     5396.07     2763.95     2.60054    0.322470
   450.020
     39.4313     16.0231     1367.77     3170.34     5133.59
     7633.52     8219.11     89.6379     52.4206     41.8755
     118.633     65.6179     51.3878     4.06919    0.488539
     8.26112     120.476     0.00000     0.00000     0.00000
     39.5468     55.8918     208.347    0.992650     0.00000
    -99999.0     5454.55     2763.95     2.60904    0.326857
   450.070
     35.9448     16.0235     1367.92     3179.09     5140.13
     7637.19     8219.47     89.7686     52.7381     41.9630
     118.617     65.6271     51.4001     4.05000    0.490879
     8.28506     120.417     0.00000     0.00000     0.00000
     38.9110     55.9107     207.460     1.00872     0.00000
    -99999.0     5415.68     2763.95     2.60226    0.323343
   450.120
     34.6800     16.0240     1369.31     3181.02     5156.22
     7644.19     8241.70     89.6819     52.7882     42.1474
     117.640     66.1952     52.1139     4.04419    0.483334
     8.31123     120.454     0.00000     0.00000     0.00000
     40.0266     55.9209     208.990    0.985647     0.00000
    -99999.0     5357.14     2763.95     2.59366    0.319031
   450.170
     33.6097     16.0242     1371.61     3183.46     5179.32
     7661.03     8274.45     89.6510     52.6262     42.5190
     118.835     67.0127     50.6923     4.02500    0.479290
     8.29936     120.276     0.00000     0.00000     0.00000
     39.4073     55.9100     208.169    0.996846     0.00000
    -99999.0     5396.03     2755.75     2.60054    0.324089
   450.220
     30.3654     16.0243     1372.17     3189.32     5200.05
     7685.41     8318.58     90.0764     53.0169     42.4430
     116.759     64.7027     52.8241     4.04245    0.489525
     8.30911     120.214   0.0216397    0.623621     1.19148
     39.5453     55.9109     208.363    0.994095    0.393073
    -99999.0     5454.55     2735.31     2.60905    0.331540
   450.270
     27.9664     16.0247     1372.06     3205.46     5203.32
     7688.00     8371.55     90.1596     53.0990     42.4153
     118.550     65.5015     51.3140     4.10581    0.491509
     8.31919     120.431     0.00000     0.00000     0.00000
     39.4299     55.9010     208.200    0.996494     0.00000
    -99999.0     5454.55     2723.15     2.60990    0.333829
   450.320
     26.2800     16.0251     1373.33     3216.03     5210.36
     7703.30     8372.59     89.8353     52.9718     42.7139
     118.541     65.4918     51.3394     4.12500    0.486273
     8.31120     120.709    0.757697    0.626960     4.64851
     39.3986     55.8914     208.185    0.999828     2.59099
    -99999.0     5454.55     2731.23     2.60990    0.332471
   450.370
     24.6722     16.0250     1378.59     3217.76     5214.96
     7735.59     8435.81     89.8431     53.1867     42.9937
     117.976     64.9149     52.8758     4.11918    0.479639
     8.29020     120.946     0.00000     0.00000     0.00000
     40.1000     55.8900     209.100    0.982900    0.895293
    -99999.0     5454.55     2755.75     2.60990    0.328521
   450.420
     19.2745     16.0255     1383.09     3217.36     5225.56
     7778.82     8507.78     90.3731     53.4054     42.7568
     115.639     65.1348     53.9045     4.08838    0.490532
     8.27354     121.618     0.00000     0.00000     0.00000
     39.5000     55.8982     208.435    0.994544    0.690242
    -99999.0     5494.88     2770.19     2.61809    0.330260
   450.470
     14.5868     16.0257     1383.98     3222.48     5227.51
     7783.39     8595.85     90.4740     53.4390     42.7019
     117.445     64.2901     52.9060     4.04419    0.500694
     8.24399     121.709   0.0473696    0.186859    0.596464
     39.0342     55.9166     207.701     1.00712     1.44841
    -99999.0     5555.56     2747.65     2.62728    0.337880
   450.520
     12.4800     16.0257     1384.54     3231.42     5239.24
     7822.79     8597.34     90.3050     53.4088     43.0368
     117.454     64.3008     52.9196     4.02500    0.492295
     8.20721     121.289     0.00000     0.00000     0.00000
     39.7156     55.8746     208.672    0.992313    0.280057
    -99999.0     5555.56     2723.15     2.62820    0.341578
   450.570
     10.8745     16.0262     1385.36     3233.36     5257.85
     7870.87     8684.21     90.4190     53.5500     43.4304
     117.994     64.9623     53.7524     4.02500    0.507844
     8.23477     121.089  0.00863709   0.0590592    0.173482
     39.6474     55.8941     208.442    0.992222     1.44476
    -99999.0     5555.56     2723.15     2.62820    0.341900
   450.620
     5.11490     16.0265     1386.69     3237.61     5284.42
     7919.44     8769.52     90.7864     53.7664     43.4183
     116.527     66.1683     54.9276     4.02500    0.531962
     8.25690     120.790    0.184287    0.407064     3.50580
     39.3193     55.9023     208.119     1.00016     4.03513
    -99999.0     5515.23     2723.15     2.61992    0.338300
