#------------------------------------------------------------
~VERSION INFORMATION
VERS.               2.0  :CWLS LOG ASCII STANDARD - VERSION 2.0
WRAP.               YES  :MULTIPLE LINES PER DEPTH STEP
#------------------------------------------------------------
~WELL INFORMATION
STRT.M          418.770  :FIRST INDEX VALUE
STOP.M          496.370  :LAST INDEX VALUE
STEP.M        0.0500000  :STEP
NULL.            -99999  :NULL VALUE
COMP.                    :COMPANY
WELL.                    :WELL
FLD.                     :FLD
LOC.                     :LOCATION
SRVC.                    :
CTRY.                    :COUNTRY
STAT.                    :STATE
CNTY.                    :
DATE.                    :DATE
API.                     :API
#------------------------------------------------------------
~CURVE INFORMATION
DEPT.M                   :DEPTH
SP.MV                    :SP
VSPR.V                   :VSPR
SPR.OHM                  :SPR
N8.OHM.M                 :N8
N16.OHM.M                :N16
N32.OHM.M                :N32
N64.OHM.M                :N64
IPLIN161.MV/V            :IPlin161
IPLIN165.MV/V            :IPlin165
IPLIN1610.MV/V           :IPlin1610
IPLIN641.MV/V            :IPlin641
IPLIN645.MV/V            :IPlin645
IPLIN6410.MV/V           :IPlin6410
SPEED.MT/MIN             :Speed
MAG_SUSC.10E-3_SI_UNITS   :Mag Susc
INDUCTION.MS/M           :Induction
IND_RES.OHM-M            :Ind Res
K.%                      :K
U.PPM                    :U
TH.PPM                   :Th
TILT.DEG                 :Tilt
MAGNFIELD.UT             :MagnField
AZIMUTH.DEG              :Azimuth
GRAVITY.G                :Gravity
GR.API                   :GR
CALIPER.CM               :Caliper
VP.M/S                   :Vp
VS.M/S                   :Vs
RHO_ND.                  :rho_ND
POISSON_RATIO.           :Poisson_ratio
#------------------------------------------------------------
~PARAMETER INFORMATION
API_Well_Number_. Yorbeau(Astoria)  :API Well Number:
Acquisition_dates_from_.   :Acquisition dates from:
Acquisition_dates_to_.   :Acquisition dates to:
BIT_FROM1.               :BIT FROM1
BIT_FROM2.               :BIT FROM2
BIT_FROM3.               :BIT FROM3
BIT_FROM4.               :BIT FROM4
BIT_FROM5.               :BIT FROM5
BIT_FROM6.               :BIT FROM6
BIT_TO1.                 :BIT TO1
BIT_TO2.                 :BIT TO2
BIT_TO3.                 :BIT TO3
BIT_TO4.                 :BIT TO4
BIT_TO5.                 :BIT TO5
BIT_TO6.                 :BIT TO6
BIT1.                    :BIT1
BIT2.                    :BIT2
BIT3.                    :BIT3
BIT4.                    :BIT4
BIT5.                    :BIT5
BIT6.                    :BIT6
BTM_LOGGED_INTERVAL.     :BTM LOGGED INTERVAL
CASING_FROM1.            :CASING FROM1
CASING_FROM2.            :CASING FROM2
CASING_FROM3.            :CASING FROM3
CASING_FROM4.            :CASING FROM4
CASING_FROM5.            :CASING FROM5
CASING_FROM6.            :CASING FROM6
CASING_SIZE1.            :CASING SIZE1
CASING_SIZE2.            :CASING SIZE2
CASING_SIZE3.            :CASING SIZE3
CASING_SIZE4.            :CASING SIZE4
CASING_SIZE5.            :CASING SIZE5
CASING_SIZE6.            :CASING SIZE6
CASING_TO1.              :CASING TO1
CASING_TO2.              :CASING TO2
CASING_TO3.              :CASING TO3
CASING_TO4.              :CASING TO4
CASING_TO5.              :CASING TO5
CASING_TO6.              :CASING TO6
CO.                      :CO
CTY.                     :CTY
Country_.        Canada  :Country:
Customer_.  Metal Earth  :Customer:
D_F_.                    :D.F.
DENSITY.                 :DENSITY
DEPTH-DRILLER.           :DEPTH-DRILLER
DEPTH-LOGGER.            :DEPTH-LOGGER
DRILLING_MEAS__FROM.     :DRILLING MEAS. FROM
Depth_unit_.     meters  :Depth unit:
Drilling_measured_from_.   :Drilling measured from:
ELEVATION.               :ELEVATION
FIELD.                   :FIELD
FILING_No.               :FILING No
File_Name_. AS-14-639-petrophysics.WCL  :File Name:
G_L_.                    :G.L.
Height_above_drilling_datum_.   :Height above drilling datum:
Height_above_log_datum_.   :Height above log datum:
K_B_.                    :K.B.
LEVEL.                   :LEVEL
LOG_MEAS__FROM.          :LOG MEAS. FROM
Location_Description_.   :Location Description:
Log_interval_is_from_. 1.36 m  :Log interval is from:
Log_interval_to_. 559.86  :Log interval to:
Log_is_measured_from_. TOP OF COLLAR  :Log is measured from:
MAX__REC__TEMP_.         :MAX. REC. TEMP.
OPERATING_RIG_TIME.      :OPERATING RIG TIME
OTHER_SERVICES.          :OTHER SERVICES
Operator_.      FG, JCD  :Operator:
Other_Services_.         :Other Services:
PERMANENT_DATUM.         :PERMANENT DATUM
Permanent_datum_elevation_#1.   :Permanent datum elevation:#1
Permanent_datum_is_#1. NQ  :Permanent datum is:#1
Permanent_datum_is_#2.   :Permanent datum is:#2
Permanent_datum_is_#3.   :Permanent datum is:#3
Permanent_datum_is__.    :Permanent datum is::
Print_type_is_.          :Print type is:
RECORDED_BY.             :RECORDED BY
RGE.                     :RGE
RUN_No.                  :RUN No
RUN1.                    :RUN1
RUN2.                    :RUN2
RUN3.                    :RUN3
RUN4.                    :RUN4
RUN5.                    :RUN5
RUN6.                    :RUN6
SALINITY.                :SALINITY
SEC.                     :SEC
STE.                     :STE
Scale_ratio_.            :Scale ratio:
Scaled_depth_is_.        :Scaled depth is:
Service_Company_. Université Laval  :Service Company:
State_/_Province_.   QC  :State / Province:
TITLE.                   :TITLE
TOP_LOGGED_INTERVAL.     :TOP LOGGED INTERVAL
TWP.                     :TWP
TYPE_FLUID_IN_HOLE.      :TYPE FLUID IN HOLE
TYPE_LOG.                :TYPE LOG
WELL_ID.                 :WELL ID
WGT1.                    :WGT1
WGT2.                    :WGT2
WGT3.                    :WGT3
WGT4.                    :WGT4
WGT5.                    :WGT5
WGT6.                    :WGT6
WITNESSED_BY.            :WITNESSED BY
Well_Name_.   AS-14-639  :Well Name:
#------------------------------------------------------------
~OTHER
#------------------------------------------------------------
~A
# ...
   455.070
     48.4639     16.0178     1329.79     3081.20     5009.56
     7578.72     8798.41     88.2390     51.4964     39.8387
     112.946     60.7981     46.2895     4.02500    0.508855
     8.31264     120.140   0.0212478     1.59821     3.10011
     39.3703     55.8814     208.084    0.999868     1.12785
    -99999.0     6173.35     3703.70     2.75800    0.220400
   455.120
     52.6800     16.0175     1328.49     3080.68     5012.00
     7545.42     8702.55     88.4515     51.3753     39.5730
     112.379     61.5287     46.6587     4.02500    0.527207
     8.32269     120.219     0.00000     0.00000     0.00000
     39.5000     55.8900     208.300    0.998100    0.894556
    -99999.0     6199.07     3703.70     2.75800    0.220400
   455.170
     52.8584     16.0169     1325.67     3086.63     5019.75
     7494.90     8605.05     88.2522     51.1740     39.6821
     113.418     61.4814     45.8968     4.02500    0.534398
     8.32168     120.392  0.00330771    0.191063     1.03515
     40.0299     55.9182     209.012    0.985648     2.60304
    -99999.0     6122.45     3703.70     2.74495    0.342153
   455.220
     54.3519     16.0167     1324.99     3091.70     5021.45
     7458.08     8521.18     87.7012     50.9782     39.0013
     111.049     60.5224     47.4954     4.04245    0.540363
     8.31059     120.482  0.00559823    0.154681    0.794206
     39.4335     55.8900     208.266    0.998434    0.464662
    -99999.0     6122.45    -99999.0     2.74350    0.485561
   455.270
     58.8423     16.0166     1324.22     3089.14     5021.51
     7454.46     8433.48     87.6031     50.9467     38.8625
     113.044     61.7232     44.7185     4.10000    0.554710
     8.30075     120.423     0.00000     0.00000     0.00000
     39.5439     55.8951     208.342    0.995928    0.255149
    -99999.0     6122.45    -99999.0     2.74350    0.500000
   455.320
     63.4800     16.0230     1323.34     3081.97     5007.03
     7424.44     8431.90     87.6389     50.8723     38.9378
     113.032     61.7040     44.7331     4.09419    0.572887
     8.30142     120.597    0.309577     2.22810     3.18680
     39.6299     55.8670     208.490    0.993848     1.28362
    -99999.0     6073.59    -99999.0     2.73145    0.500000
   455.370
     64.0159     16.0249     1321.02     3080.36     4985.53
     7372.86     8335.60     86.9548     50.5808     38.8674
     112.286     60.5597     45.6196     4.07500    0.545799
     8.30006     120.943   0.0168556   0.0653852    0.203524
     39.7615     55.8800     208.642    0.991963     1.68382
    -99999.0     6048.89    -99999.0     2.73010    0.500000
   455.420
     67.0639     16.0182     1317.81     3066.86     4957.55
     7328.22     8236.57     87.0080     50.4330     38.5879
     111.196     60.6379     46.5158     4.05757    0.541323
     8.27650     121.002    0.113793    0.351304     1.03637
     39.2277     55.8800     208.038     1.00359    0.971050
    -99999.0     6073.56    -99999.0     2.73010    0.500000
   455.470
     73.7810     16.0163     1317.07     3044.11     4952.79
     7323.73     8149.44     87.0448     50.4146     38.5365
     112.568     61.2245     44.6930     4.00582    0.544078
     8.26179     120.689     0.00000     0.00000     0.00000
     39.2359     55.8825     207.898     1.00183     0.00000
    -99999.0     6048.94    -99999.0     2.73010    0.500000
   455.520
     79.6800     16.0162     1313.99     3026.38     4921.19
     7279.43     8148.11     87.3352     50.4468     38.6571
     112.564     61.2127     44.7120     4.01919    0.560736
     8.27570     120.571     0.00000     0.00000     0.00000
     39.4844     55.8756     207.997    0.997472     2.18343
    -99999.0     6073.56    -99999.0     2.73010    0.500000
   455.570
     80.0368     16.0161     1309.82     3023.11     4879.75
     7217.26     8071.06     87.2506     50.5266     38.7496
     112.353     60.5185     45.8569     4.00000    0.570124
     8.29534     120.698  0.00774833    0.108152    0.575515
     39.7180     55.8800     208.486    0.993254    0.328642
    -99999.0     6000.00    -99999.0     2.71805    0.500000
   455.620
     81.7732     16.0160     1308.09     3012.06     4837.10
     7154.25     8020.24     87.0148     50.2158     38.4211
     111.759     61.3545     46.3551     4.00582    0.529859
     8.28897     121.212     0.00000     0.00000     0.00000
     39.3597     55.8881     207.999     1.00039     0.00000
    -99999.0     6000.00    -99999.0     2.71670    0.500000
   455.670
     85.8423     16.0160     1307.86     2993.51     4830.14
     7081.30     7997.15     86.9741     50.1522     38.3543
     111.564     59.3782     46.2456     4.01919    0.531936
     8.26670     121.494     0.00000     0.00000     0.00000
     39.8266     55.8876     208.804    0.989982     0.00000
    -99999.0     6000.00    -99999.0     2.71670    0.500000
   455.720
     90.7481     16.0159     1307.71     2980.16     4795.14
     7073.65     7996.29     87.1622     50.3301     38.4388
     111.526     59.3789     46.2325     4.00582    0.529234
     8.23153     121.060     0.00000     0.00000     0.00000
     39.3260     55.8609     208.026     1.00172     0.00000
    -99999.0     6000.00    -99999.0     2.71670    0.500000
   455.770
     91.6478     16.0161     1306.09     2977.79     4758.74
     7004.98     7945.16     87.3770     50.3058     38.1768
     109.426     59.4419     45.4598     4.02500    0.561257
     8.24408     120.388     0.00000     0.00000     0.00000
     39.6786     55.8621     208.557    0.993956     0.00000
    -99999.0     6000.00    -99999.0     2.71670    0.500000
   455.820
     92.4584     16.0162     1305.12     2971.36     4730.66
     6930.99     7853.69     86.5531     49.9330     38.3504
     111.457     60.4553     44.2772     4.03081    0.558493
     8.29117     119.996     0.00000     0.00000     0.00000
     39.6773     55.8700     208.300    0.993950    0.723910
    -99999.0     6000.00    -99999.0     2.71670    0.500000
   455.870
     94.6665     16.0163     1304.97     2961.05     4703.67
     6866.16     7754.35     86.8965     50.0682     37.7779
     109.798     58.7513     46.6419     4.05582    0.547883
     8.32798     120.315     0.00000     0.00000     0.00000
     39.5098     55.8945     208.265    0.996603     0.00000
    -99999.0     6000.00    -99999.0     2.71670    0.500000
   455.920
     98.5232     16.0159     1304.10     2951.39     4699.27
     6859.58     7649.59     86.9965     50.1084     37.6573
     111.061     60.0278     45.1969     4.07500    0.544582
     8.32674     120.672     0.00000     0.00000     0.00000
     39.9000     55.8709     208.646    0.988928     0.00000
    -99999.0     5953.03    -99999.0     2.70554    0.500000
   455.970
     97.6800     16.0159     1301.76     2940.38     4678.59
     6815.90     7647.59     86.8442     49.8737     37.8189
     111.068     60.0291     45.2203     4.08663    0.537758
     8.29140     120.478     0.00000     0.00000     0.00000
     39.6077     55.8870     208.437    0.995597     0.00000
    -99999.0     5929.37    -99999.0     2.70430    0.500000
   456.020
     96.2529     16.0156     1299.69     2938.06     4659.15
     6796.50     7531.00     86.2748     49.8339     37.9190
     111.439     60.0992     46.5642     4.11918    0.537600
     8.29048     120.570     0.00000     0.00000     0.00000
     39.8437     55.8700     208.787    0.991742     1.57184
    -99999.0     5953.03    -99999.0     2.70430    0.500000
   456.070
     93.5936     16.0153     1296.85     2928.31     4646.42
     6797.44     7430.32     86.5783     49.9190     37.7346
     109.544     59.6379     46.4386     4.08838    0.529893
     8.30303     120.863     0.00000     0.00000     0.00000
     39.6000     55.8800     208.300    0.996100    0.898950
    -99999.0     5929.30    -99999.0     2.70430    0.500000
   456.120
     95.2800     16.0152     1296.15     2916.84     4644.52
     6797.74     7340.31     86.6584     49.9354     37.6960
     110.937     59.7468     45.8201     4.05000    0.511775
     8.27935     120.858     0.00000     0.00000     0.00000
     39.5823     55.8818     208.282    0.996637     0.00000
    -99999.0     6000.00    -99999.0     2.71546    0.500000
