#------------------------------------------------------------
~VERSION INFORMATION
VERS.               2.0  :CWLS LOG ASCII STANDARD - VERSION 2.0
WRAP.               YES  :MULTIPLE LINES PER DEPTH STEP
#------------------------------------------------------------
~WELL INFORMATION
STRT.M          418.770  :FIRST INDEX VALUE
STOP.M          496.370  :LAST INDEX VALUE
STEP.M        0.0500000  :STEP
NULL.            -99999  :NULL VALUE
COMP.                    :COMPANY
WELL.                    :WELL
FLD.                     :FLD
LOC.                     :LOCATION
SRVC.                    :
CTRY.                    :COUNTRY
STAT.                    :STATE
CNTY.                    :
DATE.                    :DATE
API.                     :API
#------------------------------------------------------------
~CURVE INFORMATION
DEPT.M                   :DEPTH
SP.MV                    :SP
VSPR.V                   :VSPR
SPR.OHM                  :SPR
N8.OHM.M                 :N8
N16.OHM.M                :N16
N32.OHM.M                :N32
N64.OHM.M                :N64
IPLIN161.MV/V            :IPlin161
IPLIN165.MV/V            :IPlin165
IPLIN1610.MV/V           :IPlin1610
IPLIN641.MV/V            :IPlin641
IPLIN645.MV/V            :IPlin645
IPLIN6410.MV/V           :IPlin6410
SPEED.MT/MIN             :Speed
MAG_SUSC.10E-3_SI_UNITS   :Mag Susc
INDUCTION.MS/M           :Induction
IND_RES.OHM-M            :Ind Res
K.%                      :K
U.PPM                    :U
TH.PPM                   :Th
TILT.DEG                 :Tilt
MAGNFIELD.UT             :MagnField
AZIMUTH.DEG              :Azimuth
GRAVITY.G                :Gravity
GR.API                   :GR
CALIPER.CM               :Caliper
VP.M/S                   :Vp
VS.M/S                   :Vs
RHO_ND.                  :rho_ND
POISSON_RATIO.           :Poisson_ratio
#------------------------------------------------------------
~PARAMETER INFORMATION
API_Well_Number_. Yorbeau(Astoria)  :API Well Number:
Acquisition_dates_from_.   :Acquisition dates from:
Acquisition_dates_to_.   :Acquisition dates to:
BIT_FROM1.               :BIT FROM1
BIT_FROM2.               :BIT FROM2
BIT_FROM3.               :BIT FROM3
BIT_FROM4.               :BIT FROM4
BIT_FROM5.               :BIT FROM5
BIT_FROM6.               :BIT FROM6
BIT_TO1.                 :BIT TO1
BIT_TO2.                 :BIT TO2
BIT_TO3.                 :BIT TO3
BIT_TO4.                 :BIT TO4
BIT_TO5.                 :BIT TO5
BIT_TO6.                 :BIT TO6
BIT1.                    :BIT1
BIT2.                    :BIT2
BIT3.                    :BIT3
BIT4.                    :BIT4
BIT5.                    :BIT5
BIT6.                    :BIT6
BTM_LOGGED_INTERVAL.     :BTM LOGGED INTERVAL
CASING_FROM1.            :CASING FROM1
CASING_FROM2.            :CASING FROM2
CASING_FROM3.            :CASING FROM3
CASING_FROM4.            :CASING FROM4
CASING_FROM5.            :CASING FROM5
CASING_FROM6.            :CASING FROM6
CASING_SIZE1.            :CASING SIZE1
CASING_SIZE2.            :CASING SIZE2
CASING_SIZE3.            :CASING SIZE3
CASING_SIZE4.            :CASING SIZE4
CASING_SIZE5.            :CASING SIZE5
CASING_SIZE6.            :CASING SIZE6
CASING_TO1.              :CASING TO1
CASING_TO2.              :CASING TO2
CASING_TO3.              :CASING TO3
CASING_TO4.              :CASING TO4
CASING_TO5.              :CASING TO5
CASING_TO6.              :CASING TO6
CO.                      :CO
CTY.                     :CTY
Country_.        Canada  :Country:
Customer_.  Metal Earth  :Customer:
D_F_.                    :D.F.
DENSITY.                 :DENSITY
DEPTH-DRILLER.           :DEPTH-DRILLER
DEPTH-LOGGER.            :DEPTH-LOGGER
DRILLING_MEAS__FROM.     :DRILLING MEAS. FROM
Depth_unit_.     meters  :Depth unit:
Drilling_measured_from_.   :Drilling measured from:
ELEVATION.               :ELEVATION
FIELD.                   :FIELD
FILING_No.               :FILING No
File_Name_. AS-14-639-petrophysics.WCL  :File Name:
G_L_.                    :G.L.
Height_above_drilling_datum_.   :Height above drilling datum:
Height_above_log_datum_.   :Height above log datum:
K_B_.                    :K.B.
LEVEL.                   :LEVEL
LOG_MEAS__FROM.          :LOG MEAS. FROM
Location_Description_.   :Location Description:
Log_interval_is_from_. 1.36 m  :Log interval is from:
Log_interval_to_. 559.86  :Log interval to:
Log_is_measured_from_. TOP OF COLLAR  :Log is measured from:
MAX__REC__TEMP_.         :MAX. REC. TEMP.
OPERATING_RIG_TIME.      :OPERATING RIG TIME
OTHER_SERVICES.          :OTHER SERVICES
Operator_.      FG, JCD  :Operator:
Other_Services_.         :Other Services:
PERMANENT_DATUM.         :PERMANENT DATUM
Permanent_datum_elevation_#1.   :Permanent datum elevation:#1
Permanent_datum_is_#1. NQ  :Permanent datum is:#1
Permanent_datum_is_#2.   :Permanent datum is:#2
Permanent_datum_is_#3.   :Permanent datum is:#3
Permanent_datum_is__.    :Permanent datum is::
Print_type_is_.          :Print type is:
RECORDED_BY.             :RECORDED BY
RGE.                     :RGE
RUN_No.                  :RUN No
RUN1.                    :RUN1
RUN2.                    :RUN2
RUN3.                    :RUN3
RUN4.                    :RUN4
RUN5.                    :RUN5
RUN6.                    :RUN6
SALINITY.                :SALINITY
SEC.                     :SEC
STE.                     :STE
Scale_ratio_.            :Scale ratio:
Scaled_depth_is_.        :Scaled depth is:
Service_Company_. Université Laval  :Service Company:
State_/_Province_.   QC  :State / Province:
TITLE.                   :TITLE
TOP_LOGGED_INTERVAL.     :TOP LOGGED INTERVAL
TWP.                     :TWP
TYPE_FLUID_IN_HOLE.      :TYPE FLUID IN HOLE
TYPE_LOG.                :TYPE LOG
WELL_ID.                 :WELL ID
WGT1.                    :WGT1
WGT2.                    :WGT2
WGT3.                    :WGT3
WGT4.                    :WGT4
WGT5.                    :WGT5
WGT6.                    :WGT6
WITNESSED_BY.            :WITNESSED BY
Well_Name_.   AS-14-639  :Well Name:
#------------------------------------------------------------
~OTHER
#------------------------------------------------------------
~A
# ...
   424.270
     178.972     15.9881     878.943     1391.52     1852.34
     2681.49     3944.31     62.6471     26.5022     19.6149
     73.2783     30.0605     21.4939     4.13837     29.4018
     21.3725     42.2809     0.00000     0.00000     0.00000
     39.5556     55.6981     208.433    0.992084    0.126691
    -99999.0    -99999.0    -99999.0    -99999.0    -99999.0
   424.320
     183.042     15.9903     897.043     1394.09     1867.24
     2685.19     4080.73     62.7850     26.9247     18.3181
     70.5047     30.9882     19.7209     4.09418     29.0023
     23.6373     39.3715     0.00000     0.00000     0.00000
     40.2495     55.7025     209.574    0.978136     1.30755
    -99999.0    -99999.0    -99999.0    -99999.0    -99999.0
   424.370
     189.646     15.9846     909.335     1408.32     1869.16
     2673.43     4082.79     63.2663     28.3151     16.6426
     70.5209     30.9784     19.6967     4.06917     29.9159
     24.5041     40.8171     0.00000     0.00000     0.00000
     37.3807     55.6773     206.108     1.04176     1.07466
    -99999.0    -99999.0    -99999.0    -99999.0    -99999.0
   424.420
     194.280     15.9828     911.373     1429.34     1869.04
     2672.03     4201.42     63.3595     28.5699     16.3692
     71.4162     30.3973     18.2786     4.05000     26.0219
     25.6299     51.9485     0.00000     0.00000     0.00000
     39.6869     55.6733     209.187    0.990122    0.540379
    -99999.0    -99999.0    -99999.0    -99999.0    -99999.0
   424.470
     194.637     15.9819     911.246     1433.70     1876.03
     2662.85     4234.42     63.8369     28.5196     16.4454
     69.4258     29.4805     16.7299     4.05582     21.9931
     21.6966     51.9995     0.00000     0.00000     0.00000
     39.4647     55.9623     209.152    0.993795    0.645576
    -99999.0    -99999.0    -99999.0    -99999.0    -99999.0
   424.520
     196.015     15.9792     906.198     1433.69     1901.60
     2649.95     4233.63     63.2092     28.1371     16.2821
     69.4426     29.4635     16.7706     4.07500     23.0675
     18.3160     43.9847     0.00000     0.00000     0.00000
     39.4444     55.8283     208.983    0.994103     0.00000
    -99999.0    -99999.0    -99999.0    -99999.0    -99999.0
   424.570
     197.458     15.9753     893.301     1429.22     1923.35
     2648.59     4185.52     62.0681     28.0482     16.7587
     70.4004     28.5098     19.2150     4.07500     25.8709
     21.5805     38.6967  0.00381661    0.287076    0.556852
     39.5316     56.2586     207.993    0.993692    0.202588
    -99999.0    -99999.0    -99999.0    -99999.0    -99999.0
   424.620
     197.880     15.9744     890.006     1433.84     1926.67
     2635.73     4007.53     61.8725     28.0450     16.8586
     67.7598     32.2124     20.2340     4.07500     27.0948
     25.0441     46.5170     0.00000     0.00000     0.00000
     39.2216     56.2760     207.642     1.00026     1.37606
    -99999.0    -99999.0    -99999.0    -99999.0    -99999.0
   424.670
     198.416     15.9718     880.777     1437.60     1932.87
     2659.52     3713.60     61.8302     28.8830     17.1014
     72.6995     32.2534     18.6511     4.08081     22.2699
     24.6192     47.2987   0.0134331    0.371161     1.90571
     39.5855     56.0716     208.171    0.992973     2.22991
    -99999.0    -99999.0    -99999.0    -99999.0    -99999.0
   424.720
     200.216     15.9707     878.311     1438.19     1931.40
     2719.02     3708.33     62.7328     27.6628     17.2749
     72.7339     32.3016     18.7827     4.08837     23.1352
     20.1898     52.0065   0.0477645   0.0162029    0.577173
     40.1000     56.0000     209.100    0.981200     1.33527
    -99999.0    -99999.0    -99999.0    -99999.0    -99999.0
   424.770
     201.480     15.9726     884.415     1433.12     1930.88
     2725.53     3411.46     62.9103     27.3932     17.2994
     74.6795     35.0213     26.3849     4.06163     23.8053
     21.0481     55.1008   0.0724212    0.274675    0.840486
     38.6229     56.0534     206.726     1.01463     2.04213
    -99999.0    -99999.0    -99999.0    -99999.0    -99999.0
   424.820
     202.015     15.9732     886.150     1422.95     1925.76
     2778.26     3178.41     63.2875     26.8529     17.6012
     72.6758     32.1013     27.8812     4.10000     22.4948
     17.9465     41.1747    0.195447    0.362316    0.805397
     39.4329     56.0466     207.467    0.995607    0.873881
    -99999.0    -99999.0    -99999.0    -99999.0    -99999.0
   424.870
     204.353     15.9745     893.756     1420.68     1927.44
     2811.72     3017.92     62.8632     26.8472     18.4063
     73.5936     39.5904     24.1025     4.11165     20.0761
     21.7401     47.8877     0.00000     0.00000     0.00000
     39.4412     56.2046     207.685    0.996415     0.00000
    -99999.0    -99999.0    -99999.0    -99999.0    -99999.0
   424.920
     206.523     15.9758     902.718     1418.28     1937.30
     2814.85     3015.91     62.3426     27.2230     17.6395
     73.7486     39.5727     24.0773     4.14419     14.1814
     26.3312     103.732    0.352508    0.674014    0.689756
     39.3936     56.3077     207.394    0.996511     1.35681
    -99999.0    -99999.0    -99999.0    -99999.0    -99999.0
   424.970
     205.680     15.9761     904.668     1430.88     1939.12
     2820.99     2898.37     62.2597     27.2927     17.4609
     82.6100     38.4751     22.6670     4.12500     10.9317
     14.8062     91.0496     0.00000     0.00000     0.00000
     39.3780     56.1619     207.917    0.995943    0.164674
    -99999.0    -99999.0    -99999.0    -99999.0    -99999.0
   425.020
     206.037     15.9776     908.801     1445.35     1952.58
     2757.77     2801.10     61.8142     26.8099     16.9593
     79.4369     33.8573     25.2124     4.10755     10.4188
     9.70694     58.2616     0.00000     0.00000     0.00000
     39.2154     56.2773     208.119     1.00150    0.378692
    -99999.0    -99999.0    -99999.0    -99999.0    -99999.0
   425.070
     206.880     15.9786     911.573     1448.19     1970.74
     2602.78     2799.62     60.5198     25.9846     16.1026
     79.4265     33.9020     25.2890     4.05000     11.3354
     15.9901     61.4238     0.00000     0.00000     0.00000
     39.0060     56.2459     207.653     1.00553     0.00000
    -99999.0     4225.35    -99999.0     2.42450    0.500000
   425.120
     205.092     15.9769     898.498     1449.44     1973.76
     2585.79     2710.33     60.2837     25.8417     15.9542
     78.7239     36.6687     29.9336     4.05000     9.91876
     17.8042     67.6155     0.00000     0.00000     0.00000
     40.0000     56.5555     209.283    0.983828     0.00000
    -99999.0     4249.45    -99999.0     2.42819    0.500000
   425.170
     200.880     15.9763     894.607     1452.58     2000.51
     2436.59     2646.75     60.6054     25.3908     16.7300
     74.2420     42.0797     33.9596     4.05000     8.52489
     14.9318     62.2452     0.00000     0.00000     0.00000
     39.3387     56.3647     208.365    0.997430     1.02981
    -99999.0     4215.39    -99999.0     2.42149    0.500000
   425.220
     200.523     15.9728     871.548     1453.30     1998.86
     2318.95     2605.32     59.5368     26.8581     17.2581
     78.2906     37.0344     31.1797     4.05582     10.5779
     15.3393     76.7673   0.0247135    0.169694    0.460914
     39.2000     56.1912     207.781    0.999950    0.245704
    -99999.0     4109.59    -99999.0     2.40981    0.500000
   425.270
     199.858     15.9702     853.653     1455.62     1939.98
     2262.73     2604.90     62.5118     28.0779     17.4148
     78.3050     37.0501     31.2320     4.06919     13.3287
     15.4011     73.7956   0.0303527   0.0809253   0.0270096
     39.3253     56.3475     207.751    0.997518    0.183713
    -99999.0     4155.85    -99999.0     2.41570    0.500000
   425.320
     200.280     15.9698     850.418     1438.70     1928.77
     2257.59     2580.70     63.1341     28.2564     17.4310
     79.1237     37.9809     34.4178     4.05582     13.6911
     12.5421     54.6931     0.00000     0.00000     0.00000
     39.6815     56.1265     208.000    0.991846    0.306473
    -99999.0     4299.74    -99999.0     2.43511    0.500000
