#------------------------------------------------------------
~VERSION INFORMATION
VERS.               2.0  :CWLS LOG ASCII STANDARD - VERSION 2.0
WRAP.               YES  :MULTIPLE LINES PER DEPTH STEP
#------------------------------------------------------------
~WELL INFORMATION
STRT.M          418.770  :FIRST INDEX VALUE
STOP.M          496.370  :LAST INDEX VALUE
STEP.M        0.0500000  :STEP
NULL.            -99999  :NULL VALUE
COMP.                    :COMPANY
WELL.                    :WELL
FLD.                     :FLD
LOC.                     :LOCATION
SRVC.                    :
CTRY.                    :COUNTRY
STAT.                    :STATE
CNTY.                    :
DATE.                    :DATE
API.                     :API
#------------------------------------------------------------
~CURVE INFORMATION
DEPT.M                   :DEPTH
SP.MV                    :SP
VSPR.V                   :VSPR
SPR.OHM                  :SPR
N8.OHM.M                 :N8
N16.OHM.M                :N16
N32.OHM.M                :N32
N64.OHM.M                :N64
IPLIN161.MV/V            :IPlin161
IPLIN165.MV/V            :IPlin165
IPLIN1610.MV/V           :IPlin1610
IPLIN641.MV/V            :IPlin641
IPLIN645.MV/V            :IPlin645
IPLIN6410.MV/V           :IPlin6410
SPEED.MT/MIN             :Speed
MAG_SUSC.10E-3_SI_UNITS   :Mag Susc
INDUCTION.MS/M           :Induction
IND_RES.OHM-M            :Ind Res
K.%                      :K
U.PPM                    :U
TH.PPM                   :Th
TILT.DEG                 :Tilt
MAGNFIELD.UT             :MagnField
AZIMUTH.DEG              :Azimuth
GRAVITY.G                :Gravity
GR.API                   :GR
CALIPER.CM               :Caliper
VP.M/S                   :Vp
VS.M/S                   :Vs
RHO_ND.                  :rho_ND
POISSON_RATIO.           :Poisson_ratio
#------------------------------------------------------------
~PARAMETER INFORMATION
API_Well_Number_. Yorbeau(Astoria)  :API Well Number:
Acquisition_dates_from_.   :Acquisition dates from:
Acquisition_dates_to_.   :Acquisition dates to:
BIT_FROM1.               :BIT FROM1
BIT_FROM2.               :BIT FROM2
BIT_FROM3.               :BIT FROM3
BIT_FROM4.               :BIT FROM4
BIT_FROM5.               :BIT FROM5
BIT_FROM6.               :BIT FROM6
BIT_TO1.                 :BIT TO1
BIT_TO2.                 :BIT TO2
BIT_TO3.                 :BIT TO3
BIT_TO4.                 :BIT TO4
BIT_TO5.                 :BIT TO5
BIT_TO6.                 :BIT TO6
BIT1.                    :BIT1
BIT2.                    :BIT2
BIT3.                    :BIT3
BIT4.                    :BIT4
BIT5.                    :BIT5
BIT6.                    :BIT6
BTM_LOGGED_INTERVAL.     :BTM LOGGED INTERVAL
CASING_FROM1.            :CASING FROM1
CASING_FROM2.            :CASING FROM2
CASING_FROM3.            :CASING FROM3
CASING_FROM4.            :CASING FROM4
CASING_FROM5.            :CASING FROM5
CASING_FROM6.            :CASING FROM6
CASING_SIZE1.            :CASING SIZE1
CASING_SIZE2.            :CASING SIZE2
CASING_SIZE3.            :CASING SIZE3
CASING_SIZE4.            :CASING SIZE4
CASING_SIZE5.            :CASING SIZE5
CASING_SIZE6.            :CASING SIZE6
CASING_TO1.              :CASING TO1
CASING_TO2.              :CASING TO2
CASING_TO3.              :CASING TO3
CASING_TO4.              :CASING TO4
CASING_TO5.              :CASING TO5
CASING_TO6.              :CASING TO6
CO.                      :CO
CTY.                     :CTY
Country_.        Canada  :Country:
Customer_.  Metal Earth  :Customer:
D_F_.                    :D.F.
DENSITY.                 :DENSITY
DEPTH-DRILLER.           :DEPTH-DRILLER
DEPTH-LOGGER.            :DEPTH-LOGGER
DRILLING_MEAS__FROM.     :DRILLING MEAS. FROM
Depth_unit_.     meters  :Depth unit:
Drilling_measured_from_.   :Drilling measured from:
ELEVATION.               :ELEVATION
FIELD.                   :FIELD
FILING_No.               :FILING No
File_Name_. AS-14-639-petrophysics.WCL  :File Name:
G_L_.                    :G.L.
Height_above_drilling_datum_.   :Height above drilling datum:
Height_above_log_datum_.   :Height above log datum:
K_B_.                    :K.B.
LEVEL.                   :LEVEL
LOG_MEAS__FROM.          :LOG MEAS. FROM
Location_Description_.   :Location Description:
Log_interval_is_from_. 1.36 m  :Log interval is from:
Log_interval_to_. 559.86  :Log interval to:
Log_is_measured_from_. TOP OF COLLAR  :Log is measured from:
MAX__REC__TEMP_.         :MAX. REC. TEMP.
OPERATING_RIG_TIME.      :OPERATING RIG TIME
OTHER_SERVICES.          :OTHER SERVICES
Operator_.      FG, JCD  :Operator:
Other_Services_.         :Other Services:
PERMANENT_DATUM.         :PERMANENT DATUM
Permanent_datum_elevation_#1.   :Permanent datum elevation:#1
Permanent_datum_is_#1. NQ  :Permanent datum is:#1
Permanent_datum_is_#2.   :Permanent datum is:#2
Permanent_datum_is_#3.   :Permanent datum is:#3
Permanent_datum_is__.    :Permanent datum is::
Print_type_is_.          :Print type is:
RECORDED_BY.             :RECORDED BY
RGE.                     :RGE
RUN_No.                  :RUN No
RUN1.                    :RUN1
RUN2.                    :RUN2
RUN3.                    :RUN3
RUN4.                    :RUN4
RUN5.                    :RUN5
RUN6.                    :RUN6
SALINITY.                :SALINITY
SEC.                     :SEC
STE.                     :STE
Scale_ratio_.            :Scale ratio:
Scaled_depth_is_.        :Scaled depth is:
Service_Company_. Université Laval  :Service Company:
State_/_Province_.   QC  :State / Province:
TITLE.                   :TITLE
TOP_LOGGED_INTERVAL.     :TOP LOGGED INTERVAL
TWP.                     :TWP
TYPE_FLUID_IN_HOLE.      :TYPE FLUID IN HOLE
TYPE_LOG.                :TYPE LOG
WELL_ID.                 :WELL ID
WGT1.                    :WGT1
WGT2.                    :WGT2
WGT3.                    :WGT3
WGT4.                    :WGT4
WGT5.                    :WGT5
WGT6.                    :WGT6
WITNESSED_BY.            :WITNESSED BY
Well_Name_.   AS-14-639  :Well Name:
#------------------------------------------------------------
~OTHER
#------------------------------------------------------------
~A
# ...
   444.070
     49.0800     16.0220     1341.45     3111.95     5110.10
     7877.82     9572.13     89.3490     52.0297     40.3605
     112.949     61.4178     48.7809     4.08838    0.543091
     8.35327     119.644     0.00000     0.00000     0.00000
     39.6757     55.8512     208.676    0.993676     0.00000
    -99999.0     6329.92     3513.04     2.78830    0.275984
   444.120
     50.1519     16.0223     1339.08     3108.62     5068.07
     7807.15     9458.71     89.7254     52.0022     40.3413
     113.660     61.2628     49.2163     4.04419    0.529937
     8.35169     119.642    0.123743    0.440961    0.778353
     39.6206     55.8444     208.681    0.993027    0.555273
    -99999.0     6250.00     3459.70     2.77408    0.279950
   444.170
     54.4639     16.0221     1338.29     3098.92     5039.15
     7723.99     9366.73     89.8948     52.0342     40.0230
     113.687     60.9675     49.0369     4.02500    0.519244
     8.36196     119.357   0.0399385   0.0582193    0.213982
     39.4998     55.8344     208.506    0.996029    0.685775
    -99999.0     6250.00     3416.55     2.77250    0.286236
   444.220
     58.8586     16.0220     1338.18     3094.12     5034.80
     7715.23     9262.41     89.9131     52.0413     39.9594
     114.086     61.6236     48.2313     4.01919    0.508455
     8.36540     119.396     0.00000     0.00000     0.00000
     39.3614     55.8498     208.242    0.998055     0.00000
    -99999.0     6250.00     3416.55     2.77250    0.286900
   444.270
     59.2800     16.0214     1337.92     3089.86     5026.26
     7643.48     9260.67     89.7011     51.9069     39.6992
     114.082     61.6173     48.2361     4.00582    0.502413
     8.38451     119.714     0.00000     0.00000     0.00000
     39.7013     55.8549     208.953    0.990562    0.188962
    -99999.0     6250.00     3398.28     2.77250    0.290497
   444.320
     59.1016     16.0209     1337.69     3088.92     5020.09
     7574.16     9158.65     89.4743     51.9230     39.6569
     113.850     61.2587     48.5227     4.02500    0.502323
     8.36002     119.174     0.00000     0.00000     0.00000
     39.1355     55.8482     207.962     1.00136     2.51613
    -99999.0     6250.00     3326.93     2.77250    0.302590
   444.370
     59.5732     16.0213     1335.97     3088.13     5010.87
     7511.93     9049.84     89.1871     51.2535     39.5233
     114.211     62.3412     48.3389     4.03082    0.512601
     8.36691     119.270     0.00000     0.00000     0.00000
     39.4931     55.8593     208.672    0.995060     0.00000
    -99999.0     6250.00     3206.62     2.77250    0.321268
   444.420
     61.6800     16.0214     1335.49     3091.01     5009.25
     7448.98     8945.03     89.1381     51.1211     39.4968
     115.146     62.1586     47.2317     4.04419    0.521503
     8.40225     119.817     0.00000     0.00000     0.00000
     39.7636     55.8577     208.873    0.990606     1.26452
    -99999.0     6250.00     3099.54     2.77250    0.336330
   444.470
     61.6800     16.0219     1335.09     3086.50     4995.13
     7442.47     8943.35     88.2463     50.8202     39.7462
     115.155     62.1618     47.2426     4.03082    0.515751
     8.35632     120.172     0.00000     0.00000     0.00000
     39.4771     55.8477     208.477    0.996006     0.00000
    -99999.0     6199.03     3024.89     2.75945    0.343469
   444.520
     61.5016     16.0216     1335.72     3085.16     4975.05
     7419.54     8845.77     88.7909     50.8852     39.7783
     115.665     62.3538     47.8743     4.05000    0.496157
     8.32872     120.181     0.00000     0.00000     0.00000
     39.6543     55.8509     208.763    0.992031     0.00000
    -99999.0     6073.56     2970.30     2.73291    0.342121
   444.570
     61.0800     16.0212     1335.37     3077.64     4959.53
     7413.70     8758.68     88.8602     50.7125     39.9901
     115.800     62.9564     47.9008     4.04419    0.480432
     8.31687     120.066     0.00000     0.00000     0.00000
     39.5601     55.8690     208.420    0.996167     0.00000
    -99999.0     6000.00     2958.68     2.71805    0.340012
   444.620
     61.2586     16.0210     1335.21     3070.49     4942.71
     7394.65     8671.31     88.3005     50.7694     39.7469
     114.806     61.3996     47.0818     4.04826    0.498026
     8.32677     120.005     0.00000     0.00000     0.00000
     39.4437     55.8844     208.558    0.995824     0.00000
    -99999.0     6000.00     2941.18     2.71670    0.341690
   444.670
     62.2152     16.0279     1334.73     3065.01     4939.90
     7392.50     8669.97     88.1938     50.7880     39.6911
     114.824     61.4456     47.0514     4.11919    0.488645
     8.33188     119.923     0.00000     0.00000     0.00000
     39.7000     55.8500     208.800    0.991100     0.00000
    -99999.0     5953.03     2929.78     2.70555    0.339921
   444.720
     63.4800     16.0296     1331.77     3055.81     4936.57
     7383.02     8591.58     88.3850     50.7594     39.8212
     115.882     64.1681     45.2467     4.10000    0.482381
     8.33628     120.187     0.00000     0.00000     0.00000
     39.8948     55.8535     208.960    0.988249     0.00000
    -99999.0     5837.15     2890.45     2.68288    0.337810
   444.770
     63.8368     16.0224     1327.85     3053.74     4942.33
     7363.74     8514.22     88.4996     50.6253     39.7172
     116.561     62.7426     45.7036     4.09418    0.490413
     8.33161     120.493   0.0162665     1.22353     2.37332
     39.6667     55.8433     208.933    0.992100     1.72686
    -99999.0     5769.23     2846.38     2.67016    0.339309
   444.820
     64.6800     16.0206     1324.45     3055.38     4948.86
     7341.57     8437.88     88.4371     50.7373     39.5347
     115.423     62.5128     45.8556     4.06338    0.494322
     8.30415     120.647     0.00000     0.00000     0.00000
     39.6595     55.8653     208.613    0.992020     0.00000
    -99999.0     5769.23     2819.63     2.66900    0.343097
   444.870
     65.3946     16.0206     1323.73     3063.81     4949.90
     7339.25     8384.78     88.4220     50.7641     39.5040
     114.599     62.3975     46.1218     4.02500    0.504529
     8.29154     120.491     0.00000     0.00000     0.00000
     39.3649     55.8695     208.300    0.996449     1.34766
    -99999.0     5683.92     2803.74     2.65064    0.337921
   444.920
     67.0800     16.0211     1325.50     3067.97     4951.51
     7332.88     8384.02     88.0864     50.5975     39.4009
     114.604     62.3856     46.1313     4.02500    0.505982
     8.29194     120.386     0.00000     0.00000     0.00000
     40.4497     55.8681     209.775    0.974479     0.00000
    -99999.0     5515.23     2793.37     2.62198    0.328037
   444.970
     68.1519     16.0214     1329.55     3068.51     4948.18
     7325.48     8339.36     88.3565     50.8544     39.4287
     114.862     61.6705     46.7250     4.03082    0.504202
     8.30708     120.437     0.00000     0.00000     0.00000
     40.1688     55.8417     209.362    0.981503     0.00000
    -99999.0     5415.62     2777.78     2.60316    0.321151
   445.020
     70.6800     16.0216     1331.47     3072.64     4946.75
     7310.29     8291.68     88.2443     50.7970     39.0895
     113.259     61.4307     48.5499     4.04419    0.501860
     8.30472     120.443     0.00000     0.00000     0.00000
     39.0486     55.8688     207.849     1.00641     0.00000
    -99999.0     5357.14     2777.78     2.59367    0.316543
   445.070
     70.8584     16.0216     1331.73     3072.35     4946.61
     7308.63     8257.75     88.2096     50.7748     39.0213
     114.440     61.3731     47.5559     4.03081    0.522576
     8.30196     121.121     0.00000     0.00000     0.00000
     39.6353     55.8800     208.559    0.993587     0.00000
    -99999.0     5319.64     2767.61     2.58570    0.314212
   445.120
     71.2800     16.0210     1332.57     3067.80     4945.44
     7303.29     8257.21     88.5237     50.8377     39.2076
     114.437     61.3468     47.5732     4.05000    0.519333
     8.28169     121.800   0.0638303    0.601990    0.995271
     40.0501     55.8519     209.319    0.983579    0.644396
    -99999.0     5226.93     2761.10     2.57095    0.305811
