#------------------------------------------------------------
~VERSION INFORMATION
VERS.               2.0  :CWLS LOG ASCII STANDARD - VERSION 2.0
WRAP.               YES  :MULTIPLE LINES PER DEPTH STEP
#------------------------------------------------------------
~WELL INFORMATION
STRT.M          418.770  :FIRST INDEX VALUE
STOP.M          496.370  :LAST INDEX VALUE
STEP.M        0.0500000  :STEP
NULL.            -99999  :NULL VALUE
COMP.                    :COMPANY
WELL.                    :WELL
FLD.                     :FLD
LOC.                     :LOCATION
SRVC.                    :
CTRY.                    :COUNTRY
STAT.                    :STATE
CNTY.                    :
DATE.                    :DATE
API.                     :API
#------------------------------------------------------------
~CURVE INFORMATION
DEPT.M                   :DEPTH
SP.MV                    :SP
VSPR.V                   :VSPR
SPR.OHM                  :SPR
N8.OHM.M                 :N8
N16.OHM.M                :N16
N32.OHM.M                :N32
N64.OHM.M                :N64
IPLIN161.MV/V            :IPlin161
IPLIN165.MV/V            :IPlin165
IPLIN1610.MV/V           :IPlin1610
IPLIN641.MV/V            :IPlin641
IPLIN645.MV/V            :IPlin645
IPLIN6410.MV/V           :IPlin6410
SPEED.MT/MIN             :Speed
MAG_SUSC.10E-3_SI_UNITS   :Mag Susc
INDUCTION.MS/M           :Induction
IND_RES.OHM-M            :Ind Res
K.%                      :K
U.PPM                    :U
TH.PPM                   :Th
TILT.DEG                 :Tilt
MAGNFIELD.UT             :MagnField
AZIMUTH.DEG              :Azimuth
GRAVITY.G                :Gravity
GR.API                   :GR
CALIPER.CM               :Caliper
VP.M/S                   :Vp
VS.M/S                   :Vs
RHO_ND.                  :rho_ND
POISSON_RATIO.           :Poisson_ratio
#------------------------------------------------------------
~PARAMETER INFORMATION
API_Well_Number_. Yorbeau(Astoria)  :API Well Number:
Acquisition_dates_from_.   :Acquisition dates from:
Acquisition_dates_to_.   :Acquisition dates to:
BIT_FROM1.               :BIT FROM1
BIT_FROM2.               :BIT FROM2
BIT_FROM3.               :BIT FROM3
BIT_FROM4.               :BIT FROM4
BIT_FROM5.               :BIT FROM5
BIT_FROM6.               :BIT FROM6
BIT_TO1.                 :BIT TO1
BIT_TO2.                 :BIT TO2
BIT_TO3.                 :BIT TO3
BIT_TO4.                 :BIT TO4
BIT_TO5.                 :BIT TO5
BIT_TO6.                 :BIT TO6
BIT1.                    :BIT1
BIT2.                    :BIT2
BIT3.                    :BIT3
BIT4.                    :BIT4
BIT5.                    :BIT5
BIT6.                    :BIT6
BTM_LOGGED_INTERVAL.     :BTM LOGGED INTERVAL
CASING_FROM1.            :CASING FROM1
CASING_FROM2.            :CASING FROM2
CASING_FROM3.            :CASING FROM3
CASING_FROM4.            :CASING FROM4
CASING_FROM5.            :CASING FROM5
CASING_FROM6.            :CASING FROM6
CASING_SIZE1.            :CASING SIZE1
CASING_SIZE2.            :CASING SIZE2
CASING_SIZE3.            :CASING SIZE3
CASING_SIZE4.            :CASING SIZE4
CASING_SIZE5.            :CASING SIZE5
CASING_SIZE6.            :CASING SIZE6
CASING_TO1.              :CASING TO1
CASING_TO2.              :CASING TO2
CASING_TO3.              :CASING TO3
CASING_TO4.              :CASING TO4
CASING_TO5.              :CASING TO5
CASING_TO6.              :CASING TO6
CO.                      :CO
CTY.                     :CTY
Country_.        Canada  :Country:
Customer_.  Metal Earth  :Customer:
D_F_.                    :D.F.
DENSITY.                 :DENSITY
DEPTH-DRILLER.           :DEPTH-DRILLER
DEPTH-LOGGER.            :DEPTH-LOGGER
DRILLING_MEAS__FROM.     :DRILLING MEAS. FROM
Depth_unit_.     meters  :Depth unit:
Drilling_measured_from_.   :Drilling measured from:
ELEVATION.               :ELEVATION
FIELD.                   :FIELD
FILING_No.               :FILING No
File_Name_. AS-14-639-petrophysics.WCL  :File Name:
G_L_.                    :G.L.
Height_above_drilling_datum_.   :Height above drilling datum:
Height_above_log_datum_.   :Height above log datum:
K_B_.                    :K.B.
LEVEL.                   :LEVEL
LOG_MEAS__FROM.          :LOG MEAS. FROM
Location_Description_.   :Location Description:
Log_interval_is_from_. 1.36 m  :Log interval is from:
Log_interval_to_. 559.86  :Log interval to:
Log_is_measured_from_. TOP OF COLLAR  :Log is measured from:
MAX__REC__TEMP_.         :MAX. REC. TEMP.
OPERATING_RIG_TIME.      :OPERATING RIG TIME
OTHER_SERVICES.          :OTHER SERVICES
Operator_.      FG, JCD  :Operator:
Other_Services_.         :Other Services:
PERMANENT_DATUM.         :PERMANENT DATUM
Permanent_datum_elevation_#1.   :Permanent datum elevation:#1
Permanent_datum_is_#1. NQ  :Permanent datum is:#1
Permanent_datum_is_#2.   :Permanent datum is:#2
Permanent_datum_is_#3.   :Permanent datum is:#3
Permanent_datum_is__.    :Permanent datum is::
Print_type_is_.          :Print type is:
RECORDED_BY.             :RECORDED BY
RGE.                     :RGE
RUN_No.                  :RUN No
RUN1.                    :RUN1
RUN2.                    :RUN2
RUN3.                    :RUN3
RUN4.                    :RUN4
RUN5.                    :RUN5
RUN6.                    :RUN6
SALINITY.                :SALINITY
SEC.                     :SEC
STE.                     :STE
Scale_ratio_.            :Scale ratio:
Scaled_depth_is_.        :Scaled depth is:
Service_Company_. Université Laval  :Service Company:
State_/_Province_.   QC  :State / Province:
TITLE.                   :TITLE
TOP_LOGGED_INTERVAL.     :TOP LOGGED INTERVAL
TWP.                     :TWP
TYPE_FLUID_IN_HOLE.      :TYPE FLUID IN HOLE
TYPE_LOG.                :TYPE LOG
WELL_ID.                 :WELL ID
WGT1.                    :WGT1
WGT2.                    :WGT2
WGT3.                    :WGT3
WGT4.                    :WGT4
WGT5.                    :WGT5
WGT6.                    :WGT6
WITNESSED_BY.            :WITNESSED BY
Well_Name_.   AS-14-639  :Well Name:
#------------------------------------------------------------
~OTHER
#------------------------------------------------------------
~A
   418.770
     180.480     15.9992     1091.29     2066.10     3025.16
     4131.19     4272.89     75.2110     38.8734     26.0401
     93.9610     48.8232     29.1686     4.15000    0.506647
     8.77757     113.771     1.05563     2.54414     3.61104
     39.0800     55.8822     208.369     1.00311     35.0028
    -99999.0     5357.14     3333.33     2.59280    0.183506
   418.820
     180.658     15.9994     1092.24     2054.26     2988.09
     4099.21     4112.38     74.7735     38.0960     26.0599
     90.1767     44.9211     33.1278     4.15000    0.473325
     8.79200     113.793     1.36145    0.886214     3.71010
     39.5183     55.9072     208.870    0.993971     22.0978
    -99999.0     5357.14     3333.33     2.59280    0.184100
   418.870
     180.722     16.0005     1100.41     2054.02     2963.18
     4075.71     3969.38     74.0186     38.0355     26.7910
     89.2114     47.0679     32.3015     4.15000    0.456252
     8.78742     113.810    0.743695     2.41881     5.24542
     39.3605     55.8846     208.807    0.996436     19.8822
    -99999.0     5357.14     3333.33     2.59280    0.184100
   418.920
     180.595     16.0068     1104.32     2079.67     2966.50
     4072.45     3967.25     74.3967     38.7495     26.0068
     89.2741     47.0779     32.3032     4.14419    0.469599
     8.78756     113.919    0.207524     6.11028     13.9829
     38.9303     55.9109     208.200     1.00580     12.3845
    -99999.0     5396.03     3318.71     2.60054    0.196788
   418.970
     182.280     16.0085     1104.76     2103.98     2967.82
     4072.34     3843.47     74.4963     38.8857     25.8256
     92.8586     47.6139     32.3965     4.13082    0.480487
     8.78209     113.569   0.0490655     1.67653     3.88375
     39.5855     55.8829     209.157    0.991150     12.5636
    -99999.0     5415.60     3311.35     2.60140    0.198200
   419.020
     183.350     16.0089     1109.02     2115.03     3001.95
     4022.64     3741.32     74.2466     38.0334     25.8532
     91.4999     45.4094     32.2954     4.15000    0.494325
     8.78842     113.214   0.0605130    0.972900     1.82387
     38.9000     55.8800     207.800     1.00730     6.84835
    -99999.0     5357.14     3333.33     2.59367    0.185519
   419.070
     186.415     16.0025     1111.30     2116.70     3027.36
     3915.25     3739.90     73.6370     37.5805     25.6287
     91.5062     45.4332     32.3798     4.16163    0.460009
     8.82783     113.516    0.356578     2.41472     4.24838
     39.0712     55.9166     208.323     1.00386     5.59285
    -99999.0     5357.14     3304.42     2.59280    0.193812
   419.120
     188.038     16.0001     1112.14     2126.16     3038.04
     3903.55     3653.88     73.0897     37.1469     25.8835
     91.8506     46.9323     37.4480     4.20583    0.454357
     8.82489     114.653   0.0115976    0.161881    0.861426
     39.6705     55.8901     209.106    0.989784     5.64350
    -99999.0     5357.14     3246.87     2.59280    0.209028
   419.170
     188.880     15.9999     1112.29     2126.99     3039.41
     3825.60     3582.80     73.0042     37.0731     25.9421
     89.8516     51.3118     39.2335     4.22500    0.451918
     8.76014     115.286   0.0343817     1.45809     3.81618
     38.8054     55.9049     207.857     1.00900     4.16710
    -99999.0     5319.62     3239.81     2.58569    0.202861
   419.220
     189.059     15.9991     1112.64     2126.91     3032.94
     3747.33     3518.53     71.9307     37.4491     25.7824
     92.2634     49.9738     35.0250     4.22500    0.429995
     8.67805     114.591    0.540796   0.0752791    0.204019
     39.5973     55.8906     208.985    0.992634     5.48693
    -99999.0     5300.74     3260.87     2.58490    0.197590
   419.270
     188.945     15.9973     1104.43     2127.00     3000.96
     3682.14     3517.65     72.8130     38.0314     25.8395
     92.3444     50.0070     35.0252     4.21918    0.445413
     8.69620     114.636    0.398435     2.67854     3.72867
     40.1214     55.8920     209.743    0.979471     8.33008
    -99999.0     5357.14     3260.87     2.59200    0.204834
   419.320
     187.680     15.9959     1097.18     2119.59     2994.98
     3675.55     3465.99     73.0255     38.1306     25.8567
     97.0967     51.9461     35.1070     4.19418    0.466486
     8.74308     115.242   0.0487452     1.21524     4.13564
     38.6607     55.8884     207.589     1.01267     5.46856
    -99999.0     5396.01     3260.87     2.60053    0.212984
   419.370
     188.753     15.9956     1095.78     2098.89     2975.99
     3637.40     3421.31     74.1568     39.2241     26.0440
     92.2409     49.5085     39.3505     4.17500    0.450170
     8.69066     115.558     0.00000     0.00000     0.00000
     39.7956     55.8612     209.267    0.987013     2.32104
    -99999.0     5415.66     3260.87     2.60140    0.213800
   419.420
     192.709     15.9963     1105.89     2094.11     2958.93
     3616.92     3374.46     74.1440     39.2598     27.5454
     92.3739     51.1587     37.2958     4.16338    0.442823
     8.65876     116.486     0.00000     0.00000     0.00000
     39.7143     55.8800     209.176    0.988231     2.17543
    -99999.0     5319.62     3260.87     2.58655    0.198772
   419.470
     194.829     15.9985     1126.07     2094.74     2952.50
     3615.07     3373.95     74.1011     39.9735     28.0502
     92.3773     51.2195     37.3325     4.13082    0.413894
     8.61898     116.978    0.662578     2.11342     6.78711
     39.4646     55.8787     208.934    0.994527     3.84548
    -99999.0     5339.69     3219.69     2.59255    0.216089
   419.520
     191.880     15.9991     1131.02     2130.39     2951.76
     3628.13     3345.31     74.1017     40.1192     28.0926
     92.6265     54.6216     39.3545     4.15000    0.422604
     8.54839     116.956    0.322267     2.61682     4.56766
     39.5297     55.9000     208.904    0.992427     1.49891
    -99999.0     5378.06     3171.32     2.59340    0.227553
   419.570
     190.453     16.0023     1148.89     2205.19     2978.62
     3669.97     3341.72     75.4278     40.6357     28.6156
     95.9351     49.0026     34.1750     4.14419    0.452746
     8.54948     116.812     0.00000     0.00000     0.00000
     39.4748     55.8925     208.700    0.994580     1.27029
    -99999.0     5300.66     3191.49     2.58576    0.218258
   419.620
     185.114     16.0066     1171.83     2221.97     3067.03
     3720.00     3341.71     75.6244     40.2033     28.6698
     95.9190     48.9934     34.2300     4.13083    0.430675
     8.55553     116.292   0.0603419    0.569090    0.940877
     38.7665     55.8819     207.750     1.01123    0.304592
    -99999.0     5357.14     3178.08     2.59201    0.228079
   419.670
     180.480     16.0098     1193.50     2291.07     3083.21
     3725.19     3340.77     75.6121     40.0991     28.6604
     94.9772     48.4819     37.4561     4.15000    0.440504
     8.58151     116.472     0.00000     0.00000     0.00000
     39.4131     55.9000     208.620    0.994549     0.00000
    -99999.0     5357.14     3144.76     2.59280    0.237039
   419.720
     177.979     16.0104     1198.26     2370.82     3207.46
     3790.59     3333.93     75.1255     40.3880     29.5751
     93.9497     49.6407     41.0315     4.15000    0.438444
     8.60321     116.483     0.00000     0.00000     0.00000
     39.7295     55.8945     209.217    0.987567     1.97369
    -99999.0     5283.27     3125.00     2.57894    0.228361
   419.770
     170.118     16.0113     1210.56     2386.61     3369.17
     3898.58     3334.76     74.9573     41.1828     30.1844
     93.8272     49.2907     38.2599     4.15000    0.471003
     8.57533     116.658     0.00000     0.00000     0.00000
     38.8145     55.8938     207.791     1.00892    0.407905
    -99999.0     5172.41     3112.13     2.56355    0.218217
   419.820
     164.766     16.0120     1220.79     2446.53     3529.69
     4058.97     3335.32     75.3735     41.3586     29.9072
     93.8890     49.3086     38.2578     4.15000    0.446869
     8.58461     116.992     0.00000     0.00000     0.00000
     39.4002     55.8946     208.608    0.996950   0.0979212
    -99999.0     5172.41     3105.64     2.56200    0.217200
