#------------------------------------------------------------
~VERSION INFORMATION
VERS.               2.0  :CWLS LOG ASCII STANDARD - VERSION 2.0
WRAP.               YES  :MULTIPLE LINES PER DEPTH STEP
#------------------------------------------------------------
~WELL INFORMATION
STRT.M          418.770  :FIRST INDEX VALUE
STOP.M          496.370  :LAST INDEX VALUE
STEP.M        0.0500000  :STEP
NULL.            -99999  :NULL VALUE
COMP.                    :COMPANY
WELL.                    :WELL
FLD.                     :FLD
LOC.                     :LOCATION
SRVC.                    :
CTRY.                    :COUNTRY
STAT.                    :STATE
CNTY.                    :
DATE.                    :DATE
API.                     :API
#------------------------------------------------------------
~CURVE INFORMATION
DEPT.M                   :DEPTH
SP.MV                    :SP
VSPR.V                   :VSPR
SPR.OHM                  :SPR
N8.OHM.M                 :N8
N16.OHM.M                :N16
N32.OHM.M                :N32
N64.OHM.M                :N64
IPLIN161.MV/V            :IPlin161
IPLIN165.MV/V            :IPlin165
IPLIN1610.MV/V           :IPlin1610
IPLIN641.MV/V            :IPlin641
IPLIN645.MV/V            :IPlin645
IPLIN6410.MV/V           :IPlin6410
SPEED.MT/MIN             :Speed
MAG_SUSC.10E-3_SI_UNITS   :Mag Susc
INDUCTION.MS/M           :Induction
IND_RES.OHM-M            :Ind Res
K.%                      :K
U.PPM                    :U
TH.PPM                   :Th
TILT.DEG                 :Tilt
MAGNFIELD.UT             :MagnField
AZIMUTH.DEG              :Azimuth
GRAVITY.G                :Gravity
GR.API                   :GR
CALIPER.CM               :Caliper
VP.M/S                   :Vp
VS.M/S                   :Vs
RHO_ND.                  :rho_ND
POISSON_RATIO.           :Poisson_ratio
#------------------------------------------------------------
~PARAMETER INFORMATION
API_Well_Number_. Yorbeau(Astoria)  :API Well Number:
Acquisition_dates_from_.   :Acquisition dates from:
Acquisition_dates_to_.   :Acquisition dates to:
BIT_FROM1.               :BIT FROM1
BIT_FROM2.               :BIT FROM2
BIT_FROM3.               :BIT FROM3
BIT_FROM4.               :BIT FROM4
BIT_FROM5.               :BIT FROM5
BIT_FROM6.               :BIT FROM6
BIT_TO1.                 :BIT TO1
BIT_TO2.                 :BIT TO2
BIT_TO3.                 :BIT TO3
BIT_TO4.                 :BIT TO4
BIT_TO5.                 :BIT TO5
BIT_TO6.                 :BIT TO6
BIT1.                    :BIT1
BIT2.                    :BIT2
BIT3.                    :BIT3
BIT4.                    :BIT4
BIT5.                    :BIT5
BIT6.                    :BIT6
BTM_LOGGED_INTERVAL.     :BTM LOGGED INTERVAL
CASING_FROM1.            :CASING FROM1
CASING_FROM2.            :CASING FROM2
CASING_FROM3.            :CASING FROM3
CASING_FROM4.            :CASING FROM4
CASING_FROM5.            :CASING FROM5
CASING_FROM6.            :CASING FROM6
CASING_SIZE1.            :CASING SIZE1
CASING_SIZE2.            :CASING SIZE2
CASING_SIZE3.            :CASING SIZE3
CASING_SIZE4.            :CASING SIZE4
CASING_SIZE5.            :CASING SIZE5
CASING_SIZE6.            :CASING SIZE6
CASING_TO1.              :CASING TO1
CASING_TO2.              :CASING TO2
CASING_TO3.              :CASING TO3
CASING_TO4.              :CASING TO4
CASING_TO5.              :CASING TO5
CASING_TO6.              :CASING TO6
CO.                      :CO
CTY.                     :CTY
Country_.        Canada  :Country:
Customer_.  Metal Earth  :Customer:
D_F_.                    :D.F.
DENSITY.                 :DENSITY
DEPTH-DRILLER.           :DEPTH-DRILLER
DEPTH-LOGGER.            :DEPTH-LOGGER
DRILLING_MEAS__FROM.     :DRILLING MEAS. FROM
Depth_unit_.     meters  :Depth unit:
Drilling_measured_from_.   :Drilling measured from:
ELEVATION.               :ELEVATION
FIELD.                   :FIELD
FILING_No.               :FILING No
File_Name_. AS-14-639-petrophysics.WCL  :File Name:
G_L_.                    :G.L.
Height_above_drilling_datum_.   :Height above drilling datum:
Height_above_log_datum_.   :Height above log datum:
K_B_.                    :K.B.
LEVEL.                   :LEVEL
LOG_MEAS__FROM.          :LOG MEAS. FROM
Location_Description_.   :Location Description:
Log_interval_is_from_. 1.36 m  :Log interval is from:
Log_interval_to_. 559.86  :Log interval to:
Log_is_measured_from_. TOP OF COLLAR  :Log is measured from:
MAX__REC__TEMP_.         :MAX. REC. TEMP.
OPERATING_RIG_TIME.      :OPERATING RIG TIME
OTHER_SERVICES.          :OTHER SERVICES
Operator_.      FG, JCD  :Operator:
Other_Services_.         :Other Services:
PERMANENT_DATUM.         :PERMANENT DATUM
Permanent_datum_elevation_#1.   :Permanent datum elevation:#1
Permanent_datum_is_#1. NQ  :Permanent datum is:#1
Permanent_datum_is_#2.   :Permanent datum is:#2
Permanent_datum_is_#3.   :Permanent datum is:#3
Permanent_datum_is__.    :Permanent datum is::
Print_type_is_.          :Print type is:
RECORDED_BY.             :RECORDED BY
RGE.                     :RGE
RUN_No.                  :RUN No
RUN1.                    :RUN1
RUN2.                    :RUN2
RUN3.                    :RUN3
RUN4.                    :RUN4
RUN5.                    :RUN5
RUN6.                    :RUN6
SALINITY.                :SALINITY
SEC.                     :SEC
STE.                     :STE
Scale_ratio_.            :Scale ratio:
Scaled_depth_is_.        :Scaled depth is:
Service_Company_. Université Laval  :Service Company:
State_/_Province_.   QC  :State / Province:
TITLE.                   :TITLE
TOP_LOGGED_INTERVAL.     :TOP LOGGED INTERVAL
TWP.                     :TWP
TYPE_FLUID_IN_HOLE.      :TYPE FLUID IN HOLE
TYPE_LOG.                :TYPE LOG
WELL_ID.                 :WELL ID
WGT1.                    :WGT1
WGT2.                    :WGT2
WGT3.                    :WGT3
WGT4.                    :WGT4
WGT5.                    :WGT5
WGT6.                    :WGT6
WITNESSED_BY.            :WITNESSED BY
Well_Name_.   AS-14-639  :Well Name:
#------------------------------------------------------------
~OTHER
#------------------------------------------------------------
~A
# ...
   485.870
     167.765     16.0063     1020.10     1905.88     2717.21
     3345.01     3724.87     77.9762     39.0162     27.4061
     95.0204     46.4480     37.8149     4.00000    0.647209
     7.94558     126.594     0.00000     0.00000     0.00000
     39.8873     56.1789     206.962     1.00156     1.37169
    -99999.0     4967.27    -99999.0     2.52979    0.500000
   485.920
     164.296     16.0061     1018.50     1880.94     2712.61
     3329.74     3728.67     77.7911     38.8310     27.3076
     102.225     51.9317     30.8141     3.98257    0.648375
     7.92847     126.798     0.00000     0.00000     0.00000
     40.1426     56.3457     207.300    0.996807    0.545479
    -99999.0     4918.03    -99999.0     2.52292    0.500000
   485.970
     160.080     16.0056     1009.17     1865.22     2654.03
     3237.86     3727.76     77.3777     38.9755     27.6222
     102.228     51.9331     30.8455     3.92500    0.565477
     7.87673     126.113     0.00000     0.00000     0.00000
     40.5004     56.3933     207.712    0.991825     1.02832
    -99999.0     4886.33    -99999.0     2.51699    0.500000
   486.020
     159.010     16.0044     994.370     1862.59     2553.00
     3167.87     3674.76     80.5845     41.0766     28.0459
     102.339     52.0678     32.7117     3.92500    0.507195
     7.91214     127.661  0.00797729    0.185893    0.354708
     40.3601     56.3780     207.480    0.993536    0.110609
    -99999.0     4838.71    -99999.0     2.51109    0.500000
   486.070
     158.621     16.0044     991.154     1835.20     2489.51
     3138.09     3622.03     82.6100     42.2306     28.6619
     98.5863     55.5250     36.3068     3.93081    0.491217
     7.89549     128.520     0.00000     0.00000     0.00000
     39.8654     56.3776     206.986     1.00168     0.00000
    -99999.0     4838.71    -99999.0     2.51050    0.500000
   486.120
     164.037     16.0045     991.232     1790.20     2480.51
     3171.54     3622.60     82.8805     42.3771     28.7685
     107.467     58.0008     25.4727     3.94418    0.501726
     7.77401     127.182     0.00000     0.00000     0.00000
     40.4586     56.3500     207.434    0.998959    0.307579
    -99999.0     4838.71    -99999.0     2.51050    0.500000
   486.170
     164.880     16.0075     1015.44     1794.32     2462.61
     3175.69     3622.58     81.0433     43.2019     29.6176
     107.480     58.0072     25.5436     3.93081    0.493190
     7.82292     125.457    0.166450     1.50964     2.47038
     40.3925     56.4015     207.685    0.992295     2.12349
    -99999.0     4838.71    -99999.0     2.51050    0.500000
   486.220
     161.664     16.0120     1051.62     1797.83     2470.45
     3267.44     3620.99     82.9610     44.1222     29.9547
     108.169     58.4004     29.8552     3.95000    0.517064
     7.93646     125.652   0.0708728    0.135126    0.442518
     40.0466     56.4670     207.070    0.998257    0.595764
    -99999.0     4870.41    -99999.0     2.51581    0.500000
   486.270
     151.939     16.0150     1080.07     1883.33     2541.46
     3370.00     3614.49     82.6297     43.2740     31.0944
     101.335     58.7162     34.2925     3.95000    0.509621
     7.98556     126.635     0.00000     0.00000     0.00000
     40.1000     56.4500     207.122    0.998074     0.00000
    -99999.0     4886.36    -99999.0     2.51640    0.500000
   486.320
     145.275     16.0156     1085.84     2010.99     2731.96
     3450.19     3627.62     82.7719     43.8759     29.5408
     104.156     53.0198     25.6650     3.95000    0.509249
     7.91454     125.994     0.00000     0.00000     0.00000
     40.6170     56.4364     207.753    0.990836     0.00000
    -99999.0     4838.71    -99999.0     2.51109    0.500000
   486.370
     141.480     16.0171     1102.99     2117.06     2766.59
     3458.20     3638.28     82.8293     44.0317     29.1945
     104.939     53.1976     28.6708     3.95581    0.524711
     7.90518     124.320     0.00000     0.00000     0.00000
     40.2243     56.3988     207.295    0.997052     0.00000
    -99999.0     4838.71    -99999.0     2.51050    0.500000
   486.420
     140.053     16.0251     1123.07     2219.31     3004.75
     3497.20     3638.57     82.7135     44.5810     29.3294
     105.665     53.4666     31.7363     3.97500    0.615884
     8.00520     122.937     0.00000     0.00000     0.00000
     40.8179     56.3927     207.977    0.983837     1.08674
    -99999.0     4838.71    -99999.0     2.51050    0.500000
   486.470
     135.965     16.0282     1137.95     2240.26     3257.22
     3569.19     3656.11     80.5157     42.3201     29.8017
     102.924     58.8517     38.2972     3.98663    0.703946
     8.10848     123.054    0.299223     2.00818     3.24044
     39.1000     56.3900     205.500     1.01770     2.20957
    -99999.0     4838.71    -99999.0     2.51050    0.500000
   486.520
     134.637     16.0229     1158.30     2337.38     3445.71
     3797.41     3697.81     80.6089     42.7238     28.7712
     95.3302     45.3017     34.4636     4.01337    0.689367
     8.14589     121.317     0.00000     0.00000     0.00000
     40.9768     56.2985     208.405    0.983850     0.00000
    -99999.0     4838.71    -99999.0     2.51050    0.500000
   486.570
     135.480     16.0214     1163.28     2442.62     3474.61
     3822.77     3698.67     80.7099     42.8929     28.5528
     95.3219     45.3974     34.5278     3.96919    0.826235
     8.16977     112.861    0.211390    0.298334    0.213436
     40.1360     56.0595     207.805    0.996199    0.466725
    -99999.0     4838.71    -99999.0     2.51050    0.500000
   486.620
     134.587     16.0225     1192.64     2513.77     3543.15
     4097.14     3751.42     80.7191     42.6041     28.7056
     94.9227     51.1114     38.2946     3.95000     1.67592
     8.58200     106.608   0.0384999    0.235523    0.338729
     40.1006     56.0150     208.151    0.997036    0.500020
    -99999.0     4838.71    -99999.0     2.51050    0.500000
   486.670
     131.053     16.0241     1226.00     2526.64     3605.28
     4343.27     3822.26     81.6079     44.7171     30.5179
     100.251     51.1678     34.7700     3.95000     2.40702
     9.28671     106.817     0.00000     0.00000     0.00000
     40.1347     55.6912     209.635    0.999290   0.0414037
    -99999.0     4870.38    -99999.0     2.51581    0.500000
   486.720
     126.072     16.0247     1243.64     2539.45     3701.16
     4557.11     3915.50     83.4874     45.5798     29.8510
     92.0792     44.0769     42.0735     3.94418     2.38357
     9.42855     105.373     0.00000     0.00000     0.00000
     41.1449     55.9907     211.202    0.982993     0.00000
    -99999.0     4950.79    -99999.0     2.52729    0.500000
   486.770
     122.280     16.0248     1246.64     2547.13     3717.97
     4744.69     3996.08     83.8197     45.6652     29.6532
     92.0614     46.9614     38.5670     3.93081     2.61819
     9.38447     96.6931     0.00000     0.00000     0.00000
     39.7277     55.8819     208.534     1.00465     0.00000
    -99999.0     4967.27    -99999.0     2.52850    0.500000
   486.820
     121.031     16.0238     1237.73     2581.27     3789.84
     4763.77     3997.19     84.2828     45.7135     30.3091
     92.1996     47.0116     38.4708     3.95000     4.16114
     9.96329     91.9778     0.00000     0.00000     0.00000
     40.4110     56.0840     208.184    0.995762     1.32543
    -99999.0     4886.38    -99999.0     2.51762    0.500000
   486.870
     119.152     16.0233     1227.34     2589.70     3855.54
     4907.66     4065.01     83.9691     46.0326     31.2695
     100.257     49.8224     32.8556     3.95000     5.46373
     10.8448     89.4436     0.00000     0.00000     0.00000
     40.4714     56.2443     207.286    0.990029     0.00000
    -99999.0     4838.71    -99999.0     2.51109    0.500000
   486.920
     122.394     16.0244     1236.77     2621.10     3921.86
     5043.83     4182.17     84.0807     46.2171     30.6675
     89.5374     39.1222     40.1090     3.94419     6.17562
     11.0325     84.9390     0.00000     0.00000     0.00000
     40.2557     56.2333     207.156    0.995064     0.00000
    -99999.0     4838.71    -99999.0     2.51050    0.500000
