#------------------------------------------------------------
~VERSION INFORMATION
VERS.               2.0  :CWLS LOG ASCII STANDARD - VERSION 2.0
WRAP.               YES  :MULTIPLE LINES PER DEPTH STEP
#------------------------------------------------------------
~WELL INFORMATION
STRT.M          418.770  :FIRST INDEX VALUE
STOP.M          496.370  :LAST INDEX VALUE
STEP.M        0.0500000  :STEP
NULL.            -99999  :NULL VALUE
COMP.                    :COMPANY
WELL.                    :WELL
FLD.                     :FLD
LOC.                     :LOCATION
SRVC.                    :
CTRY.                    :COUNTRY
STAT.                    :STATE
CNTY.                    :
DATE.                    :DATE
API.                     :API
#------------------------------------------------------------
~CURVE INFORMATION
DEPT.M                   :DEPTH
SP.MV                    :SP
VSPR.V                   :VSPR
SPR.OHM                  :SPR
N8.OHM.M                 :N8
N16.OHM.M                :N16
N32.OHM.M                :N32
N64.OHM.M                :N64
IPLIN161.MV/V            :IPlin161
IPLIN165.MV/V            :IPlin165
IPLIN1610.MV/V           :IPlin1610
IPLIN641.MV/V            :IPlin641
IPLIN645.MV/V            :IPlin645
IPLIN6410.MV/V           :IPlin6410
SPEED.MT/MIN             :Speed
MAG_SUSC.10E-3_SI_UNITS   :Mag Susc
INDUCTION.MS/M           :Induction
IND_RES.OHM-M            :Ind Res
K.%                      :K
U.PPM                    :U
TH.PPM                   :Th
TILT.DEG                 :Tilt
MAGNFIELD.UT             :MagnField
AZIMUTH.DEG              :Azimuth
GRAVITY.G                :Gravity
GR.API                   :GR
CALIPER.CM               :Caliper
VP.M/S                   :Vp
VS.M/S                   :Vs
RHO_ND.                  :rho_ND
POISSON_RATIO.           :Poisson_ratio
#------------------------------------------------------------
~PARAMETER INFORMATION
API_Well_Number_. Yorbeau(Astoria)  :API Well Number:
Acquisition_dates_from_.   :Acquisition dates from:
Acquisition_dates_to_.   :Acquisition dates to:
BIT_FROM1.               :BIT FROM1
BIT_FROM2.               :BIT FROM2
BIT_FROM3.               :BIT FROM3
BIT_FROM4.               :BIT FROM4
BIT_FROM5.               :BIT FROM5
BIT_FROM6.               :BIT FROM6
BIT_TO1.                 :BIT TO1
BIT_TO2.                 :BIT TO2
BIT_TO3.                 :BIT TO3
BIT_TO4.                 :BIT TO4
BIT_TO5.                 :BIT TO5
BIT_TO6.                 :BIT TO6
BIT1.                    :BIT1
BIT2.                    :BIT2
BIT3.                    :BIT3
BIT4.                    :BIT4
BIT5.                    :BIT5
BIT6.                    :BIT6
BTM_LOGGED_INTERVAL.     :BTM LOGGED INTERVAL
CASING_FROM1.            :CASING FROM1
CASING_FROM2.            :CASING FROM2
CASING_FROM3.            :CASING FROM3
CASING_FROM4.            :CASING FROM4
CASING_FROM5.            :CASING FROM5
CASING_FROM6.            :CASING FROM6
CASING_SIZE1.            :CASING SIZE1
CASING_SIZE2.            :CASING SIZE2
CASING_SIZE3.            :CASING SIZE3
CASING_SIZE4.            :CASING SIZE4
CASING_SIZE5.            :CASING SIZE5
CASING_SIZE6.            :CASING SIZE6
CASING_TO1.              :CASING TO1
CASING_TO2.              :CASING TO2
CASING_TO3.              :CASING TO3
CASING_TO4.              :CASING TO4
CASING_TO5.              :CASING TO5
CASING_TO6.              :CASING TO6
CO.                      :CO
CTY.                     :CTY
Country_.        Canada  :Country:
Customer_.  Metal Earth  :Customer:
D_F_.                    :D.F.
DENSITY.                 :DENSITY
DEPTH-DRILLER.           :DEPTH-DRILLER
DEPTH-LOGGER.            :DEPTH-LOGGER
DRILLING_MEAS__FROM.     :DRILLING MEAS. FROM
Depth_unit_.     meters  :Depth unit:
Drilling_measured_from_.   :Drilling measured from:
ELEVATION.               :ELEVATION
FIELD.                   :FIELD
FILING_No.               :FILING No
File_Name_. AS-14-639-petrophysics.WCL  :File Name:
G_L_.                    :G.L.
Height_above_drilling_datum_.   :Height above drilling datum:
Height_above_log_datum_.   :Height above log datum:
K_B_.                    :K.B.
LEVEL.                   :LEVEL
LOG_MEAS__FROM.          :LOG MEAS. FROM
Location_Description_.   :Location Description:
Log_interval_is_from_. 1.36 m  :Log interval is from:
Log_interval_to_. 559.86  :Log interval to:
Log_is_measured_from_. TOP OF COLLAR  :Log is measured from:
MAX__REC__TEMP_.         :MAX. REC. TEMP.
OPERATING_RIG_TIME.      :OPERATING RIG TIME
OTHER_SERVICES.          :OTHER SERVICES
Operator_.      FG, JCD  :Operator:
Other_Services_.         :Other Services:
PERMANENT_DATUM.         :PERMANENT DATUM
Permanent_datum_elevation_#1.   :Permanent datum elevation:#1
Permanent_datum_is_#1. NQ  :Permanent datum is:#1
Permanent_datum_is_#2.   :Permanent datum is:#2
Permanent_datum_is_#3.   :Permanent datum is:#3
Permanent_datum_is__.    :Permanent datum is::
Print_type_is_.          :Print type is:
RECORDED_BY.             :RECORDED BY
RGE.                     :RGE
RUN_No.                  :RUN No
RUN1.                    :RUN1
RUN2.                    :RUN2
RUN3.                    :RUN3
RUN4.                    :RUN4
RUN5.                    :RUN5
RUN6.                    :RUN6
SALINITY.                :SALINITY
SEC.                     :SEC
STE.                     :STE
Scale_ratio_.            :Scale ratio:
Scaled_depth_is_.        :Scaled depth is:
Service_Company_. Université Laval  :Service Company:
State_/_Province_.   QC  :State / Province:
TITLE.                   :TITLE
TOP_LOGGED_INTERVAL.     :TOP LOGGED INTERVAL
TWP.                     :TWP
TYPE_FLUID_IN_HOLE.      :TYPE FLUID IN HOLE
TYPE_LOG.                :TYPE LOG
WELL_ID.                 :WELL ID
WGT1.                    :WGT1
WGT2.                    :WGT2
WGT3.                    :WGT3
WGT4.                    :WGT4
WGT5.                    :WGT5
WGT6.                    :WGT6
WITNESSED_BY.            :WITNESSED BY
Well_Name_.   AS-14-639  :Well Name:
#------------------------------------------------------------
~OTHER
#------------------------------------------------------------
~A
# ...
   464.970
    -2.87729     16.0232     1377.18     3236.80     5310.64
     8144.50     9436.12     91.0136     54.9945     44.5908
     113.863     66.7313     52.8310     3.90000    0.563750
     8.19393     122.030     0.00000     0.00000     0.00000
     40.2121     55.9125     208.962    0.985145     2.25133
    -99999.0     6199.03     3036.93     2.75800    0.341100
   465.020
    -3.89839     16.0233     1377.98     3239.88     5313.81
     8149.21     9453.85     91.0517     55.0564     44.5710
     115.085     67.8250     52.7481     3.90581    0.529425
     8.19616     121.815    0.148327     1.01424     2.97925
     39.6266     55.8485     208.083    0.997755    0.809642
    -99999.0     6122.45     3036.93     2.74496    0.337233
   465.070
    -5.03355     16.0237     1377.86     3249.01     5339.79
     8184.72     9480.01     91.3064     55.1930     44.5247
     117.046     67.8651     53.8160     3.93662    0.555982
     8.20055     122.797   0.0317730    0.278952    0.731288
     39.4393     55.8800     207.871     1.00221    0.333308
    -99999.0     6122.45     3036.93     2.74350    0.336800
   465.120
    -6.72000     16.0236     1375.82     3251.24     5374.33
     8202.92     9505.62     91.3614     55.1319     44.6503
     114.405     65.3253     54.4452     3.98663    0.479264
     8.18404     122.726   0.0291999    0.113148   0.0345016
     40.0996     55.8840     208.519    0.988688     1.35456
    -99999.0     6122.45     3036.93     2.74350    0.336800
   465.170
    -7.96872     16.0237     1375.04     3260.32     5404.40
     8204.55     9506.18     90.7541     55.0432     44.4236
     114.428     65.3559     54.4323     4.02500    0.475432
     8.12262     122.025     0.00000     0.00000     0.00000
     39.6223     55.8898     208.071    0.997133     0.00000
    -99999.0     6122.45     3036.93     2.74350    0.336800
   465.220
    -11.9919     16.0237     1374.99     3267.28     5409.15
     8239.23     9538.85     90.6351     55.0292     44.3741
     115.806     67.1902     53.6714     4.00756    0.536354
     8.18490     122.047     0.00000     0.00000     0.00000
     39.0763     55.8900     207.502     1.01006     0.00000
    -99999.0     6122.45     3036.93     2.74350    0.336800
   465.270
    -14.6984     16.0243     1375.63     3276.26     5420.86
     8283.25     9588.36     90.9073     55.1191     44.5342
     115.787     67.4293     54.3178     3.94418    0.522782
     8.20034     121.835    0.115140     1.16512     3.17249
     40.6643     55.8829     209.514    0.975950    0.830196
    -99999.0     6122.45     3036.93     2.74350    0.410185
   465.320
    -15.1200     16.0245     1376.36     3278.25     5424.64
     8303.20     9638.16     91.1454     55.1740     44.5713
     116.631     66.1352     53.3308     3.92500    0.500693
     8.19630     121.737     0.00000     0.00000     0.00000
     39.9312     55.8800     208.308    0.992576     1.23624
    -99999.0     6122.45    -99999.0     2.74350    0.491780
   465.370
    -15.4773     16.0242     1378.82     3281.78     5424.94
     8304.96     9638.97     91.1815     55.1813     44.5725
     116.630     66.1446     53.3386     3.92500    0.429930
     8.21763     121.801    0.769055    0.694170     2.31623
     39.3892     55.8761     207.645     1.00392     1.37715
    -99999.0     6073.56    -99999.0     2.73144    0.500000
   465.420
    -17.2119     16.0242     1379.48     3275.38     5426.85
     8324.80     9687.15     90.8331     55.2760     44.7288
     116.570     66.7064     53.7982     3.92500    0.471839
     8.21058     122.085   0.0927524    0.105966    0.179132
     39.7089     55.8827     208.236    0.995796    0.189346
    -99999.0     5953.03    -99999.0     2.70688    0.500000
   465.470
    -19.8559     16.0243     1380.88     3273.52     5428.61
     8359.69     9760.36     91.4987     55.3682     45.0108
     115.735     67.9130     54.2034     3.93081    0.507248
     8.20105     121.267    0.126761     2.26068     5.09647
     39.5363     55.8911     207.925     1.00112     2.71320
    -99999.0     5837.15    -99999.0     2.68288    0.500000
   465.520
    -21.1200     16.0242     1379.42     3274.61     5429.68
     8377.62     9844.76     92.2362     55.2510     45.0459
     116.243     66.2699     53.4513     3.94418    0.485948
     8.21089     119.945   0.0399038     1.39335     3.66959
     39.2110     55.8900     207.566     1.00672     2.24586
    -99999.0     5725.77    -99999.0     2.66062    0.408089
   465.570
    -22.0119     16.0241     1378.89     3281.59     5429.83
     8379.25     9845.84     92.3524     55.2253     45.0432
     116.243     66.2667     53.4682     3.92500    0.490281
     8.30916     121.357    0.275750     2.31328     6.47571
     40.4000     55.8900     209.300    0.980900     3.06966
    -99999.0     5660.38     3059.62     2.64896    0.303647
   465.620
    -25.3705     16.0312     1380.39     3282.97     5435.13
     8393.10     9911.66     91.7575     55.4115     45.0504
     116.229     66.1030     54.4663     3.93081    0.496838
     8.30925     122.358     0.00000     0.00000     0.00000
     39.0532     55.8847     207.300     1.00941     2.65385
    -99999.0     5660.38     3085.21     2.64790    0.288691
   465.670
    -28.3200     16.0405     1384.03     3282.89     5442.93
     8428.02     9972.61     91.5718     55.5825     45.1645
     115.557     67.6119     53.9089     3.94419    0.510704
     8.17005     121.707     0.00000     0.00000     0.00000
     39.9017     55.8835     208.469    0.992400    0.461003
    -99999.0     5618.53     3116.54     2.63899    0.276682
   465.720
    -28.3200     16.0358     1384.29     3285.76     5451.25
     8449.22     10035.2     91.7277     55.3660     45.2100
     116.413     65.9577     53.8531     3.93081    0.513293
     8.19453     121.438    0.122866   0.0922582    0.351831
     39.8081     55.8801     208.411    0.995221    0.252572
    -99999.0     5515.19     3145.68     2.62090    0.258931
   465.770
    -30.8174     16.0339     1384.10     3294.06     5452.62
     8451.21     10036.3     91.7607     55.3187     45.2145
     116.411     65.9621     53.8685     3.96744    0.530082
     8.23774     121.709   0.0205256   0.0262277   0.0296823
     39.7651     55.8674     208.165    0.995263   0.0439036
    -99999.0     5494.88     3175.64     2.61900    0.250085
   465.820
    -40.1094     16.0274     1383.80     3297.49     5465.09
     8465.83     10101.2     91.0851     55.3394     45.2186
     116.305     66.2544     54.8094     4.02500    0.530644
     8.22441     121.998     0.00000     0.00000     0.00000
     39.7662     55.8781     208.090    0.996180     3.48270
    -99999.0     5555.56     3225.51     2.62727    0.245163
   465.870
    -48.8346     16.0324     1385.19     3297.87     5483.13
     8507.29     10180.2     91.1159     55.4272     45.2515
     114.600     67.9928     55.9455     4.02500    0.520137
     8.20263     122.091     0.00000     0.00000     0.00000
     39.9836     55.9287     208.380    0.990667     0.00000
    -99999.0     5597.41     3250.99     2.63702    0.246500
   465.920
    -50.5200     16.0334     1384.28     3299.63     5499.88
     8545.85     10256.1     91.2969     55.3799     45.1771
     116.198     65.9596     53.7415     4.01338    0.517471
     8.19061     122.363    0.239438    0.248910     1.45207
     39.1741     55.8925     207.324     1.00852    0.743012
    -99999.0     5660.38     3280.22     2.64691    0.245440
   465.970
    -50.5200     16.0331     1383.90     3307.80     5502.55
     8549.76     10257.1     91.3261     55.3675     45.1614
     116.188     65.9567     53.7605     3.96337    0.500972
     8.18221     122.245    0.227235     1.66253     4.77651
     39.6381     55.8857     207.965    0.999110     4.52971
    -99999.0     5703.88     3342.41     2.65735    0.239540
   466.020
    -50.1632     16.0259     1382.52     3311.09     5513.06
     8562.11     10315.9     91.0182     55.3639     45.1528
     115.567     65.7921     54.8662     3.92500    0.497731
     8.17042     122.071   0.0405477    0.595431     1.09700
     39.6794     55.9076     208.359    0.995680     1.66391
    -99999.0     5814.40     3382.15     2.67828    0.244386
