#------------------------------------------------------------
~VERSION INFORMATION
VERS.               2.0  :CWLS LOG ASCII STANDARD - VERSION 2.0
WRAP.               YES  :MULTIPLE LINES PER DEPTH STEP
#------------------------------------------------------------
~WELL INFORMATION
STRT.M          418.770  :FIRST INDEX VALUE
STOP.M          496.370  :LAST INDEX VALUE
STEP.M        0.0500000  :STEP
NULL.            -99999  :NULL VALUE
COMP.                    :COMPANY
WELL.                    :WELL
FLD.                     :FLD
LOC.                     :LOCATION
SRVC.                    :
CTRY.                    :COUNTRY
STAT.                    :STATE
CNTY.                    :
DATE.                    :DATE
API.                     :API
#------------------------------------------------------------
~CURVE INFORMATION
DEPT.M                   :DEPTH
SP.MV                    :SP
VSPR.V                   :VSPR
SPR.OHM                  :SPR
N8.OHM.M                 :N8
N16.OHM.M                :N16
N32.OHM.M                :N32
N64.OHM.M                :N64
IPLIN161.MV/V            :IPlin161
IPLIN165.MV/V            :IPlin165
IPLIN1610.MV/V           :IPlin1610
IPLIN641.MV/V            :IPlin641
IPLIN645.MV/V            :IPlin645
IPLIN6410.MV/V           :IPlin6410
SPEED.MT/MIN             :Speed
MAG_SUSC.10E-3_SI_UNITS   :Mag Susc
INDUCTION.MS/M           :Induction
IND_RES.OHM-M            :Ind Res
K.%                      :K
U.PPM                    :U
TH.PPM                   :Th
TILT.DEG                 :Tilt
MAGNFIELD.UT             :MagnField
AZIMUTH.DEG              :Azimuth
GRAVITY.G                :Gravity
GR.API                   :GR
CALIPER.CM               :Caliper
VP.M/S                   :Vp
VS.M/S                   :Vs
RHO_ND.                  :rho_ND
POISSON_RATIO.           :Poisson_ratio
#------------------------------------------------------------
~PARAMETER INFORMATION
API_Well_Number_. Yorbeau(Astoria)  :API Well Number:
Acquisition_dates_from_.   :Acquisition dates from:
Acquisition_dates_to_.   :Acquisition dates to:
BIT_FROM1.               :BIT FROM1
BIT_FROM2.               :BIT FROM2
BIT_FROM3.               :BIT FROM3
BIT_FROM4.               :BIT FROM4
BIT_FROM5.               :BIT FROM5
BIT_FROM6.               :BIT FROM6
BIT_TO1.                 :BIT TO1
BIT_TO2.                 :BIT TO2
BIT_TO3.                 :BIT TO3
BIT_TO4.                 :BIT TO4
BIT_TO5.                 :BIT TO5
BIT_TO6.                 :BIT TO6
BIT1.                    :BIT1
BIT2.                    :BIT2
BIT3.                    :BIT3
BIT4.                    :BIT4
BIT5.                    :BIT5
BIT6.                    :BIT6
BTM_LOGGED_INTERVAL.     :BTM LOGGED INTERVAL
CASING_FROM1.            :CASING FROM1
CASING_FROM2.            :CASING FROM2
CASING_FROM3.            :CASING FROM3
CASING_FROM4.            :CASING FROM4
CASING_FROM5.            :CASING FROM5
CASING_FROM6.            :CASING FROM6
CASING_SIZE1.            :CASING SIZE1
CASING_SIZE2.            :CASING SIZE2
CASING_SIZE3.            :CASING SIZE3
CASING_SIZE4.            :CASING SIZE4
CASING_SIZE5.            :CASING SIZE5
CASING_SIZE6.            :CASING SIZE6
CASING_TO1.              :CASING TO1
CASING_TO2.              :CASING TO2
CASING_TO3.              :CASING TO3
CASING_TO4.              :CASING TO4
CASING_TO5.              :CASING TO5
CASING_TO6.              :CASING TO6
CO.                      :CO
CTY.                     :CTY
Country_.        Canada  :Country:
Customer_.  Metal Earth  :Customer:
D_F_.                    :D.F.
DENSITY.                 :DENSITY
DEPTH-DRILLER.           :DEPTH-DRILLER
DEPTH-LOGGER.            :DEPTH-LOGGER
DRILLING_MEAS__FROM.     :DRILLING MEAS. FROM
Depth_unit_.     meters  :Depth unit:
Drilling_measured_from_.   :Drilling measured from:
ELEVATION.               :ELEVATION
FIELD.                   :FIELD
FILING_No.               :FILING No
File_Name_. AS-14-639-petrophysics.WCL  :File Name:
G_L_.                    :G.L.
Height_above_drilling_datum_.   :Height above drilling datum:
Height_above_log_datum_.   :Height above log datum:
K_B_.                    :K.B.
LEVEL.                   :LEVEL
LOG_MEAS__FROM.          :LOG MEAS. FROM
Location_Description_.   :Location Description:
Log_interval_is_from_. 1.36 m  :Log interval is from:
Log_interval_to_. 559.86  :Log interval to:
Log_is_measured_from_. TOP OF COLLAR  :Log is measured from:
MAX__REC__TEMP_.         :MAX. REC. TEMP.
OPERATING_RIG_TIME.      :OPERATING RIG TIME
OTHER_SERVICES.          :OTHER SERVICES
Operator_.      FG, JCD  :Operator:
Other_Services_.         :Other Services:
PERMANENT_DATUM.         :PERMANENT DATUM
Permanent_datum_elevation_#1.   :Permanent datum elevation:#1
Permanent_datum_is_#1. NQ  :Permanent datum is:#1
Permanent_datum_is_#2.   :Permanent datum is:#2
Permanent_datum_is_#3.   :Permanent datum is:#3
Permanent_datum_is__.    :Permanent datum is::
Print_type_is_.          :Print type is:
RECORDED_BY.             :RECORDED BY
RGE.                     :RGE
RUN_No.                  :RUN No
RUN1.                    :RUN1
RUN2.                    :RUN2
RUN3.                    :RUN3
RUN4.                    :RUN4
RUN5.                    :RUN5
RUN6.                    :RUN6
SALINITY.                :SALINITY
SEC.                     :SEC
STE.                     :STE
Scale_ratio_.            :Scale ratio:
Scaled_depth_is_.        :Scaled depth is:
Service_Company_. Université Laval  :Service Company:
State_/_Province_.   QC  :State / Province:
TITLE.                   :TITLE
TOP_LOGGED_INTERVAL.     :TOP LOGGED INTERVAL
TWP.                     :TWP
TYPE_FLUID_IN_HOLE.      :TYPE FLUID IN HOLE
TYPE_LOG.                :TYPE LOG
WELL_ID.                 :WELL ID
WGT1.                    :WGT1
WGT2.                    :WGT2
WGT3.                    :WGT3
WGT4.                    :WGT4
WGT5.                    :WGT5
WGT6.                    :WGT6
WITNESSED_BY.            :WITNESSED BY
Well_Name_.   AS-14-639  :Well Name:
#------------------------------------------------------------
~OTHER
#------------------------------------------------------------
~A
# ...
   490.270
     129.853     16.0272     1298.09     2728.41     4058.37
     5293.40     4658.51     88.4502     48.1033     34.0099
     117.732     62.2670     44.4152     3.92500    0.363769
     7.76225     136.757    0.820735     1.95821     5.41793
     40.6000     58.3500     204.400    0.988600     16.8206
    -99999.0     5263.16     2702.70     2.57690    0.321120
   490.320
     126.480     16.0273     1300.59     2727.25     4040.11
     5286.83     4644.51     87.5618     48.6447     33.9979
     117.216     59.5192     42.1399     3.92500    0.476880
     7.51252     143.926    0.535141     2.10925     4.06480
     40.1718     58.9405     203.533    0.997189     13.2318
    -99999.0     5263.16     2702.70     2.57690    0.320900
   490.370
     127.016     16.0341     1305.61     2735.11     4049.77
     5292.19     4644.41     88.3695     49.5726     34.1996
     117.229     59.5132     42.2468     3.93081    0.482145
     7.03963     146.087    0.401921     2.06487     5.89551
     40.6609     58.3674     207.288    0.988407     10.1903
    -99999.0     5226.93     2702.70     2.57015    0.317031
   490.420
     125.961     16.0361     1306.84     2748.40     4052.20
     5292.87     4639.26     88.5601     49.7340     34.2455
     117.921     59.2435     48.3814     3.94419    0.487068
     6.84981     145.503  0.00696587    0.302943    0.809151
     40.3000     56.3285     205.248    0.994546     3.74967
    -99999.0     5172.41     2702.70     2.56274    0.312641
   490.470
     120.480     16.0370     1317.88     2776.01     4083.39
     5318.31     4658.14     87.8378     49.6083     34.8982
     114.617     63.6402     47.2205     3.92500    0.475266
     6.85534     141.916     0.00000     0.00000     0.00000
     40.5000     56.8486     206.562    0.990769     6.63553
    -99999.0     5172.41     2712.52     2.56200    0.310040
   490.520
     118.339     16.0318     1332.88     2782.30     4131.32
     5377.07     4706.48     87.5061     49.5676     35.8484
     117.425     61.1870     44.1940     3.94244    0.560614
     6.96410     137.778   0.0721655     2.31690     5.39383
     39.9873     56.7569     205.600     1.00201     6.35521
    -99999.0     5172.41     2727.27     2.56200    0.307730
   490.570
     110.783     16.0310     1347.41     2821.36     4202.12
     5457.53     4707.61     87.7096     50.0501     36.0247
     117.435     61.1637     44.2448     4.00000    0.571242
     7.19472     134.871    0.587179     2.85650     4.59513
     40.3000     56.7700     206.300    0.995900     2.08296
    -99999.0     5172.41     2737.26     2.56200    0.305252
   490.620
     102.200     16.0312     1350.61     2877.92     4214.36
     5466.05     4776.35     87.7567     50.1451     36.0277
     117.920     59.7662     47.3343     4.00000    0.500392
     7.36870     134.461    0.259479     1.81971     3.87370
     39.9904     56.7297     205.516    0.998132     4.10294
    -99999.0     5208.65     2742.30     2.56866    0.309049
   490.670
     95.8800     16.0317     1359.03     2932.58     4307.23
     5566.74     4861.79     87.3050     49.8994     36.1767
     110.589     59.6366     50.9273     3.99419    0.478248
     7.45226     137.270    0.363479    0.512976    0.366997
     40.6574     56.6628     206.657    0.987823     2.65228
    -99999.0     5226.93     2727.27     2.56940    0.311750
   490.720
     94.0935     16.0323     1369.67     2943.50     4428.36
     5713.76     4949.38     86.8656     49.9141     37.3770
     116.111     60.5645     46.2787     3.96337    0.431425
     7.35865     135.562   0.0798270    0.612535    0.946079
     40.3555     56.6277     206.755    0.994502     2.33632
    -99999.0     5172.41     2727.27     2.56274    0.307950
   490.770
     86.3122     16.0333     1381.14     2982.23     4539.27
     5729.33     4950.95     87.4377     50.8689     37.8973
     116.142     60.6049     46.3275     3.92500    0.452131
     7.28712     130.098    0.567151    0.268820     2.05148
     40.2809     56.5400     206.782    0.995960     5.28789
    -99999.0     5172.41     2727.27     2.56200    0.307500
   490.820
     75.3826     16.0335     1383.76     3032.50     4556.96
     5882.32     5043.41     87.5629     51.0531     37.9544
     117.918     62.9534     49.2958     3.92500    0.502936
     7.57592     127.599   0.0491210   0.0689750   0.0621883
     40.3723     56.5100     206.848    0.993148    0.100519
    -99999.0     5208.62     2737.26     2.56866    0.309389
   490.870
     69.4800     16.0339     1392.40     3081.14     4647.76
     6098.91     5157.64     87.7455     51.2457     38.2699
     111.276     59.2816     52.3770     3.92500    0.525440
     7.82411     126.592     0.00000     0.00000     0.00000
     40.3751     56.5208     206.959    0.992972     1.64557
    -99999.0     5263.16     2783.39     2.57615    0.304741
   490.920
     67.5177     16.0343     1403.07     3090.89     4755.35
     6345.53     5298.31     88.0286     51.3332     38.4725
     112.355     62.1559     49.6783     3.92500    0.543851
     7.87348     126.391   0.0811168     1.34532     2.43252
     40.1225     56.5485     206.453    0.998651     1.32363
    -99999.0     5226.93     2819.63     2.57015    0.295291
   490.970
     59.6644     16.0344     1412.33     3125.24     4772.92
     6371.27     5301.16     88.0770     51.3429     38.5000
     112.486     62.2162     49.6063     3.92500    0.584558
     7.92042     125.801  0.000114582    0.235812     1.18409
     41.0197     56.5200     208.003    0.979816     2.03484
    -99999.0     5208.68     2793.36     2.56940    0.298980
   491.020
     49.5826     16.0345     1414.30     3171.04     4861.65
     6572.34     5468.18     88.5698     51.6677     39.5319
     119.894     65.5848     45.5465     3.93081    0.655218
     7.92427     125.822   0.0608931    0.172053     1.50560
     39.9956     56.5239     206.474     1.00127     1.87687
    -99999.0     5263.16     2788.14     2.57615    0.303909
   491.070
     43.6800     16.0352     1420.49     3180.49     4968.50
     6792.63     5664.41     88.3299     52.3839     39.9090
     113.466     59.6254     50.3503     3.94419    0.630817
     7.96301     126.653    0.535676    0.817299    0.774559
     40.3451     56.5045     206.900    0.995584     1.31810
    -99999.0     5263.16     2825.05     2.57690    0.297295
   491.120
     43.3227     16.0359     1427.69     3215.42     5072.27
     7016.48     5875.69     88.8250     52.6209     40.0801
     112.164     62.8532     49.5412     3.93081    0.563931
     7.91485     126.219     0.00000     0.00000     0.00000
     40.0929     56.4971     206.610    0.999791     1.31670
    -99999.0     5300.68     2879.29     2.58410    0.291191
   491.170
     40.8745     16.0360     1429.24     3257.31     5089.06
     7039.60     5879.37     88.9346     52.6422     40.1068
     112.235     62.8991     49.5201     3.95000    0.539190
     7.89714     126.533   0.0436539     1.34155     3.51280
     40.8977     56.4714     207.803    0.982283     1.08247
    -99999.0     5319.62     2901.44     2.58490    0.287990
   491.220
     32.0779     16.0362     1433.50     3296.76     5175.13
     7226.36     6096.58     89.3790     52.7062     40.3791
     116.459     65.5957     48.2233     3.95000    0.564050
     7.92879     127.950   0.0866808   0.0576707     1.04837
     40.4000     56.5100     207.100    0.991500     1.74550
    -99999.0     5300.72     2895.81     2.58490    0.287700
   491.270
     20.2800     16.0363     1439.30     3304.65     5268.76
     7422.71     6385.39     88.8965     53.0037     41.0832
     115.430     63.2656     46.0925     3.96163    0.548356
     7.84800     128.037     0.00000     0.00000     0.00000
     40.0630     56.4864     206.472    0.998840    0.658282
    -99999.0     5357.14     2924.02     2.59201    0.287250
   491.320
     22.4207     16.0362     1444.87     3328.92     5344.69
     7624.77     6391.20     89.8332     53.4237     41.1279
     115.429     63.2628     46.1798     4.00000    0.418775
     7.79463     128.818     0.00000     0.00000     0.00000
     40.3000     56.4535     206.900    0.995327    0.868512
    -99999.0     5357.14     2929.78     2.59280    0.287200
