#------------------------------------------------------------
~VERSION INFORMATION
VERS.               2.0  :CWLS LOG ASCII STANDARD - VERSION 2.0
WRAP.               YES  :MULTIPLE LINES PER DEPTH STEP
#------------------------------------------------------------
~WELL INFORMATION
STRT.M          418.770  :FIRST INDEX VALUE
STOP.M          496.370  :LAST INDEX VALUE
STEP.M        0.0500000  :STEP
NULL.            -99999  :NULL VALUE
COMP.                    :COMPANY
WELL.                    :WELL
FLD.                     :FLD
LOC.                     :LOCATION
SRVC.                    :
CTRY.                    :COUNTRY
STAT.                    :STATE
CNTY.                    :
DATE.                    :DATE
API.                     :API
#------------------------------------------------------------
~CURVE INFORMATION
DEPT.M                   :DEPTH
SP.MV                    :SP
VSPR.V                   :VSPR
SPR.OHM                  :SPR
N8.OHM.M                 :N8
N16.OHM.M                :N16
N32.OHM.M                :N32
N64.OHM.M                :N64
IPLIN161.MV/V            :IPlin161
IPLIN165.MV/V            :IPlin165
IPLIN1610.MV/V           :IPlin1610
IPLIN641.MV/V            :IPlin641
IPLIN645.MV/V            :IPlin645
IPLIN6410.MV/V           :IPlin6410
SPEED.MT/MIN             :Speed
MAG_SUSC.10E-3_SI_UNITS   :Mag Susc
INDUCTION.MS/M           :Induction
IND_RES.OHM-M            :Ind Res
K.%                      :K
U.PPM                    :U
TH.PPM                   :Th
TILT.DEG                 :Tilt
MAGNFIELD.UT             :MagnField
AZIMUTH.DEG              :Azimuth
GRAVITY.G                :Gravity
GR.API                   :GR
CALIPER.CM               :Caliper
VP.M/S                   :Vp
VS.M/S                   :Vs
RHO_ND.                  :rho_ND
POISSON_RATIO.           :Poisson_ratio
#------------------------------------------------------------
~PARAMETER INFORMATION
API_Well_Number_. Yorbeau(Astoria)  :API Well Number:
Acquisition_dates_from_.   :Acquisition dates from:
Acquisition_dates_to_.   :Acquisition dates to:
BIT_FROM1.               :BIT FROM1
BIT_FROM2.               :BIT FROM2
BIT_FROM3.               :BIT FROM3
BIT_FROM4.               :BIT FROM4
BIT_FROM5.               :BIT FROM5
BIT_FROM6.               :BIT FROM6
BIT_TO1.                 :BIT TO1
BIT_TO2.                 :BIT TO2
BIT_TO3.                 :BIT TO3
BIT_TO4.                 :BIT TO4
BIT_TO5.                 :BIT TO5
BIT_TO6.                 :BIT TO6
BIT1.                    :BIT1
BIT2.                    :BIT2
BIT3.                    :BIT3
BIT4.                    :BIT4
BIT5.                    :BIT5
BIT6.                    :BIT6
BTM_LOGGED_INTERVAL.     :BTM LOGGED INTERVAL
CASING_FROM1.            :CASING FROM1
CASING_FROM2.            :CASING FROM2
CASING_FROM3.            :CASING FROM3
CASING_FROM4.            :CASING FROM4
CASING_FROM5.            :CASING FROM5
CASING_FROM6.            :CASING FROM6
CASING_SIZE1.            :CASING SIZE1
CASING_SIZE2.            :CASING SIZE2
CASING_SIZE3.            :CASING SIZE3
CASING_SIZE4.            :CASING SIZE4
CASING_SIZE5.            :CASING SIZE5
CASING_SIZE6.            :CASING SIZE6
CASING_TO1.              :CASING TO1
CASING_TO2.              :CASING TO2
CASING_TO3.              :CASING TO3
CASING_TO4.              :CASING TO4
CASING_TO5.              :CASING TO5
CASING_TO6.              :CASING TO6
CO.                      :CO
CTY.                     :CTY
Country_.        Canada  :Country:
Customer_.  Metal Earth  :Customer:
D_F_.                    :D.F.
DENSITY.                 :DENSITY
DEPTH-DRILLER.           :DEPTH-DRILLER
DEPTH-LOGGER.            :DEPTH-LOGGER
DRILLING_MEAS__FROM.     :DRILLING MEAS. FROM
Depth_unit_.     meters  :Depth unit:
Drilling_measured_from_.   :Drilling measured from:
ELEVATION.               :ELEVATION
FIELD.                   :FIELD
FILING_No.               :FILING No
File_Name_. AS-14-639-petrophysics.WCL  :File Name:
G_L_.                    :G.L.
Height_above_drilling_datum_.   :Height above drilling datum:
Height_above_log_datum_.   :Height above log datum:
K_B_.                    :K.B.
LEVEL.                   :LEVEL
LOG_MEAS__FROM.          :LOG MEAS. FROM
Location_Description_.   :Location Description:
Log_interval_is_from_. 1.36 m  :Log interval is from:
Log_interval_to_. 559.86  :Log interval to:
Log_is_measured_from_. TOP OF COLLAR  :Log is measured from:
MAX__REC__TEMP_.         :MAX. REC. TEMP.
OPERATING_RIG_TIME.      :OPERATING RIG TIME
OTHER_SERVICES.          :OTHER SERVICES
Operator_.      FG, JCD  :Operator:
Other_Services_.         :Other Services:
PERMANENT_DATUM.         :PERMANENT DATUM
Permanent_datum_elevation_#1.   :Permanent datum elevation:#1
Permanent_datum_is_#1. NQ  :Permanent datum is:#1
Permanent_datum_is_#2.   :Permanent datum is:#2
Permanent_datum_is_#3.   :Permanent datum is:#3
Permanent_datum_is__.    :Permanent datum is::
Print_type_is_.          :Print type is:
RECORDED_BY.             :RECORDED BY
RGE.                     :RGE
RUN_No.                  :RUN No
RUN1.                    :RUN1
RUN2.                    :RUN2
RUN3.                    :RUN3
RUN4.                    :RUN4
RUN5.                    :RUN5
RUN6.                    :RUN6
SALINITY.                :SALINITY
SEC.                     :SEC
STE.                     :STE
Scale_ratio_.            :Scale ratio:
Scaled_depth_is_.        :Scaled depth is:
Service_Company_. Université Laval  :Service Company:
State_/_Province_.   QC  :State / Province:
TITLE.                   :TITLE
TOP_LOGGED_INTERVAL.     :TOP LOGGED INTERVAL
TWP.                     :TWP
TYPE_FLUID_IN_HOLE.      :TYPE FLUID IN HOLE
TYPE_LOG.                :TYPE LOG
WELL_ID.                 :WELL ID
WGT1.                    :WGT1
WGT2.                    :WGT2
WGT3.                    :WGT3
WGT4.                    :WGT4
WGT5.                    :WGT5
WGT6.                    :WGT6
WITNESSED_BY.            :WITNESSED BY
Well_Name_.   AS-14-639  :Well Name:
#------------------------------------------------------------
~OTHER
#------------------------------------------------------------
~A
# ...
   474.870
     2.76542     16.0201     1349.86     3155.93     5101.30
     7473.80     8301.16     89.5296     54.9454     44.7133
     110.853     66.7568     55.9262     3.97500    0.415412
     8.09617     122.450   0.0886934    0.513761    0.520240
     40.0000     56.0361     208.278    0.995277     3.17530
    -99999.0    -99999.0     3562.06    -99999.0    -99999.0
   474.920
    0.366447     16.0202     1353.47     3160.45     5159.40
     7610.11     8357.01     89.5510     55.1676     44.9513
     112.140     67.1193     55.1670     3.97500    0.451283
     8.15834     122.246    0.769026    0.823426    0.801980
     39.8453     56.0309     208.045    0.997664     3.87329
    -99999.0    -99999.0     3547.95    -99999.0    -99999.0
   474.970
    -2.03458     16.0204     1356.49     3178.42     5211.76
     7744.55     8454.82     89.6630     55.2460     44.8741
     110.806     65.8686     55.9098     3.95755    0.475055
     8.17770     122.115    0.655004    0.860099    0.973549
     40.0179     56.0341     208.388    0.994489     2.69145
    -99999.0    -99999.0     3547.95    -99999.0    -99999.0
   475.020
    -3.72000     16.0204     1357.14     3195.83     5220.14
     7758.40     8583.05     89.6874     55.2540     44.8522
     110.628     65.8196     54.1401     3.91163    0.477603
     8.18579     122.513    0.146728    0.529081     1.58919
     40.0000     56.0127     208.386    0.994665     4.62385
    -99999.0    -99999.0     3547.95    -99999.0    -99999.0
   475.070
    -5.14711     16.0206     1359.45     3208.63     5256.49
     7860.54     8585.34     89.9822     55.3141     45.2745
     110.654     65.8465     54.1290     3.94419    0.493362
     8.17860     123.397    0.229428    0.289655    0.408476
     40.0000     56.0000     208.400    0.994300     3.56320
    -99999.0    -99999.0     3547.95    -99999.0    -99999.0
   475.120
    -9.59187     16.0212     1361.04     3211.06     5294.00
     7951.35     8725.18     89.9066     55.5909     45.4632
     112.185     67.4042     53.5181     3.92500    0.486591
     8.12606     123.213   0.0421425    0.119073     1.04198
     40.1746     56.0054     208.567    0.990870     2.61965
    -99999.0    -99999.0     3547.95    -99999.0    -99999.0
   475.170
    -12.1200     16.0211     1362.12     3220.89     5322.72
     8052.87     8890.77     90.1945     55.6130     45.5045
     110.572     64.7871     56.4776     3.93081    0.491343
     8.09681     122.919     0.00000     0.00000     0.00000
     39.8000     56.0166     208.033    0.999961    0.457555
    -99999.0    -99999.0     3547.95    -99999.0    -99999.0
   475.220
    -12.8346     16.0211     1362.35     3229.61     5327.17
     8063.50     9069.94     90.2559     55.6072     45.5086
     112.964     66.9951     53.6677     3.94418    0.478328
     8.13621     122.905    0.389630    0.432165     2.64775
     40.2942     56.0501     208.791    0.989772     3.70874
    -99999.0    -99999.0     3547.95    -99999.0    -99999.0
   475.270
    -14.5200     16.0210     1363.45     3239.82     5343.75
     8148.88     9073.02     90.6762     55.8410     45.8334
     112.951     66.9897     53.6999     3.92500    0.483832
     8.13540     122.598     0.00000     0.00000     0.00000
     39.7428     56.0335     207.947     1.00099     2.67471
    -99999.0    -99999.0     3547.95    -99999.0    -99999.0
   475.320
    -15.7687     16.0210     1363.91     3242.02     5362.41
     8224.42     9253.06     90.9020     56.0771     46.0294
     112.150     66.6813     55.6310     3.92500    0.491492
     8.14637     122.269   0.0193528   0.0628572    0.183859
     40.1428     56.0424     208.343    0.991388     1.47584
    -99999.0    -99999.0     3547.95    -99999.0    -99999.0
   475.370
    -19.0773     16.0211     1364.86     3247.10     5384.29
     8284.41     9421.16     90.7453     56.0451     46.1983
     112.128     67.3351     56.2352     3.92500    0.504934
     8.17294     122.260     0.00000     0.00000     0.00000
     40.2722     56.0100     208.660    0.991190    0.382220
    -99999.0    -99999.0     3547.95    -99999.0    -99999.0
   475.420
    -20.6336     16.0211     1365.12     3247.05     5387.96
     8336.24     9554.46     90.7092     56.0316     46.2263
     113.844     67.6458     54.8015     3.94243    0.489639
     8.18229     122.230  0.00663107    0.217236     1.18999
     40.2624     56.0213     208.437    0.990889     2.05646
    -99999.0    -99999.0     3547.95    -99999.0    -99999.0
   475.470
    -22.3200     16.0216     1364.90     3252.35     5406.35
     8341.51     9556.22     91.3000     56.3254     46.3665
     113.856     67.6409     54.8121     4.00582    0.492425
     8.17843     122.127     0.00000     0.00000     0.00000
     39.7992     55.9871     207.927    0.999830     3.42700
    -99999.0    -99999.0     3547.95    -99999.0    -99999.0
   475.520
    -23.0336     16.0212     1363.40     3253.78     5422.74
     8374.18     9659.11     91.4677     56.4875     46.4063
     114.568     67.3733     55.4349     4.02500    0.496507
     8.18613     122.093    0.350769     2.78396     5.83569
     40.1264     56.0112     208.406    0.993302     2.94502
    -99999.0     6098.96     3568.69     2.73820    0.238500
   475.570
    -24.3632     16.0206     1364.02     3259.78     5432.29
     8403.07     9748.31     91.9432     56.5681     46.5747
     113.773     68.3639     56.3375     4.00757    0.487110
     8.19045     122.075  0.000192943    0.397082     1.99387
     39.6805     56.0160     207.741     1.00335     1.33061
    -99999.0     6098.96     3641.31     2.73820    0.222132
   475.620
    -22.6268     16.0205     1364.31     3263.29     5435.39
     8427.28     9838.20     92.0146     56.6374     46.4988
     115.502     68.0464     54.7767     3.94418    0.494372
     8.19103     122.134  0.00719622   0.0715385    0.197680
     39.9029     56.0197     208.154    0.997571     2.57968
    -99999.0     6098.96     3634.11     2.73820    0.227319
   475.670
    -20.5200     16.0206     1365.73     3264.66     5435.73
     8429.73     9839.48     92.0108     56.6487     46.4776
     115.496     68.0453     54.7889     3.92500    0.488202
     8.19025     122.168  0.000841336   0.0781470    0.455689
     40.6661     56.0017     209.266    0.981753     2.37368
    -99999.0     6098.96     3617.49     2.73820    0.222791
   475.720
    -22.3065     16.0208     1366.82     3265.71     5435.21
     8448.14     9914.29     92.8369     56.9168     46.6201
     115.099     67.9834     55.5225     3.92500    0.494452
     8.18518     122.407    0.183130    0.734876    0.648425
     39.8225     56.0492     208.023    0.999374     5.90211
    -99999.0     6098.96     3695.83     2.73820    0.213651
   475.770
    -28.6607     16.0208     1366.88     3265.92     5435.92
     8480.53     9982.97     92.7579     56.8020     46.8550
     114.769     68.0297     55.9009     3.92500    0.487218
     8.17820     122.370   0.0677222    0.487366     1.92358
     40.1769     56.0293     208.554    0.992347     3.37900
    -99999.0     6098.96     3706.97     2.73820    0.200912
   475.820
    -34.2552     16.0270     1366.86     3265.30     5439.53
     8494.18     10047.5     93.1594     57.0929     46.7467
     115.706     67.5834     55.3607     3.93081    0.486493
     8.16556     122.209     0.00000     0.00000     0.00000
     40.1832     56.0239     208.505    0.991141     3.39169
    -99999.0     6098.96     3807.79     2.73820    0.184671
   475.870
    -35.5200     16.0288     1366.87     3264.95     5440.20
     8495.35     10048.4     93.2471     57.1562     46.7176
     115.697     67.5939     55.3803     3.94418    0.491704
     8.18060     122.117   0.0196804   0.0888676    0.252772
     40.1189     56.0055     208.419    0.993060     4.10991
    -99999.0     6098.96     3750.00     2.73820    0.194788
   475.920
    -35.5200     16.0288     1366.05     3264.55     5446.64
     8487.81     10099.2     92.9686     57.0838     46.9298
     115.204     68.2200     56.4995     3.93081    0.481891
     8.18677     122.439     0.00000     0.00000     0.00000
     40.6168     56.0159     209.158    0.983512     0.00000
    -99999.0     6212.36     3768.95     2.76790    0.209598
