#------------------------------------------------------------
~VERSION INFORMATION
VERS.               2.0  :CWLS LOG ASCII STANDARD - VERSION 2.0
WRAP.               YES  :MULTIPLE LINES PER DEPTH STEP
#------------------------------------------------------------
~WELL INFORMATION
STRT.M          418.770  :FIRST INDEX VALUE
STOP.M          496.370  :LAST INDEX VALUE
STEP.M        0.0500000  :STEP
NULL.            -99999  :NULL VALUE
COMP.                    :COMPANY
WELL.                    :WELL
FLD.                     :FLD
LOC.                     :LOCATION
SRVC.                    :
CTRY.                    :COUNTRY
STAT.                    :STATE
CNTY.                    :
DATE.                    :DATE
API.                     :API
#------------------------------------------------------------
~CURVE INFORMATION
DEPT.M                   :DEPTH
SP.MV                    :SP
VSPR.V                   :VSPR
SPR.OHM                  :SPR
N8.OHM.M                 :N8
N16.OHM.M                :N16
N32.OHM.M                :N32
N64.OHM.M                :N64
IPLIN161.MV/V            :IPlin161
IPLIN165.MV/V            :IPlin165
IPLIN1610.MV/V           :IPlin1610
IPLIN641.MV/V            :IPlin641
IPLIN645.MV/V            :IPlin645
IPLIN6410.MV/V           :IPlin6410
SPEED.MT/MIN             :Speed
MAG_SUSC.10E-3_SI_UNITS   :Mag Susc
INDUCTION.MS/M           :Induction
IND_RES.OHM-M            :Ind Res
K.%                      :K
U.PPM                    :U
TH.PPM                   :Th
TILT.DEG                 :Tilt
MAGNFIELD.UT             :MagnField
AZIMUTH.DEG              :Azimuth
GRAVITY.G                :Gravity
GR.API                   :GR
CALIPER.CM               :Caliper
VP.M/S                   :Vp
VS.M/S                   :Vs
RHO_ND.                  :rho_ND
POISSON_RATIO.           :Poisson_ratio
#------------------------------------------------------------
~PARAMETER INFORMATION
API_Well_Number_. Yorbeau(Astoria)  :API Well Number:
Acquisition_dates_from_.   :Acquisition dates from:
Acquisition_dates_to_.   :Acquisition dates to:
BIT_FROM1.               :BIT FROM1
BIT_FROM2.               :BIT FROM2
BIT_FROM3.               :BIT FROM3
BIT_FROM4.               :BIT FROM4
BIT_FROM5.               :BIT FROM5
BIT_FROM6.               :BIT FROM6
BIT_TO1.                 :BIT TO1
BIT_TO2.                 :BIT TO2
BIT_TO3.                 :BIT TO3
BIT_TO4.                 :BIT TO4
BIT_TO5.                 :BIT TO5
BIT_TO6.                 :BIT TO6
BIT1.                    :BIT1
BIT2.                    :BIT2
BIT3.                    :BIT3
BIT4.                    :BIT4
BIT5.                    :BIT5
BIT6.                    :BIT6
BTM_LOGGED_INTERVAL.     :BTM LOGGED INTERVAL
CASING_FROM1.            :CASING FROM1
CASING_FROM2.            :CASING FROM2
CASING_FROM3.            :CASING FROM3
CASING_FROM4.            :CASING FROM4
CASING_FROM5.            :CASING FROM5
CASING_FROM6.            :CASING FROM6
CASING_SIZE1.            :CASING SIZE1
CASING_SIZE2.            :CASING SIZE2
CASING_SIZE3.            :CASING SIZE3
CASING_SIZE4.            :CASING SIZE4
CASING_SIZE5.            :CASING SIZE5
CASING_SIZE6.            :CASING SIZE6
CASING_TO1.              :CASING TO1
CASING_TO2.              :CASING TO2
CASING_TO3.              :CASING TO3
CASING_TO4.              :CASING TO4
CASING_TO5.              :CASING TO5
CASING_TO6.              :CASING TO6
CO.                      :CO
CTY.                     :CTY
Country_.        Canada  :Country:
Customer_.  Metal Earth  :Customer:
D_F_.                    :D.F.
DENSITY.                 :DENSITY
DEPTH-DRILLER.           :DEPTH-DRILLER
DEPTH-LOGGER.            :DEPTH-LOGGER
DRILLING_MEAS__FROM.     :DRILLING MEAS. FROM
Depth_unit_.     meters  :Depth unit:
Drilling_measured_from_.   :Drilling measured from:
ELEVATION.               :ELEVATION
FIELD.                   :FIELD
FILING_No.               :FILING No
File_Name_. AS-14-639-petrophysics.WCL  :File Name:
G_L_.                    :G.L.
Height_above_drilling_datum_.   :Height above drilling datum:
Height_above_log_datum_.   :Height above log datum:
K_B_.                    :K.B.
LEVEL.                   :LEVEL
LOG_MEAS__FROM.          :LOG MEAS. FROM
Location_Description_.   :Location Description:
Log_interval_is_from_. 1.36 m  :Log interval is from:
Log_interval_to_. 559.86  :Log interval to:
Log_is_measured_from_. TOP OF COLLAR  :Log is measured from:
MAX__REC__TEMP_.         :MAX. REC. TEMP.
OPERATING_RIG_TIME.      :OPERATING RIG TIME
OTHER_SERVICES.          :OTHER SERVICES
Operator_.      FG, JCD  :Operator:
Other_Services_.         :Other Services:
PERMANENT_DATUM.         :PERMANENT DATUM
Permanent_datum_elevation_#1.   :Permanent datum elevation:#1
Permanent_datum_is_#1. NQ  :Permanent datum is:#1
Permanent_datum_is_#2.   :Permanent datum is:#2
Permanent_datum_is_#3.   :Permanent datum is:#3
Permanent_datum_is__.    :Permanent datum is::
Print_type_is_.          :Print type is:
RECORDED_BY.             :RECORDED BY
RGE.                     :RGE
RUN_No.                  :RUN No
RUN1.                    :RUN1
RUN2.                    :RUN2
RUN3.                    :RUN3
RUN4.                    :RUN4
RUN5.                    :RUN5
RUN6.                    :RUN6
SALINITY.                :SALINITY
SEC.                     :SEC
STE.                     :STE
Scale_ratio_.            :Scale ratio:
Scaled_depth_is_.        :Scaled depth is:
Service_Company_. Université Laval  :Service Company:
State_/_Province_.   QC  :State / Province:
TITLE.                   :TITLE
TOP_LOGGED_INTERVAL.     :TOP LOGGED INTERVAL
TWP.                     :TWP
TYPE_FLUID_IN_HOLE.      :TYPE FLUID IN HOLE
TYPE_LOG.                :TYPE LOG
WELL_ID.                 :WELL ID
WGT1.                    :WGT1
WGT2.                    :WGT2
WGT3.                    :WGT3
WGT4.                    :WGT4
WGT5.                    :WGT5
WGT6.                    :WGT6
WITNESSED_BY.            :WITNESSED BY
Well_Name_.   AS-14-639  :Well Name:
#------------------------------------------------------------
~OTHER
#------------------------------------------------------------
~A
# ...
   439.670
     59.2313     16.0268     1384.27     3213.02     5230.69
     7654.87     7842.08     87.1135     51.1723     40.7266
     108.572     60.6875     49.1442     4.06162    0.516631
     8.34814     119.365     0.00000     0.00000     0.00000
     40.1098     55.8555     209.410    0.983575     0.00000
    -99999.0     5814.40     2868.11     2.67934    0.339177
   439.720
     56.2800     16.0268     1384.45     3237.12     5238.14
     7666.05     7843.78     87.1518     51.2297     40.7190
     108.584     60.6875     49.1439     4.10000    0.510651
     8.36843     119.624   0.0314337    0.500749     1.23321
     39.2146     55.8377     208.183     1.00236    0.403519
    -99999.0     5929.37     2884.62     2.70192    0.345089
   439.770
     55.0313     16.0269     1385.42     3254.05     5267.65
     7759.42     7942.82     87.2240     51.2688     40.8545
     109.294     60.7099     49.1500     4.08837    0.506260
     8.37472     119.995    0.316663     1.65605     1.66369
     39.5764     55.8263     208.865    0.994129     1.34996
    -99999.0     6000.00     2907.20     2.71545    0.345790
   439.820
     52.4368     16.0270     1389.58     3256.99     5302.40
     7868.50     8043.68     87.3185     51.3096     41.0965
     109.464     62.1604     50.3212     4.05000    0.503938
     8.33886     120.219     0.00000     0.00000     0.00000
     39.5202     55.8350     208.710    0.995814     0.00000
    -99999.0     6000.00     2964.65     2.71670    0.338426
   439.870
     53.2800     16.0271     1391.16     3263.24     5341.29
     7962.99     8132.85     87.9487     51.6920     41.3828
     109.987     61.1350     49.8014     4.03837    0.484946
     8.32353     119.952     0.00000     0.00000     0.00000
     39.5858     55.8043     208.686    0.994513     1.59842
    -99999.0     5953.03     2976.51     2.70554    0.333731
   439.920
     52.3881     16.0271     1391.30     3275.25     5347.76
     7972.55     8134.23     88.0689     51.7655     41.4305
     109.976     61.1627     49.8143     4.00000    0.488066
     8.32361     119.761   0.0610517    0.636325     1.72280
     39.3000     55.8100     208.300    0.999000    0.452281
    -99999.0     5929.33     2929.78     2.70430    0.338966
   439.970
     50.2800     16.0275     1389.88     3287.94     5382.51
     8024.54     8215.60     87.9765     51.8644     41.4260
     109.351     62.8035     50.5673     4.00582    0.498521
     8.35047     120.119    0.235216   0.0754850    0.625998
     39.7773     55.8282     209.112    0.989046    0.698528
    -99999.0     6000.00     2912.62     2.71546    0.345269
   440.020
     49.9232     16.0339     1390.18     3290.49     5418.14
     8082.80     8314.77     87.4329     51.7805     41.6709
     111.653     62.2719     49.5243     4.02500    0.480063
     8.33822     120.347     0.00000     0.00000     0.00000
     39.4669     55.8099     208.567    0.995360     0.00000
    -99999.0     5953.03     2947.51     2.70555    0.336097
   440.070
     48.9016     16.0354     1391.03     3298.43     5444.06
     8121.69     8412.41     87.8070     51.8762     41.5341
     110.217     61.6634     50.4981     4.02500    0.483055
     8.31027     120.418     0.00000     0.00000     0.00000
     39.3553     55.8396     208.606    0.998243     0.00000
    -99999.0     5837.21     2976.53     2.68290    0.325378
   440.120
     48.8373     16.0354     1391.21     3308.75     5448.03
     8125.47     8497.66     87.9003     51.8989     41.4980
     110.763     62.8451     49.7180     4.02500    0.489981
     8.30653     120.374    0.137541    0.147065   0.0104232
     39.2541     55.8595     208.284     1.00098     1.38472
    -99999.0     5814.40     2952.80     2.68050    0.326370
   440.170
     49.6800     16.0291     1391.43     3314.46     5453.02
     8144.46     8498.94     87.5834     51.9105     41.6049
     110.782     62.8403     49.7317     4.02500    0.519186
     8.30462     120.181     0.00000     0.00000     0.00000
     39.8027     55.8481     209.144    0.988363     0.00000
    -99999.0     5837.19     2958.67     2.68050    0.326600
   440.220
     49.8586     16.0270     1392.83     3315.38     5449.41
     8170.47     8573.66     87.9652     52.1308     41.8517
     111.879     62.5594     50.5524     4.02500    0.515137
     8.31527     120.032     0.00000     0.00000     0.00000
     39.3183     55.8296     208.237     1.00003     0.00000
    -99999.0     5769.23     2952.81     2.67015    0.322461
   440.270
     50.2800     16.0258     1393.79     3309.60     5440.36
     8171.66     8632.88     88.6501     52.1659     41.9376
     111.200     62.8207     50.6840     4.01919    0.511976
     8.32877     119.573     0.00000     0.00000     0.00000
     39.7243     55.8049     208.936    0.992435     1.51730
    -99999.0     5725.77     2970.30     2.65947    0.315525
   440.320
     50.1016     16.0255     1393.96     3302.81     5438.77
     8171.48     8699.54     88.7671     52.1645     41.9458
     112.423     62.8697     50.4297     4.00000    0.502108
     8.34730     119.532     0.00000     0.00000     0.00000
     39.4882     55.8372     208.588    0.996019     0.00000
    -99999.0     5660.38     3086.24     2.64896    0.284225
   440.370
     49.6800     16.0252     1393.04     3292.11     5427.06
     8164.59     8700.66     88.1816     52.1919     42.0145
     112.439     62.8683     50.4592     4.02326    0.532418
     8.37368     119.789     0.00000     0.00000     0.00000
     39.5062     55.8300     208.794    0.996120     0.00000
    -99999.0     5660.38     3304.76     2.64790    0.242645
   440.420
     48.6097     16.0317     1393.41     3289.74     5409.80
     8161.14     8766.00     88.5640     52.4345     42.2483
     113.369     62.8044     52.1654     4.10000    0.546218
     8.35323     119.485     0.00000     0.00000     0.00000
     39.8757     55.8478     209.154    0.987492     0.00000
    -99999.0     5660.38     3341.21     2.64790    0.234713
   440.470
     46.2586     16.0336     1392.70     3282.33     5387.75
     8146.03     8815.20     88.9139     52.4476     42.2959
     112.033     63.6565     52.3548     4.10000    0.549315
     8.35481     119.278     0.00000     0.00000     0.00000
     39.7520     55.8551     209.103    0.988553    0.187441
    -99999.0     5660.38     3326.31     2.64790    0.234300
   440.520
     46.5016     16.0336     1392.44     3279.61     5384.03
     8135.24     8862.19     88.9631     52.4412     42.2967
     113.848     63.4967     50.7411     4.09418    0.556572
     8.38437     119.797     0.00000     0.00000     0.00000
     39.4266     55.8235     208.535    0.994704    0.308437
    -99999.0     5660.38     3370.79     2.64790    0.226206
   440.570
     45.1881     16.0273     1391.33     3273.25     5366.03
     8134.20     8862.84     88.7569     52.6594     42.4329
     113.854     63.5080     50.7641     4.06338    0.527946
     8.36668     120.258     0.00000     0.00000     0.00000
     39.4797     55.8414     208.839    0.993962     0.00000
    -99999.0     5660.38     3417.71     2.64790    0.211092
   440.620
     43.0800     16.0256     1391.87     3271.68     5357.45
     8112.43     8902.20     89.4818     52.7776     42.4885
     114.225     64.1736     52.1345     4.02500    0.509099
     8.32161     120.126     0.00000     0.00000     0.00000
     39.2819     55.8223     208.273    0.999776    0.376932
    -99999.0     5703.84     3472.36     2.65735    0.208150
   440.670
     43.2584     16.0257     1391.50     3267.34     5357.38
     8071.11     8932.79     89.2615     52.6527     42.5593
     113.632     63.8676     52.0460     4.02500    0.526169
     8.31609     120.114     0.00000     0.00000     0.00000
     39.6534     55.8323     208.830    0.992584     0.00000
    -99999.0     5769.23     3448.28     2.66793    0.220681
   440.720
     42.4295     16.0257     1391.32     3267.15     5353.20
     8056.02     8967.32     89.4354     52.8248     42.5646
     113.960     63.9286     51.8907     4.02500    0.517578
     8.32991     119.723     0.00000     0.00000     0.00000
     39.8370     55.8300     208.983    0.988901     0.00000
    -99999.0     5814.44     3464.30     2.67935    0.225070
