#------------------------------------------------------------
~VERSION INFORMATION
VERS.               2.0  :CWLS LOG ASCII STANDARD - VERSION 2.0
WRAP.               YES  :MULTIPLE LINES PER DEPTH STEP
#------------------------------------------------------------
~WELL INFORMATION
STRT.M          418.770  :FIRST INDEX VALUE
STOP.M          496.370  :LAST INDEX VALUE
STEP.M        0.0500000  :STEP
NULL.            -99999  :NULL VALUE
COMP.                    :COMPANY
WELL.                    :WELL
FLD.                     :FLD
LOC.                     :LOCATION
SRVC.                    :
CTRY.                    :COUNTRY
STAT.                    :STATE
CNTY.                    :
DATE.                    :DATE
API.                     :API
#------------------------------------------------------------
~CURVE INFORMATION
DEPT.M                   :DEPTH
SP.MV                    :SP
VSPR.V                   :VSPR
SPR.OHM                  :SPR
N8.OHM.M                 :N8
N16.OHM.M                :N16
N32.OHM.M                :N32
N64.OHM.M                :N64
IPLIN161.MV/V            :IPlin161
IPLIN165.MV/V            :IPlin165
IPLIN1610.MV/V           :IPlin1610
IPLIN641.MV/V            :IPlin641
IPLIN645.MV/V            :IPlin645
IPLIN6410.MV/V           :IPlin6410
SPEED.MT/MIN             :Speed
MAG_SUSC.10E-3_SI_UNITS   :Mag Susc
INDUCTION.MS/M           :Induction
IND_RES.OHM-M            :Ind Res
K.%                      :K
U.PPM                    :U
TH.PPM                   :Th
TILT.DEG                 :Tilt
MAGNFIELD.UT             :MagnField
AZIMUTH.DEG              :Azimuth
GRAVITY.G                :Gravity
GR.API                   :GR
CALIPER.CM               :Caliper
VP.M/S                   :Vp
VS.M/S                   :Vs
RHO_ND.                  :rho_ND
POISSON_RATIO.           :Poisson_ratio
#------------------------------------------------------------
~PARAMETER INFORMATION
API_Well_Number_. Yorbeau(Astoria)  :API Well Number:
Acquisition_dates_from_.   :Acquisition dates from:
Acquisition_dates_to_.   :Acquisition dates to:
BIT_FROM1.               :BIT FROM1
BIT_FROM2.               :BIT FROM2
BIT_FROM3.               :BIT FROM3
BIT_FROM4.               :BIT FROM4
BIT_FROM5.               :BIT FROM5
BIT_FROM6.               :BIT FROM6
BIT_TO1.                 :BIT TO1
BIT_TO2.                 :BIT TO2
BIT_TO3.                 :BIT TO3
BIT_TO4.                 :BIT TO4
BIT_TO5.                 :BIT TO5
BIT_TO6.                 :BIT TO6
BIT1.                    :BIT1
BIT2.                    :BIT2
BIT3.                    :BIT3
BIT4.                    :BIT4
BIT5.                    :BIT5
BIT6.                    :BIT6
BTM_LOGGED_INTERVAL.     :BTM LOGGED INTERVAL
CASING_FROM1.            :CASING FROM1
CASING_FROM2.            :CASING FROM2
CASING_FROM3.            :CASING FROM3
CASING_FROM4.            :CASING FROM4
CASING_FROM5.            :CASING FROM5
CASING_FROM6.            :CASING FROM6
CASING_SIZE1.            :CASING SIZE1
CASING_SIZE2.            :CASING SIZE2
CASING_SIZE3.            :CASING SIZE3
CASING_SIZE4.            :CASING SIZE4
CASING_SIZE5.            :CASING SIZE5
CASING_SIZE6.            :CASING SIZE6
CASING_TO1.              :CASING TO1
CASING_TO2.              :CASING TO2
CASING_TO3.              :CASING TO3
CASING_TO4.              :CASING TO4
CASING_TO5.              :CASING TO5
CASING_TO6.              :CASING TO6
CO.                      :CO
CTY.                     :CTY
Country_.        Canada  :Country:
Customer_.  Metal Earth  :Customer:
D_F_.                    :D.F.
DENSITY.                 :DENSITY
DEPTH-DRILLER.           :DEPTH-DRILLER
DEPTH-LOGGER.            :DEPTH-LOGGER
DRILLING_MEAS__FROM.     :DRILLING MEAS. FROM
Depth_unit_.     meters  :Depth unit:
Drilling_measured_from_.   :Drilling measured from:
ELEVATION.               :ELEVATION
FIELD.                   :FIELD
FILING_No.               :FILING No
File_Name_. AS-14-639-petrophysics.WCL  :File Name:
G_L_.                    :G.L.
Height_above_drilling_datum_.   :Height above drilling datum:
Height_above_log_datum_.   :Height above log datum:
K_B_.                    :K.B.
LEVEL.                   :LEVEL
LOG_MEAS__FROM.          :LOG MEAS. FROM
Location_Description_.   :Location Description:
Log_interval_is_from_. 1.36 m  :Log interval is from:
Log_interval_to_. 559.86  :Log interval to:
Log_is_measured_from_. TOP OF COLLAR  :Log is measured from:
MAX__REC__TEMP_.         :MAX. REC. TEMP.
OPERATING_RIG_TIME.      :OPERATING RIG TIME
OTHER_SERVICES.          :OTHER SERVICES
Operator_.      FG, JCD  :Operator:
Other_Services_.         :Other Services:
PERMANENT_DATUM.         :PERMANENT DATUM
Permanent_datum_elevation_#1.   :Permanent datum elevation:#1
Permanent_datum_is_#1. NQ  :Permanent datum is:#1
Permanent_datum_is_#2.   :Permanent datum is:#2
Permanent_datum_is_#3.   :Permanent datum is:#3
Permanent_datum_is__.    :Permanent datum is::
Print_type_is_.          :Print type is:
RECORDED_BY.             :RECORDED BY
RGE.                     :RGE
RUN_No.                  :RUN No
RUN1.                    :RUN1
RUN2.                    :RUN2
RUN3.                    :RUN3
RUN4.                    :RUN4
RUN5.                    :RUN5
RUN6.                    :RUN6
SALINITY.                :SALINITY
SEC.                     :SEC
STE.                     :STE
Scale_ratio_.            :Scale ratio:
Scaled_depth_is_.        :Scaled depth is:
Service_Company_. Université Laval  :Service Company:
State_/_Province_.   QC  :State / Province:
TITLE.                   :TITLE
TOP_LOGGED_INTERVAL.     :TOP LOGGED INTERVAL
TWP.                     :TWP
TYPE_FLUID_IN_HOLE.      :TYPE FLUID IN HOLE
TYPE_LOG.                :TYPE LOG
WELL_ID.                 :WELL ID
WGT1.                    :WGT1
WGT2.                    :WGT2
WGT3.                    :WGT3
WGT4.                    :WGT4
WGT5.                    :WGT5
WGT6.                    :WGT6
WITNESSED_BY.            :WITNESSED BY
Well_Name_.   AS-14-639  :Well Name:
#------------------------------------------------------------
~OTHER
#------------------------------------------------------------
~A
# ...
   428.670
     118.259     16.0202     1314.28     2959.23     4651.30
     6424.19     5757.93     79.8899     45.3847     33.7257
     100.921     53.7025     42.9487     4.06162     2.30017
     3.68109     685.881   0.0606112    0.515228    0.824844
     39.3900     56.4587     208.190    0.996477     1.38799
    -99999.0     5172.41     2608.70     2.56274    0.329790
   428.720
     119.752     16.0200     1313.46     2953.73     4640.79
     6422.63     5844.91     80.3273     45.5974     33.6443
     98.4573     55.9789     42.7774     4.10000     1.61242
     1.45274     195.409     0.00000     0.00000     0.00000
     39.4587     55.9489     207.553    0.995762     0.00000
    -99999.0     5137.36     2608.70     2.55570    0.325800
   428.770
     122.280     16.0196     1310.90     2952.41     4628.63
     6400.38     5924.10     80.0511     45.3260     34.0211
     101.412     54.7555     38.6252     4.09418     1.31365
     4.58270     108.545     0.00000     0.00000     0.00000
     39.6803     55.6338     208.380    0.990297    0.167723
    -99999.0     5084.75     2608.70     2.54870    0.321803
   428.820
     123.529     16.0197     1307.50     2939.68     4626.66
     6397.87     5925.33     79.9807     45.2651     34.0975
     101.381     54.7341     38.6672     4.08082    0.718666
     8.65769     113.034     0.00000     0.00000     0.00000
     39.2193     55.7269     208.219    0.999922    0.986178
    -99999.0     5084.75     2636.58     2.54800    0.315375
   428.870
     126.480     16.0197     1306.71     2922.88     4609.96
     6391.43     5999.73     80.0208     45.7734     34.1366
     99.5291     53.4840     41.1776     4.10000    0.221002
     9.50634     119.763  0.000338811   0.0292689    0.188470
     39.5402     56.1120     208.452    0.993621     1.36997
    -99999.0     5084.75     2669.11     2.54800    0.310741
   428.920
     127.016     16.0206     1304.25     2919.44     4580.24
     6386.52     6060.70     80.6098     46.2353     34.5840
     99.7128     55.0396     41.4729     4.10000    0.143487
     8.31639     123.261     0.00000     0.00000     0.00000
     39.3723     56.3028     208.861    0.996677     0.00000
    -99999.0     5084.75     2673.97     2.54800    0.308140
   428.970
     128.280     16.0220     1303.74     2913.24     4552.15
     6379.45     6112.52     80.6308     45.7953     34.2935
     101.025     54.4244     40.0985     4.10000    0.201511
     8.26234     119.716     0.00000     0.00000     0.00000
     39.3056     56.3756     208.280    0.998528     1.37324
    -99999.0     5084.75     2683.57     2.54800    0.307900
   429.020
     129.350     16.0224     1303.80     2909.06     4547.69
     6378.69     6113.21     80.6127     45.6958     34.2202
     101.030     54.4465     40.1243     4.10000    0.238506
     8.14789     117.123     0.00000     0.00000     0.00000
     39.4846     56.3085     207.410    0.994696     0.00000
    -99999.0     5084.75     2636.42     2.54800    0.316084
   429.070
     130.988     16.0234     1308.16     2908.67     4540.74
     6385.59     6153.23     80.6443     46.0832     34.5720
     101.313     55.7399     41.6577     4.11744    0.265788
     8.57036     124.976    0.119907     2.13845     4.82090
     39.3237     55.3470     207.523    0.997950     1.37568
    -99999.0     5119.73     2627.12     2.55429    0.320867
   429.120
     128.880     16.0243     1313.65     2908.75     4547.98
     6387.24     6172.35     80.8537     46.5282     34.9917
     99.9492     54.3690     41.2887     4.17500    0.299605
     8.27897     131.737   0.0304016    0.118984    0.378661
     39.8004     55.4774     208.446    0.987246    0.307687
    -99999.0     5208.65     2664.33     2.56796    0.323010
   429.170
     127.808     16.0247     1317.23     2925.24     4572.08
     6398.58     6168.46     80.8238     46.3596     34.7040
     101.180     56.1027     39.8976     4.16919    0.320380
     7.66986     132.120     0.00000     0.00000     0.00000
     39.9191     56.0014     208.665    0.985626    0.841538
    -99999.0     5263.16     2678.57     2.57615    0.325000
   429.220
     124.208     16.0247     1317.91     2949.87     4576.47
     6399.88     6168.17     80.8102     46.3126     34.6343
     101.217     56.1124     39.9204     4.13256    0.321300
     7.53676     130.705    0.356537    0.230602     1.09107
     39.4774     55.7306     206.455    0.995858     1.37995
    -99999.0     5263.16     2718.24     2.57690    0.317011
   429.270
     121.323     16.0249     1321.18     2971.19     4612.48
     6430.71     6151.99     81.2457     46.2545     35.1062
     103.341     56.6722     41.2708     4.07500    0.324499
     7.62582     129.424     0.00000     0.00000     0.00000
     39.8617     55.8350     208.860    0.987692     0.00000
    -99999.0     5263.16     2747.78     2.57690    0.314121
   429.320
     120.480     16.0249     1324.08     2975.30     4663.38
     6461.87     6153.19     81.4875     46.5749     35.1729
     103.367     56.7303     43.3816     4.06919    0.344050
     7.70056     128.157     0.00000     0.00000     0.00000
     39.5763     55.6642     208.729    0.993844     0.00000
    -99999.0     5300.66     2712.51     2.58409    0.322083
   429.370
     120.122     16.0249     1325.90     2991.34     4713.51
     6505.20     6149.28     81.1948     46.4369     34.6330
     103.378     58.3840     39.4536     4.05583    0.350174
     7.77723     126.688    0.372309     3.96363     10.6760
     39.3399     55.6509     207.610    0.998812     2.80382
    -99999.0     5396.03     2737.26     2.59975    0.326690
   429.420
     116.600     16.0249     1326.26     3005.12     4721.60
     6509.79     6148.94     81.1316     46.3973     34.5284
     103.452     58.4139     39.4294     4.07500    0.372117
     7.86004     125.615     0.00000     0.00000     0.00000
     39.8286     55.8114     208.757    0.987214     1.16123
    -99999.0     5454.55     2742.30     2.60905    0.330879
   429.470
     108.851     16.0248     1328.11     3018.18     4754.80
     6573.81     6129.36     81.5415     46.4051     34.9311
     107.649     60.0708     38.0951     4.07500    0.386745
     7.94432     124.448     0.00000     0.00000     0.00000
     39.4000     55.8200     208.300    0.996600    0.464773
    -99999.0     5454.55     2727.27     2.60990    0.333100
   429.520
     105.480     16.0245     1329.88     3020.87     4786.47
     6636.50     6124.33     81.4621     46.5713     35.1100
     104.113     56.2566     41.6172     4.06919    0.395621
     8.00509     123.728    0.157223    0.560269    0.988948
     38.8515     55.7966     207.586     1.00857     1.41101
    -99999.0     5454.55     2747.46     2.60990    0.329523
   429.570
     105.480     16.0308     1333.01     3033.45     4808.25
     6666.16     6117.94     81.3411     46.4655     34.8858
     104.833     57.9338     42.6802     4.06163    0.408204
     8.07495     122.891     0.00000     0.00000     0.00000
     39.4283     55.7300     208.327    0.996432     1.35934
    -99999.0     5415.68     2767.61     2.60226    0.323435
   429.620
     104.407     16.0326     1333.81     3041.13     4811.54
     6668.83     6118.16     81.3235     46.4385     34.8381
     104.855     57.9336     42.6365     4.09417    0.426516
     8.11206     121.709     0.00000     0.00000     0.00000
     39.5659     55.7155     208.472    0.994459     0.00000
    -99999.0     5396.03     2742.30     2.60140    0.326579
   429.670
     100.987     16.0327     1335.49     3042.00     4817.79
     6681.33     6131.64     81.4560     46.6024     35.0167
     106.058     57.8552     40.2077     4.07500    0.439498
     8.18871     121.279     0.00000     0.00000     0.00000
     39.3064     55.7265     208.013    0.999822     0.00000
    -99999.0     5494.88     2757.80     2.61724    0.330779
   429.720
     98.8800     16.0264     1333.18     3041.93     4817.65
     6707.27     6184.09     81.5884     46.5269     35.0924
     103.134     54.0625     45.1434     4.07500    0.442825
     8.24597     120.751     0.00000     0.00000     0.00000
     39.3610     55.7500     207.961    0.996860     1.55678
    -99999.0     5476.21     2803.74     2.61135    0.321391
