#------------------------------------------------------------
~VERSION INFORMATION
VERS.               2.0  :CWLS LOG ASCII STANDARD - VERSION 2.0
WRAP.               YES  :MULTIPLE LINES PER DEPTH STEP
#------------------------------------------------------------
~WELL INFORMATION
STRT.M          418.770  :FIRST INDEX VALUE
STOP.M          496.370  :LAST INDEX VALUE
STEP.M        0.0500000  :STEP
NULL.            -99999  :NULL VALUE
COMP.                    :COMPANY
WELL.                    :WELL
FLD.                     :FLD
LOC.                     :LOCATION
SRVC.                    :
CTRY.                    :COUNTRY
STAT.                    :STATE
CNTY.                    :
DATE.                    :DATE
API.                     :API
#------------------------------------------------------------
~CURVE INFORMATION
DEPT.M                   :DEPTH
SP.MV                    :SP
VSPR.V                   :VSPR
SPR.OHM                  :SPR
N8.OHM.M                 :N8
N16.OHM.M                :N16
N32.OHM.M                :N32
N64.OHM.M                :N64
IPLIN161.MV/V            :IPlin161
IPLIN165.MV/V            :IPlin165
IPLIN1610.MV/V           :IPlin1610
IPLIN641.MV/V            :IPlin641
IPLIN645.MV/V            :IPlin645
IPLIN6410.MV/V           :IPlin6410
SPEED.MT/MIN             :Speed
MAG_SUSC.10E-3_SI_UNITS   :Mag Susc
INDUCTION.MS/M           :Induction
IND_RES.OHM-M            :Ind Res
K.%                      :K
U.PPM                    :U
TH.PPM                   :Th
TILT.DEG                 :Tilt
MAGNFIELD.UT             :MagnField
AZIMUTH.DEG              :Azimuth
GRAVITY.G                :Gravity
GR.API                   :GR
CALIPER.CM               :Caliper
VP.M/S                   :Vp
VS.M/S                   :Vs
RHO_ND.                  :rho_ND
POISSON_RATIO.           :Poisson_ratio
#------------------------------------------------------------
~PARAMETER INFORMATION
API_Well_Number_. Yorbeau(Astoria)  :API Well Number:
Acquisition_dates_from_.   :Acquisition dates from:
Acquisition_dates_to_.   :Acquisition dates to:
BIT_FROM1.               :BIT FROM1
BIT_FROM2.               :BIT FROM2
BIT_FROM3.               :BIT FROM3
BIT_FROM4.               :BIT FROM4
BIT_FROM5.               :BIT FROM5
BIT_FROM6.               :BIT FROM6
BIT_TO1.                 :BIT TO1
BIT_TO2.                 :BIT TO2
BIT_TO3.                 :BIT TO3
BIT_TO4.                 :BIT TO4
BIT_TO5.                 :BIT TO5
BIT_TO6.                 :BIT TO6
BIT1.                    :BIT1
BIT2.                    :BIT2
BIT3.                    :BIT3
BIT4.                    :BIT4
BIT5.                    :BIT5
BIT6.                    :BIT6
BTM_LOGGED_INTERVAL.     :BTM LOGGED INTERVAL
CASING_FROM1.            :CASING FROM1
CASING_FROM2.            :CASING FROM2
CASING_FROM3.            :CASING FROM3
CASING_FROM4.            :CASING FROM4
CASING_FROM5.            :CASING FROM5
CASING_FROM6.            :CASING FROM6
CASING_SIZE1.            :CASING SIZE1
CASING_SIZE2.            :CASING SIZE2
CASING_SIZE3.            :CASING SIZE3
CASING_SIZE4.            :CASING SIZE4
CASING_SIZE5.            :CASING SIZE5
CASING_SIZE6.            :CASING SIZE6
CASING_TO1.              :CASING TO1
CASING_TO2.              :CASING TO2
CASING_TO3.              :CASING TO3
CASING_TO4.              :CASING TO4
CASING_TO5.              :CASING TO5
CASING_TO6.              :CASING TO6
CO.                      :CO
CTY.                     :CTY
Country_.        Canada  :Country:
Customer_.  Metal Earth  :Customer:
D_F_.                    :D.F.
DENSITY.                 :DENSITY
DEPTH-DRILLER.           :DEPTH-DRILLER
DEPTH-LOGGER.            :DEPTH-LOGGER
DRILLING_MEAS__FROM.     :DRILLING MEAS. FROM
Depth_unit_.     meters  :Depth unit:
Drilling_measured_from_.   :Drilling measured from:
ELEVATION.               :ELEVATION
FIELD.                   :FIELD
FILING_No.               :FILING No
File_Name_. AS-14-639-petrophysics.WCL  :File Name:
G_L_.                    :G.L.
Height_above_drilling_datum_.   :Height above drilling datum:
Height_above_log_datum_.   :Height above log datum:
K_B_.                    :K.B.
LEVEL.                   :LEVEL
LOG_MEAS__FROM.          :LOG MEAS. FROM
Location_Description_.   :Location Description:
Log_interval_is_from_. 1.36 m  :Log interval is from:
Log_interval_to_. 559.86  :Log interval to:
Log_is_measured_from_. TOP OF COLLAR  :Log is measured from:
MAX__REC__TEMP_.         :MAX. REC. TEMP.
OPERATING_RIG_TIME.      :OPERATING RIG TIME
OTHER_SERVICES.          :OTHER SERVICES
Operator_.      FG, JCD  :Operator:
Other_Services_.         :Other Services:
PERMANENT_DATUM.         :PERMANENT DATUM
Permanent_datum_elevation_#1.   :Permanent datum elevation:#1
Permanent_datum_is_#1. NQ  :Permanent datum is:#1
Permanent_datum_is_#2.   :Permanent datum is:#2
Permanent_datum_is_#3.   :Permanent datum is:#3
Permanent_datum_is__.    :Permanent datum is::
Print_type_is_.          :Print type is:
RECORDED_BY.             :RECORDED BY
RGE.                     :RGE
RUN_No.                  :RUN No
RUN1.                    :RUN1
RUN2.                    :RUN2
RUN3.                    :RUN3
RUN4.                    :RUN4
RUN5.                    :RUN5
RUN6.                    :RUN6
SALINITY.                :SALINITY
SEC.                     :SEC
STE.                     :STE
Scale_ratio_.            :Scale ratio:
Scaled_depth_is_.        :Scaled depth is:
Service_Company_. Université Laval  :Service Company:
State_/_Province_.   QC  :State / Province:
TITLE.                   :TITLE
TOP_LOGGED_INTERVAL.     :TOP LOGGED INTERVAL
TWP.                     :TWP
TYPE_FLUID_IN_HOLE.      :TYPE FLUID IN HOLE
TYPE_LOG.                :TYPE LOG
WELL_ID.                 :WELL ID
WGT1.                    :WGT1
WGT2.                    :WGT2
WGT3.                    :WGT3
WGT4.                    :WGT4
WGT5.                    :WGT5
WGT6.                    :WGT6
WITNESSED_BY.            :WITNESSED BY
Well_Name_.   AS-14-639  :Well Name:
#------------------------------------------------------------
~OTHER
#------------------------------------------------------------
~A
# ...
   470.470
     20.8800     16.0135     1355.14     3234.25     5348.64
     8144.90     9422.15     91.1948     55.5741     44.7824
     115.947     67.2897     54.5458     3.95000    0.449014
     8.21319     121.142    0.272084     2.27364     1.53602
     39.8495     55.8798     208.200    0.996459     20.2752
    -99999.0     5882.35     3571.43     2.69190    0.208100
   470.520
     21.9503     16.0134     1354.59     3223.99     5343.55
     8137.63     9421.79     91.3245     55.5794     44.7880
     115.954     67.2933     54.5500     3.94418    0.450813
     8.25149     121.437     2.18031     4.62838     4.96542
     39.7697     55.8765     208.040     1.00024     18.3394
    -99999.0     5929.33     3571.43     2.70305    0.216014
   470.570
     25.1936     16.0131     1351.98     3204.79     5307.72
     8056.11     9400.25     91.3410     55.5878     44.9621
     116.291     67.4873     54.8160     3.92500    0.444736
     8.24741     122.526    0.125343     2.13460   0.0891708
     40.0809     55.8819     208.743    0.991458     15.6426
    -99999.0     6000.00     3571.43     2.71545    0.224724
   470.620
     25.9868     16.0193     1350.64     3200.49     5255.27
     7958.71     9370.43     90.2620     55.5319     44.8501
     114.274     66.5118     55.6826     3.94244    0.422859
     8.19367     122.674    0.394406    0.702482     2.24877
     39.4262     55.8793     207.933     1.00338     13.0357
    -99999.0     6048.89     3588.61     2.72876    0.228750
   470.670
     23.8800     16.0211     1349.52     3173.89     5191.08
     7882.01     9347.82     90.4525     55.5634     44.8125
     114.647     67.3648     53.9289     4.01743    0.427278
     8.13856     122.234    0.298337     1.01990     4.06310
     39.8875     55.8975     208.450    0.994314     13.6401
    -99999.0     6073.56     3632.06     2.73010    0.219381
   470.720
     24.0586     16.0211     1349.25     3144.28     5180.26
     7874.35     9347.54     90.5312     55.5718     44.8108
     114.664     67.3602     53.9543     4.05174    0.458576
     8.17289     122.000     1.26514    0.994734     5.44428
     39.9135     55.8728     208.414    0.996027     17.2184
    -99999.0     6048.94     3658.54     2.73010    0.213710
   470.770
     25.0152     16.0156     1345.87     3123.76     5128.39
     7812.71     9331.18     90.7113     55.5863     45.2354
     115.619     67.0827     55.4278     3.97500    0.468400
     8.19303     122.068    0.851807    0.680056     1.39091
     39.8794     55.8800     208.179    0.998421     19.6143
    -99999.0     6173.38     3658.54     2.75519    0.229028
   470.820
     25.2097     16.0148     1344.08     3120.01     5076.22
     7752.53     9304.24     90.2734     55.6677     45.2424
     114.251     66.4465     55.9588     3.96919    0.427060
     8.19679     123.053    0.625795     1.33870     3.57479
     40.0000     55.8580     208.440    0.992863     28.8059
    -99999.0     6250.00     3658.54     2.77104    0.238534
   470.870
     22.6800     16.0153     1346.35     3107.34     5039.36
     7717.86     9276.27     90.5298     55.7044     45.1712
     114.681     67.1100     55.4392     3.94418    0.386324
     8.15928     123.746    0.529697     2.29988     1.56145
     39.7971     55.8900     208.197    0.997915     12.6457
    -99999.0     6250.00     3676.57     2.77250    0.234901
   470.920
     20.8961     16.0154     1347.07     3099.86     5033.78
     7714.58     9275.78     90.5980     55.7086     45.1602
     114.703     67.1204     55.4428     3.93081    0.387992
     8.08685     123.731     3.36785     29.7369     76.7200
     39.6425     55.8400     207.968     1.00185     14.4641
    -99999.0     6150.18     3703.70     2.74739    0.213163
   470.970
     15.4295     16.0160     1349.66     3110.29     5027.22
     7689.48     9246.94     90.6986     55.7636     45.5392
     115.983     67.7226     55.6846     3.95000    0.386146
     8.07819     123.705    0.411000    0.435512     1.84385
     40.2634     55.8322     208.749    0.989674     12.8927
    -99999.0     5952.98     3703.70     2.70833    0.184792
   471.020
     10.6961     16.0169     1351.84     3113.22     5042.02
     7675.78     9222.81     90.0222     55.4823     45.4299
     114.028     66.6260     57.2764     3.95000    0.372841
     8.08508     123.109    0.710892     1.43206     3.03738
     39.6925     55.8754     208.016     1.00149     18.5691
    -99999.0     5978.22     3722.19     2.71635    0.185317
   471.070
     6.48000     16.0181     1353.92     3126.59     5081.74
     7686.97     9226.51     90.2934     55.4502     45.2887
     115.092     67.6802     55.7701     3.95000    0.345190
     8.10115     123.121    0.346172     4.87373     12.4060
     40.0613     55.8584     208.361    0.994052     22.5273
    -99999.0     6122.45     3750.00    -99999.0    -99999.0
   471.120
     4.87219     16.0184     1354.41     3143.16     5088.89
     7688.40     9226.66     90.3731     55.4550     45.2681
     115.110     67.6880     55.7726     3.95000    0.334502
     8.13529     123.965    0.687553     6.35830     9.28350
     39.9075     55.8619     208.234    0.997469     17.0748
    -99999.0    -99999.0     3788.39    -99999.0    -99999.0
   471.170
   -0.703883     16.0195     1355.81     3165.55     5133.37
     7711.43     9234.88     90.4397     55.4795     45.3190
     116.110     68.1164     55.9332     3.95000    0.348878
     8.08894     124.718     1.78226     3.92123     1.66523
     40.3528     55.9052     208.650    0.996066     21.2758
    -99999.0    -99999.0     3807.76    -99999.0    -99999.0
   471.220
    -6.52781     16.0202     1358.12     3170.40     5179.91
     7752.60     9237.85     89.8157     55.2780     45.4963
     114.288     66.8156     56.9860     3.94418    0.325239
     8.03158     124.083    0.117928    0.503318     2.61166
     40.1726     55.9541     208.645    0.988907     11.8060
    -99999.0    -99999.0     3750.00    -99999.0    -99999.0
   471.270
    -10.3200     16.0207     1361.95     3185.73     5221.42
     7823.75     9262.00     90.5573     55.4916     45.3573
     115.091     68.1314     55.3282     3.94244    0.315098
     8.02934     123.596     1.35269     1.39208     3.80395
     40.2000     55.9300     208.800    0.989400     21.5790
    -99999.0    -99999.0     3678.70    -99999.0    -99999.0
   471.320
    -11.9255     16.0208     1362.89     3203.04     5228.06
     7831.43     9262.52     90.7266     55.5412     45.3238
     115.109     68.1379     55.3221     4.00581    0.337739
     8.09130     123.729     2.18696     2.18803     1.37049
     39.9823     55.9418     208.365    0.994537     26.0777
    -99999.0    -99999.0     3554.66    -99999.0    -99999.0
   471.370
    -16.6132     16.0209     1365.10     3221.23     5263.21
     7904.69     9293.87     90.5360     55.6134     45.5406
     116.148     68.5001     54.9896     4.02500    0.372318
     8.08666     123.317    0.340507     2.47194     2.02377
     39.9328     55.9566     208.133    0.996239     16.2197
    -99999.0    -99999.0     3546.19    -99999.0    -99999.0
   471.420
    -19.2552     16.0275     1368.08     3224.99     5300.65
     7984.74     9327.76     90.2200     55.4747     45.7485
     114.308     67.2862     56.5016     4.01919    0.380386
     8.09213     123.379     2.03454     2.60692     1.23921
     39.7987     55.9601     207.848    0.999026     20.1939
    -99999.0    -99999.0     3588.61    -99999.0    -99999.0
   471.470
    -20.5200     16.0297     1370.63     3235.39     5330.16
     8085.51     9391.73     90.0858     55.6360     45.7150
     114.771     68.0038     55.3113     3.98837    0.366816
     8.11729     123.705    0.126145   0.0519023     2.49924
     40.3000     55.9496     208.700    0.989096     14.3564
    -99999.0    -99999.0     3650.12    -99999.0    -99999.0
   471.520
    -21.0552     16.0298     1371.17     3243.12     5334.74
     8096.15     9393.12     90.0703     55.6732     45.7021
     114.782     68.0032     55.3075     3.94418    0.367533
     8.08817     123.861    0.917435    0.478238     3.42415
     39.7907     55.9762     208.048    0.997938     11.7701
    -99999.0    -99999.0     3668.07    -99999.0    -99999.0
