#------------------------------------------------------------
~VERSION INFORMATION
VERS.               2.0  :CWLS LOG ASCII STANDARD - VERSION 2.0
WRAP.               YES  :MULTIPLE LINES PER DEPTH STEP
#------------------------------------------------------------
~WELL INFORMATION
STRT.M          418.770  :FIRST INDEX VALUE
STOP.M          496.370  :LAST INDEX VALUE
STEP.M        0.0500000  :STEP
NULL.            -99999  :NULL VALUE
COMP.                    :COMPANY
WELL.                    :WELL
FLD.                     :FLD
LOC.                     :LOCATION
SRVC.                    :
CTRY.                    :COUNTRY
STAT.                    :STATE
CNTY.                    :
DATE.                    :DATE
API.                     :API
#------------------------------------------------------------
~CURVE INFORMATION
DEPT.M                   :DEPTH
SP.MV                    :SP
VSPR.V                   :VSPR
SPR.OHM                  :SPR
N8.OHM.M                 :N8
N16.OHM.M                :N16
N32.OHM.M                :N32
N64.OHM.M                :N64
IPLIN161.MV/V            :IPlin161
IPLIN165.MV/V            :IPlin165
IPLIN1610.MV/V           :IPlin1610
IPLIN641.MV/V            :IPlin641
IPLIN645.MV/V            :IPlin645
IPLIN6410.MV/V           :IPlin6410
SPEED.MT/MIN             :Speed
MAG_SUSC.10E-3_SI_UNITS   :Mag Susc
INDUCTION.MS/M           :Induction
IND_RES.OHM-M            :Ind Res
K.%                      :K
U.PPM                    :U
TH.PPM                   :Th
TILT.DEG                 :Tilt
MAGNFIELD.UT             :MagnField
AZIMUTH.DEG              :Azimuth
GRAVITY.G                :Gravity
GR.API                   :GR
CALIPER.CM               :Caliper
VP.M/S                   :Vp
VS.M/S                   :Vs
RHO_ND.                  :rho_ND
POISSON_RATIO.           :Poisson_ratio
#------------------------------------------------------------
~PARAMETER INFORMATION
API_Well_Number_. Yorbeau(Astoria)  :API Well Number:
Acquisition_dates_from_.   :Acquisition dates from:
Acquisition_dates_to_.   :Acquisition dates to:
BIT_FROM1.               :BIT FROM1
BIT_FROM2.               :BIT FROM2
BIT_FROM3.               :BIT FROM3
BIT_FROM4.               :BIT FROM4
BIT_FROM5.               :BIT FROM5
BIT_FROM6.               :BIT FROM6
BIT_TO1.                 :BIT TO1
BIT_TO2.                 :BIT TO2
BIT_TO3.                 :BIT TO3
BIT_TO4.                 :BIT TO4
BIT_TO5.                 :BIT TO5
BIT_TO6.                 :BIT TO6
BIT1.                    :BIT1
BIT2.                    :BIT2
BIT3.                    :BIT3
BIT4.                    :BIT4
BIT5.                    :BIT5
BIT6.                    :BIT6
BTM_LOGGED_INTERVAL.     :BTM LOGGED INTERVAL
CASING_FROM1.            :CASING FROM1
CASING_FROM2.            :CASING FROM2
CASING_FROM3.            :CASING FROM3
CASING_FROM4.            :CASING FROM4
CASING_FROM5.            :CASING FROM5
CASING_FROM6.            :CASING FROM6
CASING_SIZE1.            :CASING SIZE1
CASING_SIZE2.            :CASING SIZE2
CASING_SIZE3.            :CASING SIZE3
CASING_SIZE4.            :CASING SIZE4
CASING_SIZE5.            :CASING SIZE5
CASING_SIZE6.            :CASING SIZE6
CASING_TO1.              :CASING TO1
CASING_TO2.              :CASING TO2
CASING_TO3.              :CASING TO3
CASING_TO4.              :CASING TO4
CASING_TO5.              :CASING TO5
CASING_TO6.              :CASING TO6
CO.                      :CO
CTY.                     :CTY
Country_.        Canada  :Country:
Customer_.  Metal Earth  :Customer:
D_F_.                    :D.F.
DENSITY.                 :DENSITY
DEPTH-DRILLER.           :DEPTH-DRILLER
DEPTH-LOGGER.            :DEPTH-LOGGER
DRILLING_MEAS__FROM.     :DRILLING MEAS. FROM
Depth_unit_.     meters  :Depth unit:
Drilling_measured_from_.   :Drilling measured from:
ELEVATION.               :ELEVATION
FIELD.                   :FIELD
FILING_No.               :FILING No
File_Name_. AS-14-639-petrophysics.WCL  :File Name:
G_L_.                    :G.L.
Height_above_drilling_datum_.   :Height above drilling datum:
Height_above_log_datum_.   :Height above log datum:
K_B_.                    :K.B.
LEVEL.                   :LEVEL
LOG_MEAS__FROM.          :LOG MEAS. FROM
Location_Description_.   :Location Description:
Log_interval_is_from_. 1.36 m  :Log interval is from:
Log_interval_to_. 559.86  :Log interval to:
Log_is_measured_from_. TOP OF COLLAR  :Log is measured from:
MAX__REC__TEMP_.         :MAX. REC. TEMP.
OPERATING_RIG_TIME.      :OPERATING RIG TIME
OTHER_SERVICES.          :OTHER SERVICES
Operator_.      FG, JCD  :Operator:
Other_Services_.         :Other Services:
PERMANENT_DATUM.         :PERMANENT DATUM
Permanent_datum_elevation_#1.   :Permanent datum elevation:#1
Permanent_datum_is_#1. NQ  :Permanent datum is:#1
Permanent_datum_is_#2.   :Permanent datum is:#2
Permanent_datum_is_#3.   :Permanent datum is:#3
Permanent_datum_is__.    :Permanent datum is::
Print_type_is_.          :Print type is:
RECORDED_BY.             :RECORDED BY
RGE.                     :RGE
RUN_No.                  :RUN No
RUN1.                    :RUN1
RUN2.                    :RUN2
RUN3.                    :RUN3
RUN4.                    :RUN4
RUN5.                    :RUN5
RUN6.                    :RUN6
SALINITY.                :SALINITY
SEC.                     :SEC
STE.                     :STE
Scale_ratio_.            :Scale ratio:
Scaled_depth_is_.        :Scaled depth is:
Service_Company_. Université Laval  :Service Company:
State_/_Province_.   QC  :State / Province:
TITLE.                   :TITLE
TOP_LOGGED_INTERVAL.     :TOP LOGGED INTERVAL
TWP.                     :TWP
TYPE_FLUID_IN_HOLE.      :TYPE FLUID IN HOLE
TYPE_LOG.                :TYPE LOG
WELL_ID.                 :WELL ID
WGT1.                    :WGT1
WGT2.                    :WGT2
WGT3.                    :WGT3
WGT4.                    :WGT4
WGT5.                    :WGT5
WGT6.                    :WGT6
WITNESSED_BY.            :WITNESSED BY
Well_Name_.   AS-14-639  :Well Name:
#------------------------------------------------------------
~OTHER
#------------------------------------------------------------
~A
# ...
   434.170
     59.8800     16.0223     1386.58     3276.08     5370.94
     8098.66     9081.70     87.0852     51.2290     40.4798
     109.414     61.2721     48.9582     4.10000    0.417818
     8.30732     120.351     0.00000     0.00000     0.00000
     39.7145     55.8643     208.972    0.989111     1.11909
    -99999.0     6250.00     3521.53     2.77250    0.266111
   434.220
     60.2373     16.0225     1384.27     3275.42     5363.45
     8090.27     9103.36     87.2622     51.2492     40.3979
     109.631     62.1014     48.3853     4.08255    0.403632
     8.31152     121.171     0.00000     0.00000     0.00000
     39.2000     55.8600     208.200     1.00090     0.00000
    -99999.0     6250.00     3571.43     2.77250    0.258411
   434.270
     60.5448     16.0225     1383.66     3272.70     5362.10
     8089.21     9103.71     87.2797     51.2503     40.3791
     109.629     62.0882     48.3832     4.03082    0.388007
     8.28166     121.266     0.00000     0.00000     0.00000
     39.3387     55.8648     208.556    0.996416     0.00000
    -99999.0     6250.00     3588.62     2.77250    0.253643
   434.320
     59.1016     16.0232     1383.26     3260.80     5357.36
     8087.50     9124.14     86.9559     51.2333     40.3130
     109.562     61.2989     48.2513     4.05000    0.400522
     8.23331     120.401   0.0392942    0.797447     1.48390
     39.7680     55.8567     209.035    0.988398    0.482184
    -99999.0     6250.00     3614.46     2.77250    0.249153
   434.370
     58.6800     16.0235     1382.94     3257.93     5353.79
     8097.89     9149.18     87.6968     51.2895     40.4714
     110.400     61.2678     47.7011     4.05000    0.417512
     8.28139     119.241     0.00000     0.00000     0.00000
     39.1042     55.8555     208.108     1.00402    0.266151
    -99999.0     6199.07     3597.28     2.75945    0.245730
   434.420
     59.0368     16.0230     1380.99     3255.48     5350.40
     8103.96     9149.29     87.5925     51.3515     40.3867
     110.392     61.2673     47.7111     4.05000    0.475549
     8.35723     119.024     0.00000     0.00000     0.00000
     39.3877     55.8829     208.417    0.996345   0.0492654
    -99999.0     6122.45     3571.43     2.74496    0.242432
   434.470
     59.3441     16.0229     1380.45     3260.60     5349.84
     8104.52     9156.08     87.5413     51.3614     40.3636
     109.913     61.2460     48.3134     4.05582    0.484830
     8.41059     119.946     0.00000     0.00000     0.00000
     39.1335     55.8500     208.131     1.00209     1.18681
    -99999.0     6173.42     3588.62     2.75655    0.245070
   434.520
     58.2584     16.0292     1381.30     3261.45     5348.05
     8114.18     9165.81     87.2059     51.1170     40.2423
     109.524     61.6138     48.6376     4.07500    0.430539
     8.36679     120.959  0.00901491    0.282276     1.55391
     39.4963     55.8604     208.400    0.995133    0.963955
    -99999.0     6250.00     3614.46     2.77104    0.248368
   434.570
     58.6800     16.0312     1382.81     3261.30     5350.77
     8120.71     9178.58     87.1859     51.1026     40.2979
     110.376     60.9525     47.3604     4.07500    0.406983
     8.28791     120.799     0.00000     0.00000     0.00000
     39.7283     55.8436     209.092    0.989277     0.00000
    -99999.0     6199.10     3614.46     2.75946    0.241416
   434.620
     59.2159     16.0246     1381.32     3259.68     5356.54
     8105.57     9178.64     87.0373     51.0134     40.0762
     110.376     60.9476     47.3689     4.06337    0.448313
     8.26052     120.406     0.00000     0.00000     0.00000
     38.9235     55.8600     207.763     1.00735     0.00000
    -99999.0     6122.45     3614.46     2.74495    0.233311
   434.670
     59.4097     16.0227     1380.79     3259.42     5357.55
     8103.75     9182.49     87.0065     50.9946     40.0298
     110.360     60.6697     47.8764     4.04243    0.447206
     8.30109     120.058     0.00000     0.00000     0.00000
     39.9309     55.8544     209.275    0.984741     0.00000
    -99999.0     6122.45     3614.46     2.74350    0.232500
   434.720
     55.9868     16.0221     1379.18     3257.10     5357.53
     8101.37     9203.13     87.1353     50.9773     39.9776
     109.229     61.0843     48.9031     4.10000    0.412127
     8.31879     119.472     0.00000     0.00000     0.00000
     39.2855     55.8540     208.507    0.998342     0.00000
    -99999.0     6122.45     3597.26     2.74350    0.236819
   434.770
     53.8800     16.0227     1377.61     3256.50     5355.81
     8109.36     9238.30     87.3878     51.0689     40.1866
     110.987     60.4821     46.8485     4.10581    0.427866
     8.35433     118.895    0.461143     2.68897     8.10848
     38.8000     55.8625     207.475     1.00958     1.27007
    -99999.0     6173.38     3571.43     2.75654    0.248542
   434.820
     55.1287     16.0244     1376.43     3256.48     5349.99
     8110.31     9238.66     87.3169     51.1329     40.0906
     110.988     60.4804     46.8573     4.12500    0.485932
     8.39820     118.998     0.00000     0.00000     0.00000
     39.3181     55.8418     208.336    0.999384     0.00000
    -99999.0     6199.10     3606.19     2.75800    0.240897
   434.870
     58.7946     16.0249     1376.18     3255.74     5348.91
     8102.97     9259.90     87.2943     51.1418     40.0634
     111.036     60.4017     47.3827     4.10755    0.491397
     8.41480     118.360     0.00000     0.00000     0.00000
     38.7763     55.8707     207.597     1.01122     0.00000
    -99999.0     6122.45     3640.94     2.74495    0.228652
   434.920
     59.7664     16.0258     1376.76     3249.02     5339.17
     8106.46     9269.89     87.0328     50.9806     39.9898
     109.907     61.4009     47.6221     4.05000    0.484537
     8.41801     117.709     0.00000     0.00000     0.00000
     39.8000     55.8590     209.100    0.988200     0.00000
    -99999.0     6173.38     3632.06     2.75654    0.235044
   434.970
     58.0800     16.0269     1376.74     3247.35     5330.03
     8110.51     9281.68     87.3351     50.9939     39.9060
     111.748     61.5722     46.9730     4.05000    0.500249
     8.48851     118.445     0.00000     0.00000     0.00000
     39.7000     55.8638     208.777    0.988970     0.00000
    -99999.0     6250.00     3640.92     2.77105    0.243279
   435.020
     58.4368     16.0278     1374.40     3245.33     5328.62
     8110.92     9281.88     87.4039     51.0027     39.8925
     111.749     61.5626     46.9783     4.05000    0.545803
     8.47535     118.767  0.000508062   0.0438899    0.282619
     39.4707     55.8554     208.587    0.994998     2.32634
    -99999.0     6250.00     3614.46     2.77250    0.248237
   435.070
     59.1016     16.0280     1373.74     3244.14     5325.55
     8089.00     9293.24     87.1923     50.9017     39.8910
     111.755     60.9950     47.2946     4.05000    0.567395
     8.41352     117.806     0.00000     0.00000     0.00000
     39.4301     55.8780     208.500    0.994839     0.00000
    -99999.0     6250.00     3614.46     2.77250    0.248700
   435.120
     58.6800     16.0280     1372.60     3243.97     5322.22
     8074.84     9304.52     86.7384     50.8675     39.8900
     111.420     61.3783     47.2740     4.05000    0.558474
     8.45542     117.949     0.00000     0.00000     0.00000
     39.2141     55.8729     208.214    0.999861     1.13003
    -99999.0     6250.00     3614.46     2.77250    0.248700
   435.170
     58.5016     16.0278     1371.51     3236.41     5313.07
     8078.13     9313.49     87.1248     50.8362     39.6927
     112.458     61.6945     46.7046     4.05000    0.552680
     8.50335     118.850     0.00000     0.00000     0.00000
     40.0000     55.8800     209.300    0.982300    0.896150
    -99999.0     6250.00     3614.46     2.77250    0.248700
   435.220
     58.6159     16.0277     1371.29     3231.35     5311.39
     8078.67     9313.50     87.2161     50.8307     39.6541
     112.465     61.6945     46.7115     4.05000    0.537732
     8.43413     118.423     0.00000     0.00000     0.00000
     39.7960     55.8387     209.144    0.989073     0.00000
    -99999.0     6199.03     3597.26     2.75945    0.245730
